<?xml version="1.0" encoding="UTF-8"?>
<kml xmlns="http://www.opengis.net/kml/2.2">
  <Document>
    <name>Akademibokhandeln</name>
    <description/>
    <Style id="icon-22-normal">
      <IconStyle>
        <scale>1.1</scale>
        <Icon>
          <href>https://www.gstatic.com/mapspro/images/stock/22-blue-dot.png</href>
        </Icon>
        <hotSpot x="16" xunits="pixels" y="32" yunits="insetPixels"/>
      </IconStyle>
      <LabelStyle>
        <scale>0</scale>
      </LabelStyle>
    </Style>
    <Style id="icon-22-highlight">
      <IconStyle>
        <scale>1.1</scale>
        <Icon>
          <href>https://www.gstatic.com/mapspro/images/stock/22-blue-dot.png</href>
        </Icon>
        <hotSpot x="16" xunits="pixels" y="32" yunits="insetPixels"/>
      </IconStyle>
      <LabelStyle>
        <scale>1.1</scale>
      </LabelStyle>
    </Style>
    <StyleMap id="icon-22">
      <Pair>
        <key>normal</key>
        <styleUrl>#icon-22-normal</styleUrl>
      </Pair>
      <Pair>
        <key>highlight</key>
        <styleUrl>#icon-22-highlight</styleUrl>
      </Pair>
    </StyleMap>
    <Folder>
      <name>Akademibokhandeln</name>
      <Placemark>
        <name>Akademibokhandeln Stenungsund</name>
        <description>Akademibokhandeln Stenungsund, Stenungsund</description>
        <styleUrl>#icon-22</styleUrl>
        <Point>
          <coordinates>
            11.817187,58.069312,0
          </coordinates>
        </Point>
      </Placemark>
      <Placemark>
        <name>Akademibokhandeln Frölunda Torg</name>
        <description>Akademibokhandeln Frölunda Torg, Västra Frölunda</description>
        <styleUrl>#icon-22</styleUrl>
        <Point>
          <coordinates>
            11.911188,57.651688,0
          </coordinates>
        </Point>
      </Placemark>
      <Placemark>
        <name>Akademibokhandeln Göteborg Backaplan</name>
        <description>Akademibokhandeln Göteborg Backaplan, Göteborg</description>
        <styleUrl>#icon-22</styleUrl>
        <Point>
          <coordinates>
            11.951812,57.722313,0
          </coordinates>
        </Point>
      </Placemark>
      <Placemark>
        <name>Akademibokhandeln Göteborg Järntorget</name>
        <description>Akademibokhandeln Göteborg Järntorget, Göteborg</description>
        <styleUrl>#icon-22</styleUrl>
        <Point>
          <coordinates>
            11.953563,57.699438,0
          </coordinates>
        </Point>
      </Placemark>
      <Placemark>
        <name>Akademibokhandeln Göteborg Västra Hamngatan</name>
        <description>Akademibokhandeln Göteborg Västra Hamngatan, Göteborg</description>
        <styleUrl>#icon-22</styleUrl>
        <Point>
          <coordinates>
            11.964688,57.703063,0
          </coordinates>
        </Point>
      </Placemark>
      <Placemark>
        <name>Akademibokhandeln Göteborg Kungsgatan</name>
        <description>Akademibokhandeln Göteborg Kungsgatan, Göteborg</description>
        <styleUrl>#icon-22</styleUrl>
        <Point>
          <coordinates>
            11.967063,57.704563,0
          </coordinates>
        </Point>
      </Placemark>
      <Placemark>
        <name>Akademibokhandeln Kungälv Kongahälla</name>
        <description>Akademibokhandeln Kungälv Kongahälla, Kungälv</description>
        <styleUrl>#icon-22</styleUrl>
        <Point>
          <coordinates>
            11.968063,57.873562,0
          </coordinates>
        </Point>
      </Placemark>
      <Placemark>
        <name>Akademibokhandeln Göteborg Nordstan</name>
        <description>Akademibokhandeln Göteborg Nordstan, Göteborg</description>
        <styleUrl>#icon-22</styleUrl>
        <Point>
          <coordinates>
            11.969563,57.707313,0
          </coordinates>
        </Point>
      </Placemark>
      <Placemark>
        <name>Akademibokhandeln Göteborg Olskroken</name>
        <description>Akademibokhandeln Göteborg Olskroken, Göteborg</description>
        <styleUrl>#icon-22</styleUrl>
        <Point>
          <coordinates>
            12.000187,57.714938,0
          </coordinates>
        </Point>
      </Placemark>
      <Placemark>
        <name>Akademibokhandeln Mölndal Galleria</name>
        <description>Akademibokhandeln Mölndal Galleria, Mölndal</description>
        <styleUrl>#icon-22</styleUrl>
        <Point>
          <coordinates>
            12.013813,57.655187,0
          </coordinates>
        </Point>
      </Placemark>
      <Placemark>
        <name>Akademibokhandeln Kungsbacka Kungsmässan</name>
        <description>Akademibokhandeln Kungsbacka Kungsmässan, Kungsbacka</description>
        <styleUrl>#icon-22</styleUrl>
        <Point>
          <coordinates>
            12.074813,57.492687,0
          </coordinates>
        </Point>
      </Placemark>
      <Placemark>
        <name>Akademibokhandeln Partille Allum</name>
        <description>Akademibokhandeln Partille Allum, Partille</description>
        <styleUrl>#icon-22</styleUrl>
        <Point>
          <coordinates>
            12.105438,57.737063,0
          </coordinates>
        </Point>
      </Placemark>
      <Placemark>
        <name>Akademibokhandeln Lerum Solkatten</name>
        <description>Akademibokhandeln Lerum Solkatten, Lerum</description>
        <styleUrl>#icon-22</styleUrl>
        <Point>
          <coordinates>
            12.269687,57.769687,0
          </coordinates>
        </Point>
      </Placemark>
      <Placemark>
        <name>Akademibokhandeln Trollhättan Överby</name>
        <description>Akademibokhandeln Trollhättan Överby, Trollhättan</description>
        <styleUrl>#icon-22</styleUrl>
        <Point>
          <coordinates>
            12.307937,58.312438,0
          </coordinates>
        </Point>
      </Placemark>
      <Placemark>
        <name>Akademibokhandeln Vänersborg</name>
        <description>Akademibokhandeln Vänersborg, Vänersborg</description>
        <styleUrl>#icon-22</styleUrl>
        <Point>
          <coordinates>
            12.322062,58.380688,0
          </coordinates>
        </Point>
      </Placemark>
      <Placemark>
        <name>Akademibokhandeln Alingsås</name>
        <description>Akademibokhandeln Alingsås, Alingsås</description>
        <styleUrl>#icon-22</styleUrl>
        <Point>
          <coordinates>
            12.533687,57.930187,0
          </coordinates>
        </Point>
      </Placemark>
      <Placemark>
        <name>Akademibokhandeln Arvika</name>
        <description>Akademibokhandeln Arvika, Arvika</description>
        <styleUrl>#icon-22</styleUrl>
        <Point>
          <coordinates>
            12.593312,59.654187,0
          </coordinates>
        </Point>
      </Placemark>
      <Placemark>
        <name>Akademibokhandeln Helsingborg Stortorget</name>
        <description>Akademibokhandeln Helsingborg Stortorget, Helsingborg</description>
        <styleUrl>#icon-22</styleUrl>
        <Point>
          <coordinates>
            12.694063,56.046312,0
          </coordinates>
        </Point>
      </Placemark>
      <Placemark>
        <name>Akademibokhandeln Helsingborg Väla</name>
        <description>Akademibokhandeln Helsingborg Väla, Ödåkra</description>
        <styleUrl>#icon-22</styleUrl>
        <Point>
          <coordinates>
            12.756438,56.091687,0
          </coordinates>
        </Point>
      </Placemark>
      <Placemark>
        <name>Akademibokhandeln Landskrona</name>
        <description>Akademibokhandeln Landskrona, Landskrona</description>
        <styleUrl>#icon-22</styleUrl>
        <Point>
          <coordinates>
            12.831188,55.870562,0
          </coordinates>
        </Point>
      </Placemark>
      <Placemark>
        <name>Akademibokhandeln Halmstad City</name>
        <description>Akademibokhandeln Halmstad City, Halmstad</description>
        <styleUrl>#icon-22</styleUrl>
        <Point>
          <coordinates>
            12.858937,56.675187,0
          </coordinates>
        </Point>
      </Placemark>
      <Placemark>
        <name>Akademibokhandeln Ängelholm</name>
        <description>Akademibokhandeln Ängelholm, Ängelholm</description>
        <styleUrl>#icon-22</styleUrl>
        <Point>
          <coordinates>
            12.863563,56.245438,0
          </coordinates>
        </Point>
      </Placemark>
      <Placemark>
        <name>Akademibokhandeln Halmstad Hallarna</name>
        <description>Akademibokhandeln Halmstad Hallarna, Halmstad</description>
        <styleUrl>#icon-22</styleUrl>
        <Point>
          <coordinates>
            12.910063,56.655313,0
          </coordinates>
        </Point>
      </Placemark>
      <Placemark>
        <name>Akademibokhandeln Borås Knalleland</name>
        <description>Akademibokhandeln Borås Knalleland, Borås</description>
        <styleUrl>#icon-22</styleUrl>
        <Point>
          <coordinates>
            12.940062,57.733187,0
          </coordinates>
        </Point>
      </Placemark>
      <Placemark>
        <name>Akademibokhandeln Borås City</name>
        <description>Akademibokhandeln Borås City, Borås</description>
        <styleUrl>#icon-22</styleUrl>
        <Point>
          <coordinates>
            12.941313,57.720813,0
          </coordinates>
        </Point>
      </Placemark>
      <Placemark>
        <name>Akademibokhandeln Malmö Emporia</name>
        <description>Akademibokhandeln Malmö Emporia, Malmö</description>
        <styleUrl>#icon-22</styleUrl>
        <Point>
          <coordinates>
            12.973313,55.564312,0
          </coordinates>
        </Point>
      </Placemark>
      <Placemark>
        <name>Akademibokhandeln Löddeköpinge Center Syd</name>
        <description>Akademibokhandeln Löddeköpinge Center Syd, Löddeköpinge</description>
        <styleUrl>#icon-22</styleUrl>
        <Point>
          <coordinates>
            12.987813,55.769312,0
          </coordinates>
        </Point>
      </Placemark>
      <Placemark>
        <name>Akademibokhandeln Malmö Triangeln</name>
        <description>Akademibokhandeln Malmö Triangeln, Malmö</description>
        <styleUrl>#icon-22</styleUrl>
        <Point>
          <coordinates>
            13.001563,55.595062,0
          </coordinates>
        </Point>
      </Placemark>
      <Placemark>
        <name>Akademibokhandeln Malmö Mobilia</name>
        <description>Akademibokhandeln Malmö Mobilia, Malmö</description>
        <styleUrl>#icon-22</styleUrl>
        <Point>
          <coordinates>
            13.002813,55.580437,0
          </coordinates>
        </Point>
      </Placemark>
      <Placemark>
        <name>Akademibokhandeln Malmö Hansa</name>
        <description>Akademibokhandeln Malmö Hansa, Malmö</description>
        <styleUrl>#icon-22</styleUrl>
        <Point>
          <coordinates>
            13.004687,55.603188,0
          </coordinates>
        </Point>
      </Placemark>
      <Placemark>
        <name>Akademibokhandeln Burlöv Center</name>
        <description>Akademibokhandeln Burlöv Center, Arlöv</description>
        <styleUrl>#icon-22</styleUrl>
        <Point>
          <coordinates>
            13.085187,55.639813,0
          </coordinates>
        </Point>
      </Placemark>
      <Placemark>
        <name>Akademibokhandeln Lund Nova</name>
        <description>Akademibokhandeln Lund Nova, Lund</description>
        <styleUrl>#icon-22</styleUrl>
        <Point>
          <coordinates>
            13.160687,55.714437,0
          </coordinates>
        </Point>
      </Placemark>
      <Placemark>
        <name>Akademibokhandeln Lund Stortorget</name>
        <description>Akademibokhandeln Lund Stortorget, Lund</description>
        <styleUrl>#icon-22</styleUrl>
        <Point>
          <coordinates>
            13.192438,55.703063,0
          </coordinates>
        </Point>
      </Placemark>
      <Placemark>
        <name>Akademibokhandeln Ulricehamn</name>
        <description>Akademibokhandeln Ulricehamn, Ulricehamn</description>
        <styleUrl>#icon-22</styleUrl>
        <Point>
          <coordinates>
            13.412313,57.791812,0
          </coordinates>
        </Point>
      </Placemark>
      <Placemark>
        <name>Akademibokhandeln Karlstad Bergvik</name>
        <description>Akademibokhandeln Karlstad Bergvik, Karlstad</description>
        <styleUrl>#icon-22</styleUrl>
        <Point>
          <coordinates>
            13.425438,59.378312,0
          </coordinates>
        </Point>
      </Placemark>
      <Placemark>
        <name>Akademibokhandeln Karlstad Mitt i City</name>
        <description>Akademibokhandeln Karlstad Mitt i City, Karlstad</description>
        <styleUrl>#icon-22</styleUrl>
        <Point>
          <coordinates>
            13.500813,59.380187,0
          </coordinates>
        </Point>
      </Placemark>
      <Placemark>
        <name>Akademibokhandeln Skövde Commerce</name>
        <description>Akademibokhandeln Skövde Commerce, Skövde</description>
        <styleUrl>#icon-22</styleUrl>
        <Point>
          <coordinates>
            13.844812,58.390062,0
          </coordinates>
        </Point>
      </Placemark>
      <Placemark>
        <name>Akademibokhandeln Kristianstad Centrum</name>
        <description>Akademibokhandeln Kristianstad Centrum, Kristianstad</description>
        <styleUrl>#icon-22</styleUrl>
        <Point>
          <coordinates>
            14.155812,56.029937,0
          </coordinates>
        </Point>
      </Placemark>
      <Placemark>
        <name>Akademibokhandeln Jönköping City</name>
        <description>Akademibokhandeln Jönköping City, Jönköping</description>
        <styleUrl>#icon-22</styleUrl>
        <Point>
          <coordinates>
            14.173312,57.782187,0
          </coordinates>
        </Point>
      </Placemark>
      <Placemark>
        <name>Akademibokhandeln Jönköping A6</name>
        <description>Akademibokhandeln Jönköping A6, Jönköping</description>
        <styleUrl>#icon-22</styleUrl>
        <Point>
          <coordinates>
            14.203812,57.773937,0
          </coordinates>
        </Point>
      </Placemark>
      <Placemark>
        <name>Akademibokhandeln Kristianstad C4</name>
        <description>Akademibokhandeln Kristianstad C4, Kristianstad</description>
        <styleUrl>#icon-22</styleUrl>
        <Point>
          <coordinates>
            14.205438,56.025312,0
          </coordinates>
        </Point>
      </Placemark>
      <Placemark>
        <name>Akademibokhandeln Mora</name>
        <description>Akademibokhandeln Mora, Mora</description>
        <styleUrl>#icon-22</styleUrl>
        <Point>
          <coordinates>
            14.540188,61.006187,0
          </coordinates>
        </Point>
      </Placemark>
      <Placemark>
        <name>Akademibokhandeln Östersund Kärnan</name>
        <description>Akademibokhandeln Östersund Kärnan, Östersund</description>
        <styleUrl>#icon-22</styleUrl>
        <Point>
          <coordinates>
            14.638562,63.176313,0
          </coordinates>
        </Point>
      </Placemark>
      <Placemark>
        <name>Akademibokhandeln Växjö Grand Samarkand</name>
        <description>Akademibokhandeln Växjö Grand Samarkand, Växjö</description>
        <styleUrl>#icon-22</styleUrl>
        <Point>
          <coordinates>
            14.766938,56.884937,0
          </coordinates>
        </Point>
      </Placemark>
      <Placemark>
        <name>Akademibokhandeln Växjö City</name>
        <description>Akademibokhandeln Växjö City, Växjö</description>
        <styleUrl>#icon-22</styleUrl>
        <Point>
          <coordinates>
            14.806687,56.877562,0
          </coordinates>
        </Point>
      </Placemark>
      <Placemark>
        <name>Akademibokhandeln Örebro Marieberg Galleria</name>
        <description>Akademibokhandeln Örebro Marieberg Galleria, Örebro</description>
        <styleUrl>#icon-22</styleUrl>
        <Point>
          <coordinates>
            15.136938,59.217062,0
          </coordinates>
        </Point>
      </Placemark>
      <Placemark>
        <name>Akademibokhandeln Örebro Krämaren</name>
        <description>Akademibokhandeln Örebro Krämaren, Örebro</description>
        <styleUrl>#icon-22</styleUrl>
        <Point>
          <coordinates>
            15.210187,59.269188,0
          </coordinates>
        </Point>
      </Placemark>
      <Placemark>
        <name>Akademibokhandeln Borlänge Kupolen</name>
        <description>Akademibokhandeln Borlänge Kupolen, Borlänge</description>
        <styleUrl>#icon-22</styleUrl>
        <Point>
          <coordinates>
            15.417687,60.483812,0
          </coordinates>
        </Point>
      </Placemark>
      <Placemark>
        <name>Akademibokhandeln Karlskrona</name>
        <description>Akademibokhandeln Karlskrona, Karlskrona</description>
        <styleUrl>#icon-22</styleUrl>
        <Point>
          <coordinates>
            15.584563,56.160562,0
          </coordinates>
        </Point>
      </Placemark>
      <Placemark>
        <name>Akademibokhandeln Linköping Tornby i-Huset</name>
        <description>Akademibokhandeln Linköping Tornby i-Huset, Linköping</description>
        <styleUrl>#icon-22</styleUrl>
        <Point>
          <coordinates>
            15.585562,58.433187,0
          </coordinates>
        </Point>
      </Placemark>
      <Placemark>
        <name>Akademibokhandeln Linköping Storgatan</name>
        <description>Akademibokhandeln Linköping Storgatan, Linköping</description>
        <styleUrl>#icon-22</styleUrl>
        <Point>
          <coordinates>
            15.625563,58.410937,0
          </coordinates>
        </Point>
      </Placemark>
      <Placemark>
        <name>Akademibokhandeln Falun</name>
        <description>Akademibokhandeln Falun, Falun</description>
        <styleUrl>#icon-22</styleUrl>
        <Point>
          <coordinates>
            15.631687,60.605688,0
          </coordinates>
        </Point>
      </Placemark>
      <Placemark>
        <name>Akademibokhandeln Norrköping Ingelsta Shopping</name>
        <description>Akademibokhandeln Norrköping Ingelsta Shopping, Norrköping</description>
        <styleUrl>#icon-22</styleUrl>
        <Point>
          <coordinates>
            16.157688,58.619187,0
          </coordinates>
        </Point>
      </Placemark>
      <Placemark>
        <name>Akademibokhandeln Norrköping Galleria Domino</name>
        <description>Akademibokhandeln Norrköping Galleria Domino, Norrköping</description>
        <styleUrl>#icon-22</styleUrl>
        <Point>
          <coordinates>
            16.190438,58.588437,0
          </coordinates>
        </Point>
      </Placemark>
      <Placemark>
        <name>Akademibokhandeln Kalmar</name>
        <description>Akademibokhandeln Kalmar, Kalmar</description>
        <styleUrl>#icon-22</styleUrl>
        <Point>
          <coordinates>
            16.363437,56.664063,0
          </coordinates>
        </Point>
      </Placemark>
      <Placemark>
        <name>Akademibokhandeln Västerås Erikslund</name>
        <description>Akademibokhandeln Västerås Erikslund, Västerås</description>
        <styleUrl>#icon-22</styleUrl>
        <Point>
          <coordinates>
            16.453562,59.609063,0
          </coordinates>
        </Point>
      </Placemark>
      <Placemark>
        <name>Akademibokhandeln Eskilstuna Tuna Park</name>
        <description>Akademibokhandeln Eskilstuna Tuna Park, Eskilstuna</description>
        <styleUrl>#icon-22</styleUrl>
        <Point>
          <coordinates>
            16.470062,59.371313,0
          </coordinates>
        </Point>
      </Placemark>
      <Placemark>
        <name>Akademibokhandeln Västerås Igor</name>
        <description>Akademibokhandeln Västerås Igor, Västerås</description>
        <styleUrl>#icon-22</styleUrl>
        <Point>
          <coordinates>
            16.544438,59.611812,0
          </coordinates>
        </Point>
      </Placemark>
      <Placemark>
        <name>Akademibokhandeln Nyköping</name>
        <description>Akademibokhandeln Nyköping, Nyköping</description>
        <styleUrl>#icon-22</styleUrl>
        <Point>
          <coordinates>
            17.007188,58.752437,0
          </coordinates>
        </Point>
      </Placemark>
      <Placemark>
        <name>Akademibokhandeln Strängnäs</name>
        <description>Akademibokhandeln Strängnäs, Strängnäs</description>
        <styleUrl>#icon-22</styleUrl>
        <Point>
          <coordinates>
            17.027062,59.376312,0
          </coordinates>
        </Point>
      </Placemark>
      <Placemark>
        <name>Akademibokhandeln Gävle Galleria Nian</name>
        <description>Akademibokhandeln Gävle Galleria Nian, Gävle</description>
        <styleUrl>#icon-22</styleUrl>
        <Point>
          <coordinates>
            17.139938,60.674187,0
          </coordinates>
        </Point>
      </Placemark>
      <Placemark>
        <name>Akademibokhandeln Sundsvall Storgatan</name>
        <description>Akademibokhandeln Sundsvall Storgatan, Sundsvall</description>
        <styleUrl>#icon-22</styleUrl>
        <Point>
          <coordinates>
            17.309438,62.390937,0
          </coordinates>
        </Point>
      </Placemark>
      <Placemark>
        <name>Akademibokhandeln Sundsvall Birsta City</name>
        <description>Akademibokhandeln Sundsvall Birsta City, Sundsvall</description>
        <styleUrl>#icon-22</styleUrl>
        <Point>
          <coordinates>
            17.336188,62.447063,0
          </coordinates>
        </Point>
      </Placemark>
      <Placemark>
        <name>Akademibokhandeln Södertälje Kringlan</name>
        <description>Akademibokhandeln Södertälje Kringlan, Södertälje</description>
        <styleUrl>#icon-22</styleUrl>
        <Point>
          <coordinates>
            17.628813,59.195812,0
          </coordinates>
        </Point>
      </Placemark>
      <Placemark>
        <name>Akademibokhandeln Uppsala Stora Torget</name>
        <description>Akademibokhandeln Uppsala Stora Torget, Uppsala</description>
        <styleUrl>#icon-22</styleUrl>
        <Point>
          <coordinates>
            17.639187,59.858187,0
          </coordinates>
        </Point>
      </Placemark>
      <Placemark>
        <name>Akademibokhandeln Uppsala Gränbystaden</name>
        <description>Akademibokhandeln Uppsala Gränbystaden, Uppsala</description>
        <styleUrl>#icon-22</styleUrl>
        <Point>
          <coordinates>
            17.673187,59.876812,0
          </coordinates>
        </Point>
      </Placemark>
      <Placemark>
        <name>Akademibokhandeln Kista Galleria</name>
        <description>Akademibokhandeln Kista Galleria, Kista</description>
        <styleUrl>#icon-22</styleUrl>
        <Point>
          <coordinates>
            17.946562,59.402687,0
          </coordinates>
        </Point>
      </Placemark>
      <Placemark>
        <name>Akademibokhandeln Sollentuna Centrum</name>
        <description>Akademibokhandeln Sollentuna Centrum, Sollentuna</description>
        <styleUrl>#icon-22</styleUrl>
        <Point>
          <coordinates>
            17.952188,59.428562,0
          </coordinates>
        </Point>
      </Placemark>
      <Placemark>
        <name>Akademibokhandeln Bromma Blocks</name>
        <description>Akademibokhandeln Bromma Blocks, Bromma</description>
        <styleUrl>#icon-22</styleUrl>
        <Point>
          <coordinates>
            17.956688,59.355688,0
          </coordinates>
        </Point>
      </Placemark>
      <Placemark>
        <name>Akademibokhandeln Huddinge Centrum</name>
        <description>Akademibokhandeln Huddinge Centrum, Huddinge</description>
        <styleUrl>#icon-22</styleUrl>
        <Point>
          <coordinates>
            17.981063,59.236062,0
          </coordinates>
        </Point>
      </Placemark>
      <Placemark>
        <name>Akademibokhandeln Solna Centrum</name>
        <description>Akademibokhandeln Solna Centrum, Solna</description>
        <styleUrl>#icon-22</styleUrl>
        <Point>
          <coordinates>
            18.000312,59.358937,0
          </coordinates>
        </Point>
      </Placemark>
      <Placemark>
        <name>Akademibokhandeln Westfield Mall of Scandinavia</name>
        <description>Akademibokhandeln Westfield Mall of Scandinavia, Solna</description>
        <styleUrl>#icon-22</styleUrl>
        <Point>
          <coordinates>
            18.004562,59.370687,0
          </coordinates>
        </Point>
      </Placemark>
      <Placemark>
        <name>Akademibokhandeln Stockholm Liljeholmen</name>
        <description>Akademibokhandeln Stockholm Liljeholmen, Stockholm</description>
        <styleUrl>#icon-22</styleUrl>
        <Point>
          <coordinates>
            18.022562,59.309438,0
          </coordinates>
        </Point>
      </Placemark>
      <Placemark>
        <name>Akademibokhandeln Stockholm Kungsholmen</name>
        <description>Akademibokhandeln Stockholm Kungsholmen, Stockholm</description>
        <styleUrl>#icon-22</styleUrl>
        <Point>
          <coordinates>
            18.032438,59.333687,0
          </coordinates>
        </Point>
      </Placemark>
      <Placemark>
        <name>Akademibokhandeln Stockholm Hornstull</name>
        <description>Akademibokhandeln Stockholm Hornstull, Stockholm</description>
        <styleUrl>#icon-22</styleUrl>
        <Point>
          <coordinates>
            18.034062,59.316437,0
          </coordinates>
        </Point>
      </Placemark>
      <Placemark>
        <name>Akademibokhandeln Mörby Centrum</name>
        <description>Akademibokhandeln Mörby Centrum, Danderyd</description>
        <styleUrl>#icon-22</styleUrl>
        <Point>
          <coordinates>
            18.036938,59.397687,0
          </coordinates>
        </Point>
      </Placemark>
      <Placemark>
        <name>Akademibokhandeln Stockholm Odenplan</name>
        <description>Akademibokhandeln Stockholm Odenplan, Stockholm</description>
        <styleUrl>#icon-22</styleUrl>
        <Point>
          <coordinates>
            18.051313,59.342813,0
          </coordinates>
        </Point>
      </Placemark>
      <Placemark>
        <name>Akademibokhandeln Stockholm Frescati</name>
        <description>Akademibokhandeln Stockholm Frescati, Stockholm</description>
        <styleUrl>#icon-22</styleUrl>
        <Point>
          <coordinates>
            18.058062,59.363563,0
          </coordinates>
        </Point>
      </Placemark>
      <Placemark>
        <name>Akademibokhandeln Stockholm Gallerian</name>
        <description>Akademibokhandeln Stockholm Gallerian, Stockholm</description>
        <styleUrl>#icon-22</styleUrl>
        <Point>
          <coordinates>
            18.066688,59.332187,0
          </coordinates>
        </Point>
      </Placemark>
      <Placemark>
        <name>Akademibokhandeln Stockholm Centralen</name>
        <description>Akademibokhandeln Stockholm Centralen, Stockholm</description>
        <styleUrl>#icon-22</styleUrl>
        <Point>
          <coordinates>
            18.067312,59.334187,0
          </coordinates>
        </Point>
      </Placemark>
      <Placemark>
        <name>Akademibokhandeln Stockholm Mäster Samuelsgatan</name>
        <description>Akademibokhandeln Stockholm Mäster Samuelsgatan, Stockholm</description>
        <styleUrl>#icon-22</styleUrl>
        <Point>
          <coordinates>
            18.067312,59.334187,0
          </coordinates>
        </Point>
      </Placemark>
      <Placemark>
        <name>Akademibokhandeln Täby Centrum</name>
        <description>Akademibokhandeln Täby Centrum, Täby</description>
        <styleUrl>#icon-22</styleUrl>
        <Point>
          <coordinates>
            18.071937,59.443938,0
          </coordinates>
        </Point>
      </Placemark>
      <Placemark>
        <name>Akademibokhandeln Stockholm Ringen</name>
        <description>Akademibokhandeln Stockholm Ringen, Stockholm</description>
        <styleUrl>#icon-22</styleUrl>
        <Point>
          <coordinates>
            18.075688,59.308437,0
          </coordinates>
        </Point>
      </Placemark>
      <Placemark>
        <name>Akademibokhandeln Stockholm Fältöversten</name>
        <description>Akademibokhandeln Stockholm Fältöversten, Stockholm</description>
        <styleUrl>#icon-22</styleUrl>
        <Point>
          <coordinates>
            18.090313,59.340312,0
          </coordinates>
        </Point>
      </Placemark>
      <Placemark>
        <name>Akademibokhandeln Farsta Centrum</name>
        <description>Akademibokhandeln Farsta Centrum, Farsta</description>
        <styleUrl>#icon-22</styleUrl>
        <Point>
          <coordinates>
            18.091813,59.243188,0
          </coordinates>
        </Point>
      </Placemark>
      <Placemark>
        <name>Akademibokhandeln Nacka Sickla Köpkvarter</name>
        <description>Akademibokhandeln Nacka Sickla Köpkvarter, Nacka</description>
        <styleUrl>#icon-22</styleUrl>
        <Point>
          <coordinates>
            18.126438,59.306062,0
          </coordinates>
        </Point>
      </Placemark>
      <Placemark>
        <name>Akademibokhandeln Lidingö Centrum</name>
        <description>Akademibokhandeln Lidingö Centrum, Lidingö</description>
        <styleUrl>#icon-22</styleUrl>
        <Point>
          <coordinates>
            18.134062,59.365687,0
          </coordinates>
        </Point>
      </Placemark>
      <Placemark>
        <name>Akademibokhandeln Haninge Centrum</name>
        <description>Akademibokhandeln Haninge Centrum, Handen</description>
        <styleUrl>#icon-22</styleUrl>
        <Point>
          <coordinates>
            18.140188,59.169187,0
          </coordinates>
        </Point>
      </Placemark>
      <Placemark>
        <name>Akademibokhandeln Nacka Forum</name>
        <description>Akademibokhandeln Nacka Forum, Nacka</description>
        <styleUrl>#icon-22</styleUrl>
        <Point>
          <coordinates>
            18.164813,59.309812,0
          </coordinates>
        </Point>
      </Placemark>
      <Placemark>
        <name>Akademibokhandeln Åkersberga Centrum</name>
        <description>Akademibokhandeln Åkersberga Centrum, Åkersberga</description>
        <styleUrl>#icon-22</styleUrl>
        <Point>
          <coordinates>
            18.297187,59.479937,0
          </coordinates>
        </Point>
      </Placemark>
      <Placemark>
        <name>Akademibokhandeln Örnsköldsvik Oskargallerian</name>
        <description>Akademibokhandeln Örnsköldsvik Oskargallerian, Örnsköldsvik</description>
        <styleUrl>#icon-22</styleUrl>
        <Point>
          <coordinates>
            18.713687,63.290937,0
          </coordinates>
        </Point>
      </Placemark>
      <Placemark>
        <name>Akademibokhandeln Umeå Avion Shopping</name>
        <description>Akademibokhandeln Umeå Avion Shopping, Umeå</description>
        <styleUrl>#icon-22</styleUrl>
        <Point>
          <coordinates>
            20.255187,63.806812,0
          </coordinates>
        </Point>
      </Placemark>
      <Placemark>
        <name>Akademibokhandeln Umeå Rådhustorget</name>
        <description>Akademibokhandeln Umeå Rådhustorget, Umeå</description>
        <styleUrl>#icon-22</styleUrl>
        <Point>
          <coordinates>
            20.263813,63.825187,0
          </coordinates>
        </Point>
      </Placemark>
      <Placemark>
        <name>Akademibokhandeln Skellefteå</name>
        <description>Akademibokhandeln Skellefteå, Skellefteå</description>
        <styleUrl>#icon-22</styleUrl>
        <Point>
          <coordinates>
            20.951813,64.750563,0
          </coordinates>
        </Point>
      </Placemark>
      <Placemark>
        <name>Akademibokhandeln Piteå Småstaden</name>
        <description>Akademibokhandeln Piteå Småstaden, Piteå</description>
        <styleUrl>#icon-22</styleUrl>
        <Point>
          <coordinates>
            21.477688,65.317062,0
          </coordinates>
        </Point>
      </Placemark>
      <Placemark>
        <name>Akademibokhandeln Luleå C Smedjan</name>
        <description>Akademibokhandeln Luleå C Smedjan, Luleå</description>
        <styleUrl>#icon-22</styleUrl>
        <Point>
          <coordinates>
            22.153188,65.583938,0
          </coordinates>
        </Point>
      </Placemark>
    </Folder>
  </Document>
</kml>