<?xml version="1.0" encoding="UTF-8"?>
<kml xmlns="http://www.opengis.net/kml/2.2">
  <Document>
    <name><![CDATA[Akademibokhandeln]]></name>
    <description/>
    <Style id="icon-22-normal"><IconStyle><scale>1.1</scale><Icon><href>https://www.gstatic.com/mapspro/images/stock/22-blue-dot.png</href></Icon><hotSpot x="16" xunits="pixels" y="32" yunits="insetPixels"/></IconStyle><LabelStyle><scale>0</scale></LabelStyle></Style>
    <Style id="icon-22-highlight"><IconStyle><scale>1.1</scale><Icon><href>https://www.gstatic.com/mapspro/images/stock/22-blue-dot.png</href></Icon><hotSpot x="16" xunits="pixels" y="32" yunits="insetPixels"/></IconStyle><LabelStyle><scale>1.1</scale></LabelStyle></Style>
    <StyleMap id="icon-22"><Pair><key>normal</key><styleUrl>#icon-22-normal</styleUrl></Pair><Pair><key>highlight</key><styleUrl>#icon-22-highlight</styleUrl></Pair></StyleMap>
    <Folder>
      <name><![CDATA[Akademibokhandeln]]></name>
      <Placemark>
        <name><![CDATA[Akademibokhandeln Stenungsund]]></name>
        <description><![CDATA[Akademibokhandeln Stenungsund, Stenungsund]]></description>
        <Point><coordinates>11.817187,58.069312,0</coordinates></Point>
        <styleUrl>#icon-22</styleUrl>
      </Placemark>
      <Placemark>
        <name><![CDATA[Akademibokhandeln Frölunda Torg]]></name>
        <description><![CDATA[Akademibokhandeln Frölunda Torg, Västra Frölunda]]></description>
        <Point><coordinates>11.911188,57.651688,0</coordinates></Point>
        <styleUrl>#icon-22</styleUrl>
      </Placemark>
      <Placemark>
        <name><![CDATA[Akademibokhandeln Göteborg Backaplan]]></name>
        <description><![CDATA[Akademibokhandeln Göteborg Backaplan, Göteborg]]></description>
        <Point><coordinates>11.951812,57.722313,0</coordinates></Point>
        <styleUrl>#icon-22</styleUrl>
      </Placemark>
      <Placemark>
        <name><![CDATA[Akademibokhandeln Göteborg Järntorget]]></name>
        <description><![CDATA[Akademibokhandeln Göteborg Järntorget, Göteborg]]></description>
        <Point><coordinates>11.953563,57.699438,0</coordinates></Point>
        <styleUrl>#icon-22</styleUrl>
      </Placemark>
      <Placemark>
        <name><![CDATA[Akademibokhandeln Göteborg Västra Hamngatan]]></name>
        <description><![CDATA[Akademibokhandeln Göteborg Västra Hamngatan, Göteborg]]></description>
        <Point><coordinates>11.964688,57.703063,0</coordinates></Point>
        <styleUrl>#icon-22</styleUrl>
      </Placemark>
      <Placemark>
        <name><![CDATA[Akademibokhandeln Göteborg Kungsgatan]]></name>
        <description><![CDATA[Akademibokhandeln Göteborg Kungsgatan, Göteborg]]></description>
        <Point><coordinates>11.967063,57.704563,0</coordinates></Point>
        <styleUrl>#icon-22</styleUrl>
      </Placemark>
      <Placemark>
        <name><![CDATA[Akademibokhandeln Kungälv Kongahälla]]></name>
        <description><![CDATA[Akademibokhandeln Kungälv Kongahälla, Kungälv]]></description>
        <Point><coordinates>11.968063,57.873562,0</coordinates></Point>
        <styleUrl>#icon-22</styleUrl>
      </Placemark>
      <Placemark>
        <name><![CDATA[Akademibokhandeln Göteborg Nordstan]]></name>
        <description><![CDATA[Akademibokhandeln Göteborg Nordstan, Göteborg]]></description>
        <Point><coordinates>11.969563,57.707313,0</coordinates></Point>
        <styleUrl>#icon-22</styleUrl>
      </Placemark>
      <Placemark>
        <name><![CDATA[Akademibokhandeln Göteborg Olskroken]]></name>
        <description><![CDATA[Akademibokhandeln Göteborg Olskroken, Göteborg]]></description>
        <Point><coordinates>12.000187,57.714938,0</coordinates></Point>
        <styleUrl>#icon-22</styleUrl>
      </Placemark>
      <Placemark>
        <name><![CDATA[Akademibokhandeln Mölndal Galleria]]></name>
        <description><![CDATA[Akademibokhandeln Mölndal Galleria, Mölndal]]></description>
        <Point><coordinates>12.013813,57.655187,0</coordinates></Point>
        <styleUrl>#icon-22</styleUrl>
      </Placemark>
      <Placemark>
        <name><![CDATA[Akademibokhandeln Kungsbacka Kungsmässan]]></name>
        <description><![CDATA[Akademibokhandeln Kungsbacka Kungsmässan, Kungsbacka]]></description>
        <Point><coordinates>12.074813,57.492687,0</coordinates></Point>
        <styleUrl>#icon-22</styleUrl>
      </Placemark>
      <Placemark>
        <name><![CDATA[Akademibokhandeln Partille Allum]]></name>
        <description><![CDATA[Akademibokhandeln Partille Allum, Partille]]></description>
        <Point><coordinates>12.105438,57.737063,0</coordinates></Point>
        <styleUrl>#icon-22</styleUrl>
      </Placemark>
      <Placemark>
        <name><![CDATA[Akademibokhandeln Lerum Solkatten]]></name>
        <description><![CDATA[Akademibokhandeln Lerum Solkatten, Lerum]]></description>
        <Point><coordinates>12.269687,57.769687,0</coordinates></Point>
        <styleUrl>#icon-22</styleUrl>
      </Placemark>
      <Placemark>
        <name><![CDATA[Akademibokhandeln Trollhättan Överby]]></name>
        <description><![CDATA[Akademibokhandeln Trollhättan Överby, Trollhättan]]></description>
        <Point><coordinates>12.307937,58.312438,0</coordinates></Point>
        <styleUrl>#icon-22</styleUrl>
      </Placemark>
      <Placemark>
        <name><![CDATA[Akademibokhandeln Vänersborg]]></name>
        <description><![CDATA[Akademibokhandeln Vänersborg, Vänersborg]]></description>
        <Point><coordinates>12.322062,58.380688,0</coordinates></Point>
        <styleUrl>#icon-22</styleUrl>
      </Placemark>
      <Placemark>
        <name><![CDATA[Akademibokhandeln Alingsås]]></name>
        <description><![CDATA[Akademibokhandeln Alingsås, Alingsås]]></description>
        <Point><coordinates>12.533687,57.930187,0</coordinates></Point>
        <styleUrl>#icon-22</styleUrl>
      </Placemark>
      <Placemark>
        <name><![CDATA[Akademibokhandeln Arvika]]></name>
        <description><![CDATA[Akademibokhandeln Arvika, Arvika]]></description>
        <Point><coordinates>12.593312,59.654187,0</coordinates></Point>
        <styleUrl>#icon-22</styleUrl>
      </Placemark>
      <Placemark>
        <name><![CDATA[Akademibokhandeln Helsingborg Stortorget]]></name>
        <description><![CDATA[Akademibokhandeln Helsingborg Stortorget, Helsingborg]]></description>
        <Point><coordinates>12.694063,56.046312,0</coordinates></Point>
        <styleUrl>#icon-22</styleUrl>
      </Placemark>
      <Placemark>
        <name><![CDATA[Akademibokhandeln Helsingborg Väla]]></name>
        <description><![CDATA[Akademibokhandeln Helsingborg Väla, Ödåkra]]></description>
        <Point><coordinates>12.756438,56.091687,0</coordinates></Point>
        <styleUrl>#icon-22</styleUrl>
      </Placemark>
      <Placemark>
        <name><![CDATA[Akademibokhandeln Landskrona]]></name>
        <description><![CDATA[Akademibokhandeln Landskrona, Landskrona]]></description>
        <Point><coordinates>12.831188,55.870562,0</coordinates></Point>
        <styleUrl>#icon-22</styleUrl>
      </Placemark>
      <Placemark>
        <name><![CDATA[Akademibokhandeln Halmstad City]]></name>
        <description><![CDATA[Akademibokhandeln Halmstad City, Halmstad]]></description>
        <Point><coordinates>12.858937,56.675187,0</coordinates></Point>
        <styleUrl>#icon-22</styleUrl>
      </Placemark>
      <Placemark>
        <name><![CDATA[Akademibokhandeln Ängelholm]]></name>
        <description><![CDATA[Akademibokhandeln Ängelholm, Ängelholm]]></description>
        <Point><coordinates>12.863563,56.245438,0</coordinates></Point>
        <styleUrl>#icon-22</styleUrl>
      </Placemark>
      <Placemark>
        <name><![CDATA[Akademibokhandeln Halmstad Hallarna]]></name>
        <description><![CDATA[Akademibokhandeln Halmstad Hallarna, Halmstad]]></description>
        <Point><coordinates>12.910063,56.655313,0</coordinates></Point>
        <styleUrl>#icon-22</styleUrl>
      </Placemark>
      <Placemark>
        <name><![CDATA[Akademibokhandeln Borås Knalleland]]></name>
        <description><![CDATA[Akademibokhandeln Borås Knalleland, Borås]]></description>
        <Point><coordinates>12.940062,57.733187,0</coordinates></Point>
        <styleUrl>#icon-22</styleUrl>
      </Placemark>
      <Placemark>
        <name><![CDATA[Akademibokhandeln Borås City]]></name>
        <description><![CDATA[Akademibokhandeln Borås City, Borås]]></description>
        <Point><coordinates>12.941313,57.720813,0</coordinates></Point>
        <styleUrl>#icon-22</styleUrl>
      </Placemark>
      <Placemark>
        <name><![CDATA[Akademibokhandeln Malmö Emporia]]></name>
        <description><![CDATA[Akademibokhandeln Malmö Emporia, Malmö]]></description>
        <Point><coordinates>12.973313,55.564312,0</coordinates></Point>
        <styleUrl>#icon-22</styleUrl>
      </Placemark>
      <Placemark>
        <name><![CDATA[Akademibokhandeln Löddeköpinge Center Syd]]></name>
        <description><![CDATA[Akademibokhandeln Löddeköpinge Center Syd, Löddeköpinge]]></description>
        <Point><coordinates>12.987813,55.769312,0</coordinates></Point>
        <styleUrl>#icon-22</styleUrl>
      </Placemark>
      <Placemark>
        <name><![CDATA[Akademibokhandeln Malmö Triangeln]]></name>
        <description><![CDATA[Akademibokhandeln Malmö Triangeln, Malmö]]></description>
        <Point><coordinates>13.001563,55.595062,0</coordinates></Point>
        <styleUrl>#icon-22</styleUrl>
      </Placemark>
      <Placemark>
        <name><![CDATA[Akademibokhandeln Malmö Mobilia]]></name>
        <description><![CDATA[Akademibokhandeln Malmö Mobilia, Malmö]]></description>
        <Point><coordinates>13.002813,55.580437,0</coordinates></Point>
        <styleUrl>#icon-22</styleUrl>
      </Placemark>
      <Placemark>
        <name><![CDATA[Akademibokhandeln Malmö Hansa]]></name>
        <description><![CDATA[Akademibokhandeln Malmö Hansa, Malmö]]></description>
        <Point><coordinates>13.004687,55.603188,0</coordinates></Point>
        <styleUrl>#icon-22</styleUrl>
      </Placemark>
      <Placemark>
        <name><![CDATA[Akademibokhandeln Burlöv Center]]></name>
        <description><![CDATA[Akademibokhandeln Burlöv Center, Arlöv]]></description>
        <Point><coordinates>13.085187,55.639813,0</coordinates></Point>
        <styleUrl>#icon-22</styleUrl>
      </Placemark>
      <Placemark>
        <name><![CDATA[Akademibokhandeln Lund Nova]]></name>
        <description><![CDATA[Akademibokhandeln Lund Nova, Lund]]></description>
        <Point><coordinates>13.160687,55.714437,0</coordinates></Point>
        <styleUrl>#icon-22</styleUrl>
      </Placemark>
      <Placemark>
        <name><![CDATA[Akademibokhandeln Lund Stortorget]]></name>
        <description><![CDATA[Akademibokhandeln Lund Stortorget, Lund]]></description>
        <Point><coordinates>13.192438,55.703063,0</coordinates></Point>
        <styleUrl>#icon-22</styleUrl>
      </Placemark>
      <Placemark>
        <name><![CDATA[Akademibokhandeln Ulricehamn]]></name>
        <description><![CDATA[Akademibokhandeln Ulricehamn, Ulricehamn]]></description>
        <Point><coordinates>13.412313,57.791812,0</coordinates></Point>
        <styleUrl>#icon-22</styleUrl>
      </Placemark>
      <Placemark>
        <name><![CDATA[Akademibokhandeln Karlstad Bergvik]]></name>
        <description><![CDATA[Akademibokhandeln Karlstad Bergvik, Karlstad]]></description>
        <Point><coordinates>13.425438,59.378312,0</coordinates></Point>
        <styleUrl>#icon-22</styleUrl>
      </Placemark>
      <Placemark>
        <name><![CDATA[Akademibokhandeln Karlstad Mitt i City]]></name>
        <description><![CDATA[Akademibokhandeln Karlstad Mitt i City, Karlstad]]></description>
        <Point><coordinates>13.500813,59.380187,0</coordinates></Point>
        <styleUrl>#icon-22</styleUrl>
      </Placemark>
      <Placemark>
        <name><![CDATA[Akademibokhandeln Skövde Commerce]]></name>
        <description><![CDATA[Akademibokhandeln Skövde Commerce, Skövde]]></description>
        <Point><coordinates>13.844812,58.390062,0</coordinates></Point>
        <styleUrl>#icon-22</styleUrl>
      </Placemark>
      <Placemark>
        <name><![CDATA[Akademibokhandeln Kristianstad Centrum]]></name>
        <description><![CDATA[Akademibokhandeln Kristianstad Centrum, Kristianstad]]></description>
        <Point><coordinates>14.155812,56.029937,0</coordinates></Point>
        <styleUrl>#icon-22</styleUrl>
      </Placemark>
      <Placemark>
        <name><![CDATA[Akademibokhandeln Jönköping City]]></name>
        <description><![CDATA[Akademibokhandeln Jönköping City, Jönköping]]></description>
        <Point><coordinates>14.173312,57.782187,0</coordinates></Point>
        <styleUrl>#icon-22</styleUrl>
      </Placemark>
      <Placemark>
        <name><![CDATA[Akademibokhandeln Jönköping A6]]></name>
        <description><![CDATA[Akademibokhandeln Jönköping A6, Jönköping]]></description>
        <Point><coordinates>14.203812,57.773937,0</coordinates></Point>
        <styleUrl>#icon-22</styleUrl>
      </Placemark>
      <Placemark>
        <name><![CDATA[Akademibokhandeln Kristianstad C4]]></name>
        <description><![CDATA[Akademibokhandeln Kristianstad C4, Kristianstad]]></description>
        <Point><coordinates>14.205438,56.025312,0</coordinates></Point>
        <styleUrl>#icon-22</styleUrl>
      </Placemark>
      <Placemark>
        <name><![CDATA[Akademibokhandeln Mora]]></name>
        <description><![CDATA[Akademibokhandeln Mora, Mora]]></description>
        <Point><coordinates>14.540188,61.006187,0</coordinates></Point>
        <styleUrl>#icon-22</styleUrl>
      </Placemark>
      <Placemark>
        <name><![CDATA[Akademibokhandeln Östersund Kärnan]]></name>
        <description><![CDATA[Akademibokhandeln Östersund Kärnan, Östersund]]></description>
        <Point><coordinates>14.638562,63.176313,0</coordinates></Point>
        <styleUrl>#icon-22</styleUrl>
      </Placemark>
      <Placemark>
        <name><![CDATA[Akademibokhandeln Växjö Grand Samarkand]]></name>
        <description><![CDATA[Akademibokhandeln Växjö Grand Samarkand, Växjö]]></description>
        <Point><coordinates>14.766938,56.884937,0</coordinates></Point>
        <styleUrl>#icon-22</styleUrl>
      </Placemark>
      <Placemark>
        <name><![CDATA[Akademibokhandeln Växjö City]]></name>
        <description><![CDATA[Akademibokhandeln Växjö City, Växjö]]></description>
        <Point><coordinates>14.806687,56.877562,0</coordinates></Point>
        <styleUrl>#icon-22</styleUrl>
      </Placemark>
      <Placemark>
        <name><![CDATA[Akademibokhandeln Örebro Marieberg Galleria]]></name>
        <description><![CDATA[Akademibokhandeln Örebro Marieberg Galleria, Örebro]]></description>
        <Point><coordinates>15.136938,59.217062,0</coordinates></Point>
        <styleUrl>#icon-22</styleUrl>
      </Placemark>
      <Placemark>
        <name><![CDATA[Akademibokhandeln Örebro Krämaren]]></name>
        <description><![CDATA[Akademibokhandeln Örebro Krämaren, Örebro]]></description>
        <Point><coordinates>15.210187,59.269188,0</coordinates></Point>
        <styleUrl>#icon-22</styleUrl>
      </Placemark>
      <Placemark>
        <name><![CDATA[Akademibokhandeln Borlänge Kupolen]]></name>
        <description><![CDATA[Akademibokhandeln Borlänge Kupolen, Borlänge]]></description>
        <Point><coordinates>15.417687,60.483812,0</coordinates></Point>
        <styleUrl>#icon-22</styleUrl>
      </Placemark>
      <Placemark>
        <name><![CDATA[Akademibokhandeln Karlskrona]]></name>
        <description><![CDATA[Akademibokhandeln Karlskrona, Karlskrona]]></description>
        <Point><coordinates>15.584563,56.160562,0</coordinates></Point>
        <styleUrl>#icon-22</styleUrl>
      </Placemark>
      <Placemark>
        <name><![CDATA[Akademibokhandeln Linköping Tornby i-Huset]]></name>
        <description><![CDATA[Akademibokhandeln Linköping Tornby i-Huset, Linköping]]></description>
        <Point><coordinates>15.585562,58.433187,0</coordinates></Point>
        <styleUrl>#icon-22</styleUrl>
      </Placemark>
      <Placemark>
        <name><![CDATA[Akademibokhandeln Linköping Storgatan]]></name>
        <description><![CDATA[Akademibokhandeln Linköping Storgatan, Linköping]]></description>
        <Point><coordinates>15.625563,58.410937,0</coordinates></Point>
        <styleUrl>#icon-22</styleUrl>
      </Placemark>
      <Placemark>
        <name><![CDATA[Akademibokhandeln Falun]]></name>
        <description><![CDATA[Akademibokhandeln Falun, Falun]]></description>
        <Point><coordinates>15.631687,60.605688,0</coordinates></Point>
        <styleUrl>#icon-22</styleUrl>
      </Placemark>
      <Placemark>
        <name><![CDATA[Akademibokhandeln Norrköping Ingelsta Shopping]]></name>
        <description><![CDATA[Akademibokhandeln Norrköping Ingelsta Shopping, Norrköping]]></description>
        <Point><coordinates>16.157688,58.619187,0</coordinates></Point>
        <styleUrl>#icon-22</styleUrl>
      </Placemark>
      <Placemark>
        <name><![CDATA[Akademibokhandeln Norrköping Galleria Domino]]></name>
        <description><![CDATA[Akademibokhandeln Norrköping Galleria Domino, Norrköping]]></description>
        <Point><coordinates>16.190438,58.588437,0</coordinates></Point>
        <styleUrl>#icon-22</styleUrl>
      </Placemark>
      <Placemark>
        <name><![CDATA[Akademibokhandeln Kalmar]]></name>
        <description><![CDATA[Akademibokhandeln Kalmar, Kalmar]]></description>
        <Point><coordinates>16.363437,56.664063,0</coordinates></Point>
        <styleUrl>#icon-22</styleUrl>
      </Placemark>
      <Placemark>
        <name><![CDATA[Akademibokhandeln Västerås Erikslund]]></name>
        <description><![CDATA[Akademibokhandeln Västerås Erikslund, Västerås]]></description>
        <Point><coordinates>16.453562,59.609063,0</coordinates></Point>
        <styleUrl>#icon-22</styleUrl>
      </Placemark>
      <Placemark>
        <name><![CDATA[Akademibokhandeln Eskilstuna Tuna Park]]></name>
        <description><![CDATA[Akademibokhandeln Eskilstuna Tuna Park, Eskilstuna]]></description>
        <Point><coordinates>16.470062,59.371313,0</coordinates></Point>
        <styleUrl>#icon-22</styleUrl>
      </Placemark>
      <Placemark>
        <name><![CDATA[Akademibokhandeln Västerås Igor]]></name>
        <description><![CDATA[Akademibokhandeln Västerås Igor, Västerås]]></description>
        <Point><coordinates>16.544438,59.611812,0</coordinates></Point>
        <styleUrl>#icon-22</styleUrl>
      </Placemark>
      <Placemark>
        <name><![CDATA[Akademibokhandeln Nyköping]]></name>
        <description><![CDATA[Akademibokhandeln Nyköping, Nyköping]]></description>
        <Point><coordinates>17.007188,58.752437,0</coordinates></Point>
        <styleUrl>#icon-22</styleUrl>
      </Placemark>
      <Placemark>
        <name><![CDATA[Akademibokhandeln Strängnäs]]></name>
        <description><![CDATA[Akademibokhandeln Strängnäs, Strängnäs]]></description>
        <Point><coordinates>17.027062,59.376312,0</coordinates></Point>
        <styleUrl>#icon-22</styleUrl>
      </Placemark>
      <Placemark>
        <name><![CDATA[Akademibokhandeln Gävle Galleria Nian]]></name>
        <description><![CDATA[Akademibokhandeln Gävle Galleria Nian, Gävle]]></description>
        <Point><coordinates>17.139938,60.674187,0</coordinates></Point>
        <styleUrl>#icon-22</styleUrl>
      </Placemark>
      <Placemark>
        <name><![CDATA[Akademibokhandeln Sundsvall Storgatan]]></name>
        <description><![CDATA[Akademibokhandeln Sundsvall Storgatan, Sundsvall]]></description>
        <Point><coordinates>17.309438,62.390937,0</coordinates></Point>
        <styleUrl>#icon-22</styleUrl>
      </Placemark>
      <Placemark>
        <name><![CDATA[Akademibokhandeln Sundsvall Birsta City]]></name>
        <description><![CDATA[Akademibokhandeln Sundsvall Birsta City, Sundsvall]]></description>
        <Point><coordinates>17.336188,62.447063,0</coordinates></Point>
        <styleUrl>#icon-22</styleUrl>
      </Placemark>
      <Placemark>
        <name><![CDATA[Akademibokhandeln Södertälje Kringlan]]></name>
        <description><![CDATA[Akademibokhandeln Södertälje Kringlan, Södertälje]]></description>
        <Point><coordinates>17.628813,59.195812,0</coordinates></Point>
        <styleUrl>#icon-22</styleUrl>
      </Placemark>
      <Placemark>
        <name><![CDATA[Akademibokhandeln Uppsala Stora Torget]]></name>
        <description><![CDATA[Akademibokhandeln Uppsala Stora Torget, Uppsala]]></description>
        <Point><coordinates>17.639187,59.858187,0</coordinates></Point>
        <styleUrl>#icon-22</styleUrl>
      </Placemark>
      <Placemark>
        <name><![CDATA[Akademibokhandeln Uppsala Gränbystaden]]></name>
        <description><![CDATA[Akademibokhandeln Uppsala Gränbystaden, Uppsala]]></description>
        <Point><coordinates>17.673187,59.876812,0</coordinates></Point>
        <styleUrl>#icon-22</styleUrl>
      </Placemark>
      <Placemark>
        <name><![CDATA[Akademibokhandeln Kista Galleria]]></name>
        <description><![CDATA[Akademibokhandeln Kista Galleria, Kista]]></description>
        <Point><coordinates>17.946562,59.402687,0</coordinates></Point>
        <styleUrl>#icon-22</styleUrl>
      </Placemark>
      <Placemark>
        <name><![CDATA[Akademibokhandeln Sollentuna Centrum]]></name>
        <description><![CDATA[Akademibokhandeln Sollentuna Centrum, Sollentuna]]></description>
        <Point><coordinates>17.952188,59.428562,0</coordinates></Point>
        <styleUrl>#icon-22</styleUrl>
      </Placemark>
      <Placemark>
        <name><![CDATA[Akademibokhandeln Bromma Blocks]]></name>
        <description><![CDATA[Akademibokhandeln Bromma Blocks, Bromma]]></description>
        <Point><coordinates>17.956688,59.355688,0</coordinates></Point>
        <styleUrl>#icon-22</styleUrl>
      </Placemark>
      <Placemark>
        <name><![CDATA[Akademibokhandeln Huddinge Centrum]]></name>
        <description><![CDATA[Akademibokhandeln Huddinge Centrum, Huddinge]]></description>
        <Point><coordinates>17.981063,59.236062,0</coordinates></Point>
        <styleUrl>#icon-22</styleUrl>
      </Placemark>
      <Placemark>
        <name><![CDATA[Akademibokhandeln Solna Centrum]]></name>
        <description><![CDATA[Akademibokhandeln Solna Centrum, Solna]]></description>
        <Point><coordinates>18.000312,59.358937,0</coordinates></Point>
        <styleUrl>#icon-22</styleUrl>
      </Placemark>
      <Placemark>
        <name><![CDATA[Akademibokhandeln Westfield Mall of Scandinavia]]></name>
        <description><![CDATA[Akademibokhandeln Westfield Mall of Scandinavia, Solna]]></description>
        <Point><coordinates>18.004562,59.370687,0</coordinates></Point>
        <styleUrl>#icon-22</styleUrl>
      </Placemark>
      <Placemark>
        <name><![CDATA[Akademibokhandeln Stockholm Liljeholmen]]></name>
        <description><![CDATA[Akademibokhandeln Stockholm Liljeholmen, Stockholm]]></description>
        <Point><coordinates>18.022562,59.309438,0</coordinates></Point>
        <styleUrl>#icon-22</styleUrl>
      </Placemark>
      <Placemark>
        <name><![CDATA[Akademibokhandeln Stockholm Kungsholmen]]></name>
        <description><![CDATA[Akademibokhandeln Stockholm Kungsholmen, Stockholm]]></description>
        <Point><coordinates>18.032438,59.333687,0</coordinates></Point>
        <styleUrl>#icon-22</styleUrl>
      </Placemark>
      <Placemark>
        <name><![CDATA[Akademibokhandeln Stockholm Hornstull]]></name>
        <description><![CDATA[Akademibokhandeln Stockholm Hornstull, Stockholm]]></description>
        <Point><coordinates>18.034062,59.316437,0</coordinates></Point>
        <styleUrl>#icon-22</styleUrl>
      </Placemark>
      <Placemark>
        <name><![CDATA[Akademibokhandeln Mörby Centrum]]></name>
        <description><![CDATA[Akademibokhandeln Mörby Centrum, Danderyd]]></description>
        <Point><coordinates>18.036938,59.397687,0</coordinates></Point>
        <styleUrl>#icon-22</styleUrl>
      </Placemark>
      <Placemark>
        <name><![CDATA[Akademibokhandeln Stockholm Odenplan]]></name>
        <description><![CDATA[Akademibokhandeln Stockholm Odenplan, Stockholm]]></description>
        <Point><coordinates>18.051313,59.342813,0</coordinates></Point>
        <styleUrl>#icon-22</styleUrl>
      </Placemark>
      <Placemark>
        <name><![CDATA[Akademibokhandeln Stockholm Frescati]]></name>
        <description><![CDATA[Akademibokhandeln Stockholm Frescati, Stockholm]]></description>
        <Point><coordinates>18.058062,59.363563,0</coordinates></Point>
        <styleUrl>#icon-22</styleUrl>
      </Placemark>
      <Placemark>
        <name><![CDATA[Akademibokhandeln Stockholm Gallerian]]></name>
        <description><![CDATA[Akademibokhandeln Stockholm Gallerian, Stockholm]]></description>
        <Point><coordinates>18.066688,59.332187,0</coordinates></Point>
        <styleUrl>#icon-22</styleUrl>
      </Placemark>
      <Placemark>
        <name><![CDATA[Akademibokhandeln Stockholm Centralen]]></name>
        <description><![CDATA[Akademibokhandeln Stockholm Centralen, Stockholm]]></description>
        <Point><coordinates>18.067312,59.334187,0</coordinates></Point>
        <styleUrl>#icon-22</styleUrl>
      </Placemark>
      <Placemark>
        <name><![CDATA[Akademibokhandeln Stockholm Mäster Samuelsgatan]]></name>
        <description><![CDATA[Akademibokhandeln Stockholm Mäster Samuelsgatan, Stockholm]]></description>
        <Point><coordinates>18.067312,59.334187,0</coordinates></Point>
        <styleUrl>#icon-22</styleUrl>
      </Placemark>
      <Placemark>
        <name><![CDATA[Akademibokhandeln Täby Centrum]]></name>
        <description><![CDATA[Akademibokhandeln Täby Centrum, Täby]]></description>
        <Point><coordinates>18.071937,59.443938,0</coordinates></Point>
        <styleUrl>#icon-22</styleUrl>
      </Placemark>
      <Placemark>
        <name><![CDATA[Akademibokhandeln Stockholm Ringen]]></name>
        <description><![CDATA[Akademibokhandeln Stockholm Ringen, Stockholm]]></description>
        <Point><coordinates>18.075688,59.308437,0</coordinates></Point>
        <styleUrl>#icon-22</styleUrl>
      </Placemark>
      <Placemark>
        <name><![CDATA[Akademibokhandeln Stockholm Fältöversten]]></name>
        <description><![CDATA[Akademibokhandeln Stockholm Fältöversten, Stockholm]]></description>
        <Point><coordinates>18.090313,59.340312,0</coordinates></Point>
        <styleUrl>#icon-22</styleUrl>
      </Placemark>
      <Placemark>
        <name><![CDATA[Akademibokhandeln Farsta Centrum]]></name>
        <description><![CDATA[Akademibokhandeln Farsta Centrum, Farsta]]></description>
        <Point><coordinates>18.091813,59.243188,0</coordinates></Point>
        <styleUrl>#icon-22</styleUrl>
      </Placemark>
      <Placemark>
        <name><![CDATA[Akademibokhandeln Nacka Sickla Köpkvarter]]></name>
        <description><![CDATA[Akademibokhandeln Nacka Sickla Köpkvarter, Nacka]]></description>
        <Point><coordinates>18.126438,59.306062,0</coordinates></Point>
        <styleUrl>#icon-22</styleUrl>
      </Placemark>
      <Placemark>
        <name><![CDATA[Akademibokhandeln Lidingö Centrum]]></name>
        <description><![CDATA[Akademibokhandeln Lidingö Centrum, Lidingö]]></description>
        <Point><coordinates>18.134062,59.365687,0</coordinates></Point>
        <styleUrl>#icon-22</styleUrl>
      </Placemark>
      <Placemark>
        <name><![CDATA[Akademibokhandeln Haninge Centrum]]></name>
        <description><![CDATA[Akademibokhandeln Haninge Centrum, Handen]]></description>
        <Point><coordinates>18.140188,59.169187,0</coordinates></Point>
        <styleUrl>#icon-22</styleUrl>
      </Placemark>
      <Placemark>
        <name><![CDATA[Akademibokhandeln Nacka Forum]]></name>
        <description><![CDATA[Akademibokhandeln Nacka Forum, Nacka]]></description>
        <Point><coordinates>18.164813,59.309812,0</coordinates></Point>
        <styleUrl>#icon-22</styleUrl>
      </Placemark>
      <Placemark>
        <name><![CDATA[Akademibokhandeln Åkersberga Centrum]]></name>
        <description><![CDATA[Akademibokhandeln Åkersberga Centrum, Åkersberga]]></description>
        <Point><coordinates>18.297187,59.479937,0</coordinates></Point>
        <styleUrl>#icon-22</styleUrl>
      </Placemark>
      <Placemark>
        <name><![CDATA[Akademibokhandeln Örnsköldsvik Oskargallerian]]></name>
        <description><![CDATA[Akademibokhandeln Örnsköldsvik Oskargallerian, Örnsköldsvik]]></description>
        <Point><coordinates>18.713687,63.290937,0</coordinates></Point>
        <styleUrl>#icon-22</styleUrl>
      </Placemark>
      <Placemark>
        <name><![CDATA[Akademibokhandeln Umeå Avion Shopping]]></name>
        <description><![CDATA[Akademibokhandeln Umeå Avion Shopping, Umeå]]></description>
        <Point><coordinates>20.255187,63.806812,0</coordinates></Point>
        <styleUrl>#icon-22</styleUrl>
      </Placemark>
      <Placemark>
        <name><![CDATA[Akademibokhandeln Umeå Rådhustorget]]></name>
        <description><![CDATA[Akademibokhandeln Umeå Rådhustorget, Umeå]]></description>
        <Point><coordinates>20.263813,63.825187,0</coordinates></Point>
        <styleUrl>#icon-22</styleUrl>
      </Placemark>
      <Placemark>
        <name><![CDATA[Akademibokhandeln Skellefteå]]></name>
        <description><![CDATA[Akademibokhandeln Skellefteå, Skellefteå]]></description>
        <Point><coordinates>20.951813,64.750563,0</coordinates></Point>
        <styleUrl>#icon-22</styleUrl>
      </Placemark>
      <Placemark>
        <name><![CDATA[Akademibokhandeln Piteå Småstaden]]></name>
        <description><![CDATA[Akademibokhandeln Piteå Småstaden, Piteå]]></description>
        <Point><coordinates>21.477688,65.317062,0</coordinates></Point>
        <styleUrl>#icon-22</styleUrl>
      </Placemark>
      <Placemark>
        <name><![CDATA[Akademibokhandeln Luleå C Smedjan]]></name>
        <description><![CDATA[Akademibokhandeln Luleå C Smedjan, Luleå]]></description>
        <Point><coordinates>22.153188,65.583938,0</coordinates></Point>
        <styleUrl>#icon-22</styleUrl>
      </Placemark>
    </Folder>
  </Document>
</kml>