<?xml version="1.0" encoding="UTF-8"?>
<kml xmlns="http://www.opengis.net/kml/2.2">
  <Document>
    <name><![CDATA[Albrekts Guld]]></name>
    <description/>
    <Style id="icon-22-normal"><IconStyle><scale>1.1</scale><Icon><href>https://www.gstatic.com/mapspro/images/stock/22-blue-dot.png</href></Icon><hotSpot x="16" xunits="pixels" y="32" yunits="insetPixels"/></IconStyle><LabelStyle><scale>0</scale></LabelStyle></Style>
    <Style id="icon-22-highlight"><IconStyle><scale>1.1</scale><Icon><href>https://www.gstatic.com/mapspro/images/stock/22-blue-dot.png</href></Icon><hotSpot x="16" xunits="pixels" y="32" yunits="insetPixels"/></IconStyle><LabelStyle><scale>1.1</scale></LabelStyle></Style>
    <StyleMap id="icon-22"><Pair><key>normal</key><styleUrl>#icon-22-normal</styleUrl></Pair><Pair><key>highlight</key><styleUrl>#icon-22-highlight</styleUrl></Pair></StyleMap>
    <Folder>
      <name><![CDATA[Albrekts Guld]]></name>
      <Placemark>
        <name><![CDATA[Albrekts Guld Uddevalla]]></name>
        <description><![CDATA[Albrekts Guld Uddevalla, Uddevalla]]></description>
        <Point><coordinates>11.809812,58.353938,0</coordinates></Point>
        <styleUrl>#icon-22</styleUrl>
      </Placemark>
      <Placemark>
        <name><![CDATA[Albrekts Guld Frölunda Torg]]></name>
        <description><![CDATA[Albrekts Guld Frölunda Torg, Västra Frölunda]]></description>
        <Point><coordinates>11.911938,57.652438,0</coordinates></Point>
        <styleUrl>#icon-22</styleUrl>
      </Placemark>
      <Placemark>
        <name><![CDATA[Albrekts Guld Backavägen]]></name>
        <description><![CDATA[Albrekts Guld Backavägen, Göteborg]]></description>
        <Point><coordinates>11.953062,57.723062,0</coordinates></Point>
        <styleUrl>#icon-22</styleUrl>
      </Placemark>
      <Placemark>
        <name><![CDATA[Albrekts Guld Femmanhuset]]></name>
        <description><![CDATA[Albrekts Guld Femmanhuset, Göteborg]]></description>
        <Point><coordinates>11.969938,57.708813,0</coordinates></Point>
        <styleUrl>#icon-22</styleUrl>
      </Placemark>
      <Placemark>
        <name><![CDATA[Albrekts Guld Kungsgatan]]></name>
        <description><![CDATA[Albrekts Guld Kungsgatan, Göteborg]]></description>
        <Point><coordinates>11.969938,57.708813,0</coordinates></Point>
        <styleUrl>#icon-22</styleUrl>
      </Placemark>
      <Placemark>
        <name><![CDATA[Albrekts Guld Trollhättan]]></name>
        <description><![CDATA[Albrekts Guld Trollhättan, Trollhättan]]></description>
        <Point><coordinates>12.308312,58.312562,0</coordinates></Point>
        <styleUrl>#icon-22</styleUrl>
      </Placemark>
      <Placemark>
        <name><![CDATA[Albrekts Guld Ödåkra - Väla Centrum]]></name>
        <description><![CDATA[Albrekts Guld Ödåkra - Väla Centrum, Helsingborg]]></description>
        <Point><coordinates>12.756312,56.091062,0</coordinates></Point>
        <styleUrl>#icon-22</styleUrl>
      </Placemark>
      <Placemark>
        <name><![CDATA[Albrekts Guld Halmstad]]></name>
        <description><![CDATA[Albrekts Guld Halmstad, Halmstad]]></description>
        <Point><coordinates>12.909187,56.655563,0</coordinates></Point>
        <styleUrl>#icon-22</styleUrl>
      </Placemark>
      <Placemark>
        <name><![CDATA[Albrekts Guld Borås]]></name>
        <description><![CDATA[Albrekts Guld Borås, Borås]]></description>
        <Point><coordinates>12.938063,57.735312,0</coordinates></Point>
        <styleUrl>#icon-22</styleUrl>
      </Placemark>
      <Placemark>
        <name><![CDATA[Albrekts Guld Malmö - Emporia]]></name>
        <description><![CDATA[Albrekts Guld Malmö - Emporia, Malmö]]></description>
        <Point><coordinates>12.972812,55.564187,0</coordinates></Point>
        <styleUrl>#icon-22</styleUrl>
      </Placemark>
      <Placemark>
        <name><![CDATA[Albrekts Guld Malmö - Mobilia Shopping Cente]]></name>
        <description><![CDATA[Albrekts Guld Malmö - Mobilia Shopping Cente, Malmö]]></description>
        <Point><coordinates>13.003063,55.580687,0</coordinates></Point>
        <styleUrl>#icon-22</styleUrl>
      </Placemark>
      <Placemark>
        <name><![CDATA[Albrekts Guld Dalsjöfors]]></name>
        <description><![CDATA[Albrekts Guld Dalsjöfors, Dalsjöfors]]></description>
        <Point><coordinates>13.092562,57.715438,0</coordinates></Point>
        <styleUrl>#icon-22</styleUrl>
      </Placemark>
      <Placemark>
        <name><![CDATA[Albrekts Guld Karlstad]]></name>
        <description><![CDATA[Albrekts Guld Karlstad, Karlstad]]></description>
        <Point><coordinates>13.424812,59.378187,0</coordinates></Point>
        <styleUrl>#icon-22</styleUrl>
      </Placemark>
      <Placemark>
        <name><![CDATA[Albrekts Guld Skövde]]></name>
        <description><![CDATA[Albrekts Guld Skövde, Skövde]]></description>
        <Point><coordinates>13.854938,58.405563,0</coordinates></Point>
        <styleUrl>#icon-22</styleUrl>
      </Placemark>
      <Placemark>
        <name><![CDATA[Albrekts Guld Jönköping]]></name>
        <description><![CDATA[Albrekts Guld Jönköping, Jönköping]]></description>
        <Point><coordinates>14.203563,57.773438,0</coordinates></Point>
        <styleUrl>#icon-22</styleUrl>
      </Placemark>
      <Placemark>
        <name><![CDATA[Albrekts Guld Växjö]]></name>
        <description><![CDATA[Albrekts Guld Växjö, Växjö]]></description>
        <Point><coordinates>14.808187,56.878812,0</coordinates></Point>
        <styleUrl>#icon-22</styleUrl>
      </Placemark>
      <Placemark>
        <name><![CDATA[Albrekts Guld Örebro]]></name>
        <description><![CDATA[Albrekts Guld Örebro, Örebro]]></description>
        <Point><coordinates>15.136938,59.217437,0</coordinates></Point>
        <styleUrl>#icon-22</styleUrl>
      </Placemark>
      <Placemark>
        <name><![CDATA[Albrekts Guld Ronneby]]></name>
        <description><![CDATA[Albrekts Guld Ronneby, Ronneby]]></description>
        <Point><coordinates>15.277687,56.210313,0</coordinates></Point>
        <styleUrl>#icon-22</styleUrl>
      </Placemark>
      <Placemark>
        <name><![CDATA[Albrekts Guld Borlänge]]></name>
        <description><![CDATA[Albrekts Guld Borlänge, Borlänge]]></description>
        <Point><coordinates>15.418188,60.483688,0</coordinates></Point>
        <styleUrl>#icon-22</styleUrl>
      </Placemark>
      <Placemark>
        <name><![CDATA[Albrekts Guld Norrköping - Galleria Domino]]></name>
        <description><![CDATA[Albrekts Guld Norrköping - Galleria Domino, Norrköping]]></description>
        <Point><coordinates>16.188938,58.588563,0</coordinates></Point>
        <styleUrl>#icon-22</styleUrl>
      </Placemark>
      <Placemark>
        <name><![CDATA[Albrekts Guld Norrköping - Mirum Galleria]]></name>
        <description><![CDATA[Albrekts Guld Norrköping - Mirum Galleria, Norrköping]]></description>
        <Point><coordinates>16.207937,58.572437,0</coordinates></Point>
        <styleUrl>#icon-22</styleUrl>
      </Placemark>
      <Placemark>
        <name><![CDATA[Albrekts Guld Kalmar]]></name>
        <description><![CDATA[Albrekts Guld Kalmar, Kalmar]]></description>
        <Point><coordinates>16.319938,56.686937,0</coordinates></Point>
        <styleUrl>#icon-22</styleUrl>
      </Placemark>
      <Placemark>
        <name><![CDATA[Albrekts Guld Erikslund Shopping Center]]></name>
        <description><![CDATA[Albrekts Guld Erikslund Shopping Center, Västerås]]></description>
        <Point><coordinates>16.454687,59.608937,0</coordinates></Point>
        <styleUrl>#icon-22</styleUrl>
      </Placemark>
      <Placemark>
        <name><![CDATA[Albrekts Guld Eskilstuna]]></name>
        <description><![CDATA[Albrekts Guld Eskilstuna, Eskilstuna]]></description>
        <Point><coordinates>16.470062,59.371313,0</coordinates></Point>
        <styleUrl>#icon-22</styleUrl>
      </Placemark>
      <Placemark>
        <name><![CDATA[Albrekts Guld Västerås]]></name>
        <description><![CDATA[Albrekts Guld Västerås, Västerås]]></description>
        <Point><coordinates>16.547562,59.609687,0</coordinates></Point>
        <styleUrl>#icon-22</styleUrl>
      </Placemark>
      <Placemark>
        <name><![CDATA[Albrekts Guld Sundsvall]]></name>
        <description><![CDATA[Albrekts Guld Sundsvall, Sundsvall]]></description>
        <Point><coordinates>17.335687,62.446687,0</coordinates></Point>
        <styleUrl>#icon-22</styleUrl>
      </Placemark>
      <Placemark>
        <name><![CDATA[Albrekts Guld Södertälje]]></name>
        <description><![CDATA[Albrekts Guld Södertälje, Södertälje]]></description>
        <Point><coordinates>17.628062,59.195937,0</coordinates></Point>
        <styleUrl>#icon-22</styleUrl>
      </Placemark>
      <Placemark>
        <name><![CDATA[Albrekts Guld Södertälje]]></name>
        <description><![CDATA[Albrekts Guld Södertälje, Södertälje]]></description>
        <Point><coordinates>17.628062,59.195937,0</coordinates></Point>
        <styleUrl>#icon-22</styleUrl>
      </Placemark>
      <Placemark>
        <name><![CDATA[Albrekts Guld Uppsala]]></name>
        <description><![CDATA[Albrekts Guld Uppsala, Uppsala]]></description>
        <Point><coordinates>17.673812,59.877437,0</coordinates></Point>
        <styleUrl>#icon-22</styleUrl>
      </Placemark>
      <Placemark>
        <name><![CDATA[Albrekts Guld Uppsala]]></name>
        <description><![CDATA[Albrekts Guld Uppsala, Uppsala]]></description>
        <Point><coordinates>17.673812,59.877437,0</coordinates></Point>
        <styleUrl>#icon-22</styleUrl>
      </Placemark>
      <Placemark>
        <name><![CDATA[Albrekts Guld Jakobsbergs centrum]]></name>
        <description><![CDATA[Albrekts Guld Jakobsbergs centrum, Jakobsberg]]></description>
        <Point><coordinates>17.836937,59.423562,0</coordinates></Point>
        <styleUrl>#icon-22</styleUrl>
      </Placemark>
      <Placemark>
        <name><![CDATA[Albrekts Guld Skärholmen Centrum]]></name>
        <description><![CDATA[Albrekts Guld Skärholmen Centrum, Skärholmen]]></description>
        <Point><coordinates>17.907688,59.275688,0</coordinates></Point>
        <styleUrl>#icon-22</styleUrl>
      </Placemark>
      <Placemark>
        <name><![CDATA[Albrekts Guld Mall of Scandinavia]]></name>
        <description><![CDATA[Albrekts Guld Mall of Scandinavia, Solna]]></description>
        <Point><coordinates>18.003062,59.370062,0</coordinates></Point>
        <styleUrl>#icon-22</styleUrl>
      </Placemark>
      <Placemark>
        <name><![CDATA[Albrekts Guld Täby Centrum]]></name>
        <description><![CDATA[Albrekts Guld Täby Centrum, Täby]]></description>
        <Point><coordinates>18.072063,59.444187,0</coordinates></Point>
        <styleUrl>#icon-22</styleUrl>
      </Placemark>
      <Placemark>
        <name><![CDATA[Albrekts Guld Glashuset PUB]]></name>
        <description><![CDATA[Albrekts Guld Glashuset PUB, Stockholm]]></description>
        <Point><coordinates>18.082563,59.331187,0</coordinates></Point>
        <styleUrl>#icon-22</styleUrl>
      </Placemark>
      <Placemark>
        <name><![CDATA[Albrekts Guld Farsta Centrum]]></name>
        <description><![CDATA[Albrekts Guld Farsta Centrum, Stockholm]]></description>
        <Point><coordinates>18.089562,59.242562,0</coordinates></Point>
        <styleUrl>#icon-22</styleUrl>
      </Placemark>
      <Placemark>
        <name><![CDATA[Albrekts Guld Sickla]]></name>
        <description><![CDATA[Albrekts Guld Sickla, Sickla]]></description>
        <Point><coordinates>18.119937,59.307187,0</coordinates></Point>
        <styleUrl>#icon-22</styleUrl>
      </Placemark>
      <Placemark>
        <name><![CDATA[Albrekts Guld Tyresö]]></name>
        <description><![CDATA[Albrekts Guld Tyresö, Tyresö]]></description>
        <Point><coordinates>18.229312,59.244062,0</coordinates></Point>
        <styleUrl>#icon-22</styleUrl>
      </Placemark>
      <Placemark>
        <name><![CDATA[Albrekts Guld Umeå]]></name>
        <description><![CDATA[Albrekts Guld Umeå, Umeå]]></description>
        <Point><coordinates>20.255313,63.805813,0</coordinates></Point>
        <styleUrl>#icon-22</styleUrl>
      </Placemark>
    </Folder>
  </Document>
</kml>