<?xml version="1.0" encoding="UTF-8"?>
<kml xmlns="http://www.opengis.net/kml/2.2">
  <Document>
    <name>Albrekts Guld</name>
    <description/>
    <Style id="icon-22-normal">
      <IconStyle>
        <scale>1.1</scale>
        <Icon>
          <href>https://www.gstatic.com/mapspro/images/stock/22-blue-dot.png</href>
        </Icon>
        <hotSpot x="16" xunits="pixels" y="32" yunits="insetPixels"/>
      </IconStyle>
      <LabelStyle>
        <scale>0</scale>
      </LabelStyle>
    </Style>
    <Style id="icon-22-highlight">
      <IconStyle>
        <scale>1.1</scale>
        <Icon>
          <href>https://www.gstatic.com/mapspro/images/stock/22-blue-dot.png</href>
        </Icon>
        <hotSpot x="16" xunits="pixels" y="32" yunits="insetPixels"/>
      </IconStyle>
      <LabelStyle>
        <scale>1.1</scale>
      </LabelStyle>
    </Style>
    <StyleMap id="icon-22">
      <Pair>
        <key>normal</key>
        <styleUrl>#icon-22-normal</styleUrl>
      </Pair>
      <Pair>
        <key>highlight</key>
        <styleUrl>#icon-22-highlight</styleUrl>
      </Pair>
    </StyleMap>
    <Folder>
      <name>Albrekts Guld</name>
      <Placemark>
        <name>Albrekts Guld Uddevalla</name>
        <description>Albrekts Guld Uddevalla, Uddevalla</description>
        <styleUrl>#icon-22</styleUrl>
        <Point>
          <coordinates>
            11.809812,58.353938,0
          </coordinates>
        </Point>
      </Placemark>
      <Placemark>
        <name>Albrekts Guld Frölunda Torg</name>
        <description>Albrekts Guld Frölunda Torg, Västra Frölunda</description>
        <styleUrl>#icon-22</styleUrl>
        <Point>
          <coordinates>
            11.911938,57.652438,0
          </coordinates>
        </Point>
      </Placemark>
      <Placemark>
        <name>Albrekts Guld Backavägen</name>
        <description>Albrekts Guld Backavägen, Göteborg</description>
        <styleUrl>#icon-22</styleUrl>
        <Point>
          <coordinates>
            11.953062,57.723062,0
          </coordinates>
        </Point>
      </Placemark>
      <Placemark>
        <name>Albrekts Guld Femmanhuset</name>
        <description>Albrekts Guld Femmanhuset, Göteborg</description>
        <styleUrl>#icon-22</styleUrl>
        <Point>
          <coordinates>
            11.969938,57.708813,0
          </coordinates>
        </Point>
      </Placemark>
      <Placemark>
        <name>Albrekts Guld Kungsgatan</name>
        <description>Albrekts Guld Kungsgatan, Göteborg</description>
        <styleUrl>#icon-22</styleUrl>
        <Point>
          <coordinates>
            11.969938,57.708813,0
          </coordinates>
        </Point>
      </Placemark>
      <Placemark>
        <name>Albrekts Guld Trollhättan</name>
        <description>Albrekts Guld Trollhättan, Trollhättan</description>
        <styleUrl>#icon-22</styleUrl>
        <Point>
          <coordinates>
            12.308312,58.312562,0
          </coordinates>
        </Point>
      </Placemark>
      <Placemark>
        <name>Albrekts Guld Ödåkra - Väla Centrum</name>
        <description>Albrekts Guld Ödåkra - Väla Centrum, Helsingborg</description>
        <styleUrl>#icon-22</styleUrl>
        <Point>
          <coordinates>
            12.756312,56.091062,0
          </coordinates>
        </Point>
      </Placemark>
      <Placemark>
        <name>Albrekts Guld Halmstad</name>
        <description>Albrekts Guld Halmstad, Halmstad</description>
        <styleUrl>#icon-22</styleUrl>
        <Point>
          <coordinates>
            12.909187,56.655563,0
          </coordinates>
        </Point>
      </Placemark>
      <Placemark>
        <name>Albrekts Guld Borås</name>
        <description>Albrekts Guld Borås, Borås</description>
        <styleUrl>#icon-22</styleUrl>
        <Point>
          <coordinates>
            12.938063,57.735312,0
          </coordinates>
        </Point>
      </Placemark>
      <Placemark>
        <name>Albrekts Guld Malmö - Emporia</name>
        <description>Albrekts Guld Malmö - Emporia, Malmö</description>
        <styleUrl>#icon-22</styleUrl>
        <Point>
          <coordinates>
            12.972812,55.564187,0
          </coordinates>
        </Point>
      </Placemark>
      <Placemark>
        <name>Albrekts Guld Malmö - Mobilia Shopping Cente</name>
        <description>Albrekts Guld Malmö - Mobilia Shopping Cente, Malmö</description>
        <styleUrl>#icon-22</styleUrl>
        <Point>
          <coordinates>
            13.003063,55.580687,0
          </coordinates>
        </Point>
      </Placemark>
      <Placemark>
        <name>Albrekts Guld Dalsjöfors</name>
        <description>Albrekts Guld Dalsjöfors, Dalsjöfors</description>
        <styleUrl>#icon-22</styleUrl>
        <Point>
          <coordinates>
            13.092562,57.715438,0
          </coordinates>
        </Point>
      </Placemark>
      <Placemark>
        <name>Albrekts Guld Karlstad</name>
        <description>Albrekts Guld Karlstad, Karlstad</description>
        <styleUrl>#icon-22</styleUrl>
        <Point>
          <coordinates>
            13.424812,59.378187,0
          </coordinates>
        </Point>
      </Placemark>
      <Placemark>
        <name>Albrekts Guld Skövde</name>
        <description>Albrekts Guld Skövde, Skövde</description>
        <styleUrl>#icon-22</styleUrl>
        <Point>
          <coordinates>
            13.854938,58.405563,0
          </coordinates>
        </Point>
      </Placemark>
      <Placemark>
        <name>Albrekts Guld Jönköping</name>
        <description>Albrekts Guld Jönköping, Jönköping</description>
        <styleUrl>#icon-22</styleUrl>
        <Point>
          <coordinates>
            14.203563,57.773438,0
          </coordinates>
        </Point>
      </Placemark>
      <Placemark>
        <name>Albrekts Guld Växjö</name>
        <description>Albrekts Guld Växjö, Växjö</description>
        <styleUrl>#icon-22</styleUrl>
        <Point>
          <coordinates>
            14.808187,56.878812,0
          </coordinates>
        </Point>
      </Placemark>
      <Placemark>
        <name>Albrekts Guld Örebro</name>
        <description>Albrekts Guld Örebro, Örebro</description>
        <styleUrl>#icon-22</styleUrl>
        <Point>
          <coordinates>
            15.136938,59.217437,0
          </coordinates>
        </Point>
      </Placemark>
      <Placemark>
        <name>Albrekts Guld Ronneby</name>
        <description>Albrekts Guld Ronneby, Ronneby</description>
        <styleUrl>#icon-22</styleUrl>
        <Point>
          <coordinates>
            15.277687,56.210313,0
          </coordinates>
        </Point>
      </Placemark>
      <Placemark>
        <name>Albrekts Guld Borlänge</name>
        <description>Albrekts Guld Borlänge, Borlänge</description>
        <styleUrl>#icon-22</styleUrl>
        <Point>
          <coordinates>
            15.418188,60.483688,0
          </coordinates>
        </Point>
      </Placemark>
      <Placemark>
        <name>Albrekts Guld Norrköping - Galleria Domino</name>
        <description>Albrekts Guld Norrköping - Galleria Domino, Norrköping</description>
        <styleUrl>#icon-22</styleUrl>
        <Point>
          <coordinates>
            16.188938,58.588563,0
          </coordinates>
        </Point>
      </Placemark>
      <Placemark>
        <name>Albrekts Guld Norrköping - Mirum Galleria</name>
        <description>Albrekts Guld Norrköping - Mirum Galleria, Norrköping</description>
        <styleUrl>#icon-22</styleUrl>
        <Point>
          <coordinates>
            16.207937,58.572437,0
          </coordinates>
        </Point>
      </Placemark>
      <Placemark>
        <name>Albrekts Guld Kalmar</name>
        <description>Albrekts Guld Kalmar, Kalmar</description>
        <styleUrl>#icon-22</styleUrl>
        <Point>
          <coordinates>
            16.319938,56.686937,0
          </coordinates>
        </Point>
      </Placemark>
      <Placemark>
        <name>Albrekts Guld Erikslund Shopping Center</name>
        <description>Albrekts Guld Erikslund Shopping Center, Västerås</description>
        <styleUrl>#icon-22</styleUrl>
        <Point>
          <coordinates>
            16.454687,59.608937,0
          </coordinates>
        </Point>
      </Placemark>
      <Placemark>
        <name>Albrekts Guld Eskilstuna</name>
        <description>Albrekts Guld Eskilstuna, Eskilstuna</description>
        <styleUrl>#icon-22</styleUrl>
        <Point>
          <coordinates>
            16.470062,59.371313,0
          </coordinates>
        </Point>
      </Placemark>
      <Placemark>
        <name>Albrekts Guld Västerås</name>
        <description>Albrekts Guld Västerås, Västerås</description>
        <styleUrl>#icon-22</styleUrl>
        <Point>
          <coordinates>
            16.547562,59.609687,0
          </coordinates>
        </Point>
      </Placemark>
      <Placemark>
        <name>Albrekts Guld Sundsvall</name>
        <description>Albrekts Guld Sundsvall, Sundsvall</description>
        <styleUrl>#icon-22</styleUrl>
        <Point>
          <coordinates>
            17.335687,62.446687,0
          </coordinates>
        </Point>
      </Placemark>
      <Placemark>
        <name>Albrekts Guld Södertälje</name>
        <description>Albrekts Guld Södertälje, Södertälje</description>
        <styleUrl>#icon-22</styleUrl>
        <Point>
          <coordinates>
            17.628062,59.195937,0
          </coordinates>
        </Point>
      </Placemark>
      <Placemark>
        <name>Albrekts Guld Södertälje</name>
        <description>Albrekts Guld Södertälje, Södertälje</description>
        <styleUrl>#icon-22</styleUrl>
        <Point>
          <coordinates>
            17.628062,59.195937,0
          </coordinates>
        </Point>
      </Placemark>
      <Placemark>
        <name>Albrekts Guld Uppsala</name>
        <description>Albrekts Guld Uppsala, Uppsala</description>
        <styleUrl>#icon-22</styleUrl>
        <Point>
          <coordinates>
            17.673812,59.877437,0
          </coordinates>
        </Point>
      </Placemark>
      <Placemark>
        <name>Albrekts Guld Uppsala</name>
        <description>Albrekts Guld Uppsala, Uppsala</description>
        <styleUrl>#icon-22</styleUrl>
        <Point>
          <coordinates>
            17.673812,59.877437,0
          </coordinates>
        </Point>
      </Placemark>
      <Placemark>
        <name>Albrekts Guld Jakobsbergs centrum</name>
        <description>Albrekts Guld Jakobsbergs centrum, Jakobsberg</description>
        <styleUrl>#icon-22</styleUrl>
        <Point>
          <coordinates>
            17.836937,59.423562,0
          </coordinates>
        </Point>
      </Placemark>
      <Placemark>
        <name>Albrekts Guld Skärholmen Centrum</name>
        <description>Albrekts Guld Skärholmen Centrum, Skärholmen</description>
        <styleUrl>#icon-22</styleUrl>
        <Point>
          <coordinates>
            17.907688,59.275688,0
          </coordinates>
        </Point>
      </Placemark>
      <Placemark>
        <name>Albrekts Guld Mall of Scandinavia</name>
        <description>Albrekts Guld Mall of Scandinavia, Solna</description>
        <styleUrl>#icon-22</styleUrl>
        <Point>
          <coordinates>
            18.003062,59.370062,0
          </coordinates>
        </Point>
      </Placemark>
      <Placemark>
        <name>Albrekts Guld Täby Centrum</name>
        <description>Albrekts Guld Täby Centrum, Täby</description>
        <styleUrl>#icon-22</styleUrl>
        <Point>
          <coordinates>
            18.072063,59.444187,0
          </coordinates>
        </Point>
      </Placemark>
      <Placemark>
        <name>Albrekts Guld Glashuset PUB</name>
        <description>Albrekts Guld Glashuset PUB, Stockholm</description>
        <styleUrl>#icon-22</styleUrl>
        <Point>
          <coordinates>
            18.082563,59.331187,0
          </coordinates>
        </Point>
      </Placemark>
      <Placemark>
        <name>Albrekts Guld Farsta Centrum</name>
        <description>Albrekts Guld Farsta Centrum, Stockholm</description>
        <styleUrl>#icon-22</styleUrl>
        <Point>
          <coordinates>
            18.089562,59.242562,0
          </coordinates>
        </Point>
      </Placemark>
      <Placemark>
        <name>Albrekts Guld Sickla</name>
        <description>Albrekts Guld Sickla, Sickla</description>
        <styleUrl>#icon-22</styleUrl>
        <Point>
          <coordinates>
            18.119937,59.307187,0
          </coordinates>
        </Point>
      </Placemark>
      <Placemark>
        <name>Albrekts Guld Tyresö</name>
        <description>Albrekts Guld Tyresö, Tyresö</description>
        <styleUrl>#icon-22</styleUrl>
        <Point>
          <coordinates>
            18.229312,59.244062,0
          </coordinates>
        </Point>
      </Placemark>
      <Placemark>
        <name>Albrekts Guld Umeå</name>
        <description>Albrekts Guld Umeå, Umeå</description>
        <styleUrl>#icon-22</styleUrl>
        <Point>
          <coordinates>
            20.255313,63.805813,0
          </coordinates>
        </Point>
      </Placemark>
    </Folder>
  </Document>
</kml>