<?xml version="1.0" encoding="UTF-8"?>
<kml xmlns="http://www.opengis.net/kml/2.2">
  <Document>
    <name><![CDATA[Apoteket AB]]></name>
    <description/>
    <Style id="icon-22-normal"><IconStyle><scale>1.1</scale><Icon><href>https://www.gstatic.com/mapspro/images/stock/22-blue-dot.png</href></Icon><hotSpot x="16" xunits="pixels" y="32" yunits="insetPixels"/></IconStyle><LabelStyle><scale>0</scale></LabelStyle></Style>
    <Style id="icon-22-highlight"><IconStyle><scale>1.1</scale><Icon><href>https://www.gstatic.com/mapspro/images/stock/22-blue-dot.png</href></Icon><hotSpot x="16" xunits="pixels" y="32" yunits="insetPixels"/></IconStyle><LabelStyle><scale>1.1</scale></LabelStyle></Style>
    <StyleMap id="icon-22"><Pair><key>normal</key><styleUrl>#icon-22-normal</styleUrl></Pair><Pair><key>highlight</key><styleUrl>#icon-22-highlight</styleUrl></Pair></StyleMap>
    <Folder>
      <name><![CDATA[Apoteket AB]]></name>
      <Placemark>
        <name><![CDATA[Apoteket Flöjtskeppet]]></name>
        <description><![CDATA[Apoteket Flöjtskeppet, Strömstad, Sverige]]></description>
        <Point><coordinates>11.18986,58.94638,0</coordinates></Point>
        <styleUrl>#icon-22</styleUrl>
      </Placemark>
      <Placemark>
        <name><![CDATA[Apoteket Nordby Shoppingcenter]]></name>
        <description><![CDATA[Apoteket Nordby Shoppingcenter, Strömstad, Sverige]]></description>
        <Point><coordinates>11.208395,59.064317,0</coordinates></Point>
        <styleUrl>#icon-22</styleUrl>
      </Placemark>
      <Placemark>
        <name><![CDATA[Apoteket Tärnan]]></name>
        <description><![CDATA[Apoteket Tärnan, Hunnebostrand, Sverige]]></description>
        <Point><coordinates>11.3044,58.4403,0</coordinates></Point>
        <styleUrl>#icon-22</styleUrl>
      </Placemark>
      <Placemark>
        <name><![CDATA[Apoteket Tanum Shoppingcenter]]></name>
        <description><![CDATA[Apoteket Tanum Shoppingcenter, Tanumshede, Sverige]]></description>
        <Point><coordinates>11.346967,58.72242,0</coordinates></Point>
        <styleUrl>#icon-22</styleUrl>
      </Placemark>
      <Placemark>
        <name><![CDATA[Apoteket Kronan]]></name>
        <description><![CDATA[Apoteket Kronan, Lysekil, Sverige]]></description>
        <Point><coordinates>11.4337,58.2746,0</coordinates></Point>
        <styleUrl>#icon-22</styleUrl>
      </Placemark>
      <Placemark>
        <name><![CDATA[Apoteket Laxen]]></name>
        <description><![CDATA[Apoteket Laxen, Munkedal, Sverige]]></description>
        <Point><coordinates>11.6743,58.4666,0</coordinates></Point>
        <styleUrl>#icon-22</styleUrl>
      </Placemark>
      <Placemark>
        <name><![CDATA[Apoteket Amhult Torslanda]]></name>
        <description><![CDATA[Apoteket Amhult Torslanda, Torslanda, Sverige]]></description>
        <Point><coordinates>11.776606,57.710049,0</coordinates></Point>
        <styleUrl>#icon-22</styleUrl>
      </Placemark>
      <Placemark>
        <name><![CDATA[Apoteket Måsen]]></name>
        <description><![CDATA[Apoteket Måsen, Uddevalla, Sverige]]></description>
        <Point><coordinates>11.812348,58.355145,0</coordinates></Point>
        <styleUrl>#icon-22</styleUrl>
      </Placemark>
      <Placemark>
        <name><![CDATA[Apoteket Stenungstorg Stenungsund]]></name>
        <description><![CDATA[Apoteket Stenungstorg Stenungsund, Stenungsund, Sverige]]></description>
        <Point><coordinates>11.818001,58.068641,0</coordinates></Point>
        <styleUrl>#icon-22</styleUrl>
      </Placemark>
      <Placemark>
        <name><![CDATA[Apoteket Foxen]]></name>
        <description><![CDATA[Apoteket Foxen, Töcksfors, Sverige]]></description>
        <Point><coordinates>11.8449,59.5064,0</coordinates></Point>
        <styleUrl>#icon-22</styleUrl>
      </Placemark>
      <Placemark>
        <name><![CDATA[Apoteket Höstvädersgatan]]></name>
        <description><![CDATA[Apoteket Höstvädersgatan, Göteborg, Sverige]]></description>
        <Point><coordinates>11.8944,57.7135,0</coordinates></Point>
        <styleUrl>#icon-22</styleUrl>
      </Placemark>
      <Placemark>
        <name><![CDATA[Apoteket Frölunda Torg]]></name>
        <description><![CDATA[Apoteket Frölunda Torg, Västra Frölunda, Sverige]]></description>
        <Point><coordinates>11.9116,57.6523,0</coordinates></Point>
        <styleUrl>#icon-22</styleUrl>
      </Placemark>
      <Placemark>
        <name><![CDATA[Apoteket Ytterby]]></name>
        <description><![CDATA[Apoteket Ytterby, Ytterby, Sverige]]></description>
        <Point><coordinates>11.918012,57.859103,0</coordinates></Point>
        <styleUrl>#icon-22</styleUrl>
      </Placemark>
      <Placemark>
        <name><![CDATA[Apoteket Korpen]]></name>
        <description><![CDATA[Apoteket Korpen, Uddevalla, Sverige]]></description>
        <Point><coordinates>11.9294,58.3547,0</coordinates></Point>
        <styleUrl>#icon-22</styleUrl>
      </Placemark>
      <Placemark>
        <name><![CDATA[Apoteket Backaplan]]></name>
        <description><![CDATA[Apoteket Backaplan, Göteborg, Sverige]]></description>
        <Point><coordinates>11.9516,57.7216,0</coordinates></Point>
        <styleUrl>#icon-22</styleUrl>
      </Placemark>
      <Placemark>
        <name><![CDATA[Apoteket Svanen]]></name>
        <description><![CDATA[Apoteket Svanen, Göteborg, Sverige]]></description>
        <Point><coordinates>11.9523,57.6978,0</coordinates></Point>
        <styleUrl>#icon-22</styleUrl>
      </Placemark>
      <Placemark>
        <name><![CDATA[Apoteket Kungsgatan]]></name>
        <description><![CDATA[Apoteket Kungsgatan, Göteborg, Sverige]]></description>
        <Point><coordinates>11.96198,57.7037,0</coordinates></Point>
        <styleUrl>#icon-22</styleUrl>
      </Placemark>
      <Placemark>
        <name><![CDATA[Apoteket Hägern]]></name>
        <description><![CDATA[Apoteket Hägern, Särö, Sverige]]></description>
        <Point><coordinates>11.9667,57.5202,0</coordinates></Point>
        <styleUrl>#icon-22</styleUrl>
      </Placemark>
      <Placemark>
        <name><![CDATA[Apoteket Östra Hamngatan]]></name>
        <description><![CDATA[Apoteket Östra Hamngatan, Göteborg, Sverige]]></description>
        <Point><coordinates>11.967822,57.707851,0</coordinates></Point>
        <styleUrl>#icon-22</styleUrl>
      </Placemark>
      <Placemark>
        <name><![CDATA[Apoteket Nordstan]]></name>
        <description><![CDATA[Apoteket Nordstan, Göteborg, Sverige]]></description>
        <Point><coordinates>11.968071,57.709841,0</coordinates></Point>
        <styleUrl>#icon-22</styleUrl>
      </Placemark>
      <Placemark>
        <name><![CDATA[Apoteket Kongahälla Center]]></name>
        <description><![CDATA[Apoteket Kongahälla Center, Kungälv, Sverige]]></description>
        <Point><coordinates>11.968587,57.873222,0</coordinates></Point>
        <styleUrl>#icon-22</styleUrl>
      </Placemark>
      <Placemark>
        <name><![CDATA[Apoteket Kungälvs sjukhus]]></name>
        <description><![CDATA[Apoteket Kungälvs sjukhus, Kungälv, Sverige]]></description>
        <Point><coordinates>11.96873,57.87848,0</coordinates></Point>
        <styleUrl>#icon-22</styleUrl>
      </Placemark>
      <Placemark>
        <name><![CDATA[Apoteket Centralen]]></name>
        <description><![CDATA[Apoteket Centralen, Göteborg, Sverige]]></description>
        <Point><coordinates>11.972,57.7099,0</coordinates></Point>
        <styleUrl>#icon-22</styleUrl>
      </Placemark>
      <Placemark>
        <name><![CDATA[Apoteket Centralen express Göteborg]]></name>
        <description><![CDATA[Apoteket Centralen express Göteborg, Göteborg, Sverige]]></description>
        <Point><coordinates>11.973093,57.709712,0</coordinates></Point>
        <styleUrl>#icon-22</styleUrl>
      </Placemark>
      <Placemark>
        <name><![CDATA[Apoteket Vita Fläcken Kungälv]]></name>
        <description><![CDATA[Apoteket Vita Fläcken Kungälv, Kungälv, Sverige]]></description>
        <Point><coordinates>11.9736,57.87368,0</coordinates></Point>
        <styleUrl>#icon-22</styleUrl>
      </Placemark>
      <Placemark>
        <name><![CDATA[Apoteket Biet]]></name>
        <description><![CDATA[Apoteket Biet, Göteborg, Sverige]]></description>
        <Point><coordinates>11.9788,57.6994,0</coordinates></Point>
        <styleUrl>#icon-22</styleUrl>
      </Placemark>
      <Placemark>
        <name><![CDATA[Apoteket Korsvägen]]></name>
        <description><![CDATA[Apoteket Korsvägen, Göteborg, Sverige]]></description>
        <Point><coordinates>11.9863,57.69706,0</coordinates></Point>
        <styleUrl>#icon-22</styleUrl>
      </Placemark>
      <Placemark>
        <name><![CDATA[Apoteket Korpen]]></name>
        <description><![CDATA[Apoteket Korpen, Göteborg, Sverige]]></description>
        <Point><coordinates>11.9888,57.7147,0</coordinates></Point>
        <styleUrl>#icon-22</styleUrl>
      </Placemark>
      <Placemark>
        <name><![CDATA[Apoteket Express Gamlestaden Göteborg]]></name>
        <description><![CDATA[Apoteket Express Gamlestaden Göteborg, Göteborg, Sverige]]></description>
        <Point><coordinates>12.004983,57.727848,0</coordinates></Point>
        <styleUrl>#icon-22</styleUrl>
      </Placemark>
      <Placemark>
        <name><![CDATA[Apoteket Mölndals sjukhus]]></name>
        <description><![CDATA[Apoteket Mölndals sjukhus, Mölndal, Sverige]]></description>
        <Point><coordinates>12.01205,57.66055,0</coordinates></Point>
        <styleUrl>#icon-22</styleUrl>
      </Placemark>
      <Placemark>
        <name><![CDATA[Apoteket Mölndal Galleria]]></name>
        <description><![CDATA[Apoteket Mölndal Galleria, Mölndal, Sverige]]></description>
        <Point><coordinates>12.012265,57.654986,0</coordinates></Point>
        <styleUrl>#icon-22</styleUrl>
      </Placemark>
      <Placemark>
        <name><![CDATA[Apoteket Onsala]]></name>
        <description><![CDATA[Apoteket Onsala, Onsala, Sverige]]></description>
        <Point><coordinates>12.0168,57.4127,0</coordinates></Point>
        <styleUrl>#icon-22</styleUrl>
      </Placemark>
      <Placemark>
        <name><![CDATA[Apoteket Ekorren]]></name>
        <description><![CDATA[Apoteket Ekorren, Göteborg, Sverige]]></description>
        <Point><coordinates>12.031566,57.751588,0</coordinates></Point>
        <styleUrl>#icon-22</styleUrl>
      </Placemark>
      <Placemark>
        <name><![CDATA[Apoteket Stabbetorget]]></name>
        <description><![CDATA[Apoteket Stabbetorget, Göteborg, Sverige]]></description>
        <Point><coordinates>12.0467,57.7147,0</coordinates></Point>
        <styleUrl>#icon-22</styleUrl>
      </Placemark>
      <Placemark>
        <name><![CDATA[Apoteket Östra sjukhuset]]></name>
        <description><![CDATA[Apoteket Östra sjukhuset, Göteborg, Sverige]]></description>
        <Point><coordinates>12.048442,57.722041,0</coordinates></Point>
        <styleUrl>#icon-22</styleUrl>
      </Placemark>
      <Placemark>
        <name><![CDATA[Apoteket Kungsmässan]]></name>
        <description><![CDATA[Apoteket Kungsmässan, Kungsbacka, Sverige]]></description>
        <Point><coordinates>12.073978,57.493273,0</coordinates></Point>
        <styleUrl>#icon-22</styleUrl>
      </Placemark>
      <Placemark>
        <name><![CDATA[Apoteket Lindome]]></name>
        <description><![CDATA[Apoteket Lindome, Lindome, Sverige]]></description>
        <Point><coordinates>12.0877,57.5772,0</coordinates></Point>
        <styleUrl>#icon-22</styleUrl>
      </Placemark>
      <Placemark>
        <name><![CDATA[Apoteket Allum]]></name>
        <description><![CDATA[Apoteket Allum, Partille, Sverige]]></description>
        <Point><coordinates>12.1062,57.7373,0</coordinates></Point>
        <styleUrl>#icon-22</styleUrl>
      </Placemark>
      <Placemark>
        <name><![CDATA[Apoteket Åsa]]></name>
        <description><![CDATA[Apoteket Åsa, Åsa, Sverige]]></description>
        <Point><coordinates>12.1086,57.3537,0</coordinates></Point>
        <styleUrl>#icon-22</styleUrl>
      </Placemark>
      <Placemark>
        <name><![CDATA[Apoteket Hjorten]]></name>
        <description><![CDATA[Apoteket Hjorten, Lilla Edet, Sverige]]></description>
        <Point><coordinates>12.1245,58.1343,0</coordinates></Point>
        <styleUrl>#icon-22</styleUrl>
      </Placemark>
      <Placemark>
        <name><![CDATA[Apoteket Älvängen]]></name>
        <description><![CDATA[Apoteket Älvängen, Älvängen, Sverige]]></description>
        <Point><coordinates>12.12606,57.96104,0</coordinates></Point>
        <styleUrl>#icon-22</styleUrl>
      </Placemark>
      <Placemark>
        <name><![CDATA[Apoteket Kronan]]></name>
        <description><![CDATA[Apoteket Kronan, Årjäng, Sverige]]></description>
        <Point><coordinates>12.1335,59.3916,0</coordinates></Point>
        <styleUrl>#icon-22</styleUrl>
      </Placemark>
      <Placemark>
        <name><![CDATA[Apoteket Landvetter]]></name>
        <description><![CDATA[Apoteket Landvetter, Landvetter, Sverige]]></description>
        <Point><coordinates>12.2105,57.6866,0</coordinates></Point>
        <styleUrl>#icon-22</styleUrl>
      </Placemark>
      <Placemark>
        <name><![CDATA[Apoteket Galleria Trädgården Varberg]]></name>
        <description><![CDATA[Apoteket Galleria Trädgården Varberg, Varberg, Sverige]]></description>
        <Point><coordinates>12.24834,57.105976,0</coordinates></Point>
        <styleUrl>#icon-22</styleUrl>
      </Placemark>
      <Placemark>
        <name><![CDATA[Apoteket Björnen]]></name>
        <description><![CDATA[Apoteket Björnen, Trollhättan, Sverige]]></description>
        <Point><coordinates>12.264,58.3185,0</coordinates></Point>
        <styleUrl>#icon-22</styleUrl>
      </Placemark>
      <Placemark>
        <name><![CDATA[Apoteket Lerum]]></name>
        <description><![CDATA[Apoteket Lerum, Lerum, Sverige]]></description>
        <Point><coordinates>12.27101,57.76989,0</coordinates></Point>
        <styleUrl>#icon-22</styleUrl>
      </Placemark>
      <Placemark>
        <name><![CDATA[Apoteket Måsen]]></name>
        <description><![CDATA[Apoteket Måsen, Varberg, Sverige]]></description>
        <Point><coordinates>12.2775,57.0992,0</coordinates></Point>
        <styleUrl>#icon-22</styleUrl>
      </Placemark>
      <Placemark>
        <name><![CDATA[Apoteket Tallen]]></name>
        <description><![CDATA[Apoteket Tallen, Charlottenberg, Sverige]]></description>
        <Point><coordinates>12.2896,59.8814,0</coordinates></Point>
        <styleUrl>#icon-22</styleUrl>
      </Placemark>
      <Placemark>
        <name><![CDATA[Apoteket Svanen]]></name>
        <description><![CDATA[Apoteket Svanen, Trollhättan, Sverige]]></description>
        <Point><coordinates>12.2906,58.2849,0</coordinates></Point>
        <styleUrl>#icon-22</styleUrl>
      </Placemark>
      <Placemark>
        <name><![CDATA[Apoteket Etagehuset]]></name>
        <description><![CDATA[Apoteket Etagehuset, Trollhättan, Sverige]]></description>
        <Point><coordinates>12.3079,58.3128,0</coordinates></Point>
        <styleUrl>#icon-22</styleUrl>
      </Placemark>
      <Placemark>
        <name><![CDATA[Apoteket Tranan]]></name>
        <description><![CDATA[Apoteket Tranan, Vänersborg, Sverige]]></description>
        <Point><coordinates>12.32337,58.37947,0</coordinates></Point>
        <styleUrl>#icon-22</styleUrl>
      </Placemark>
      <Placemark>
        <name><![CDATA[Apoteket Orren]]></name>
        <description><![CDATA[Apoteket Orren, Floda, Sverige]]></description>
        <Point><coordinates>12.3625,57.8083,0</coordinates></Point>
        <styleUrl>#icon-22</styleUrl>
      </Placemark>
      <Placemark>
        <name><![CDATA[Apoteket Älgen]]></name>
        <description><![CDATA[Apoteket Älgen, Vargön, Sverige]]></description>
        <Point><coordinates>12.3896,58.3565,0</coordinates></Point>
        <styleUrl>#icon-22</styleUrl>
      </Placemark>
      <Placemark>
        <name><![CDATA[Apoteket Melleruds Handel]]></name>
        <description><![CDATA[Apoteket Melleruds Handel, Mellerud, Sverige]]></description>
        <Point><coordinates>12.450625,58.704328,0</coordinates></Point>
        <styleUrl>#icon-22</styleUrl>
      </Placemark>
      <Placemark>
        <name><![CDATA[Apoteket Falken]]></name>
        <description><![CDATA[Apoteket Falken, Falkenberg, Sverige]]></description>
        <Point><coordinates>12.4921,56.9055,0</coordinates></Point>
        <styleUrl>#icon-22</styleUrl>
      </Placemark>
      <Placemark>
        <name><![CDATA[Apoteket Hjorten]]></name>
        <description><![CDATA[Apoteket Hjorten, Alingsås, Sverige]]></description>
        <Point><coordinates>12.5362,57.93,0</coordinates></Point>
        <styleUrl>#icon-22</styleUrl>
      </Placemark>
      <Placemark>
        <name><![CDATA[Apoteket Flora Höganäs]]></name>
        <description><![CDATA[Apoteket Flora Höganäs, Höganäs, Sverige]]></description>
        <Point><coordinates>12.56029,56.19986,0</coordinates></Point>
        <styleUrl>#icon-22</styleUrl>
      </Placemark>
      <Placemark>
        <name><![CDATA[Apoteket Midgårdsgatan Höganäs]]></name>
        <description><![CDATA[Apoteket Midgårdsgatan Höganäs, Höganäs, Sverige]]></description>
        <Point><coordinates>12.567568,56.202121,0</coordinates></Point>
        <styleUrl>#icon-22</styleUrl>
      </Placemark>
      <Placemark>
        <name><![CDATA[Apoteket Linden]]></name>
        <description><![CDATA[Apoteket Linden, Bollebygd, Sverige]]></description>
        <Point><coordinates>12.572,57.6696,0</coordinates></Point>
        <styleUrl>#icon-22</styleUrl>
      </Placemark>
      <Placemark>
        <name><![CDATA[Apoteket Kvarnen]]></name>
        <description><![CDATA[Apoteket Kvarnen, Grästorp, Sverige]]></description>
        <Point><coordinates>12.6774,58.3305,0</coordinates></Point>
        <styleUrl>#icon-22</styleUrl>
      </Placemark>
      <Placemark>
        <name><![CDATA[Apoteket Kullagatan Helsingborg]]></name>
        <description><![CDATA[Apoteket Kullagatan Helsingborg, Helsingborg, Sverige]]></description>
        <Point><coordinates>12.692987,56.048446,0</coordinates></Point>
        <styleUrl>#icon-22</styleUrl>
      </Placemark>
      <Placemark>
        <name><![CDATA[Apoteket Helsingborg Central]]></name>
        <description><![CDATA[Apoteket Helsingborg Central, Helsingborg, Sverige]]></description>
        <Point><coordinates>12.6944,56.0436,0</coordinates></Point>
        <styleUrl>#icon-22</styleUrl>
      </Placemark>
      <Placemark>
        <name><![CDATA[Apoteket Stattena Helsingborg]]></name>
        <description><![CDATA[Apoteket Stattena Helsingborg, Helsingborg, Sverige]]></description>
        <Point><coordinates>12.701233,56.057394,0</coordinates></Point>
        <styleUrl>#icon-22</styleUrl>
      </Placemark>
      <Placemark>
        <name><![CDATA[Apoteket Biet]]></name>
        <description><![CDATA[Apoteket Biet, Helsingborg, Sverige]]></description>
        <Point><coordinates>12.7257,56.0284,0</coordinates></Point>
        <styleUrl>#icon-22</styleUrl>
      </Placemark>
      <Placemark>
        <name><![CDATA[Apoteket Svanen Råå Helsingborg]]></name>
        <description><![CDATA[Apoteket Svanen Råå Helsingborg, Helsingborg, Sverige]]></description>
        <Point><coordinates>12.7389,56.0002,0</coordinates></Point>
        <styleUrl>#icon-22</styleUrl>
      </Placemark>
      <Placemark>
        <name><![CDATA[Apoteket Väla]]></name>
        <description><![CDATA[Apoteket Väla, Ödåkra, Sverige]]></description>
        <Point><coordinates>12.758152,56.092004,0</coordinates></Point>
        <styleUrl>#icon-22</styleUrl>
      </Placemark>
      <Placemark>
        <name><![CDATA[Apoteket Rosen]]></name>
        <description><![CDATA[Apoteket Rosen, Sandared, Sverige]]></description>
        <Point><coordinates>12.7991,57.7094,0</coordinates></Point>
        <styleUrl>#icon-22</styleUrl>
      </Placemark>
      <Placemark>
        <name><![CDATA[Apoteket Östergatan Landskrona]]></name>
        <description><![CDATA[Apoteket Östergatan Landskrona, Landskrona, Sverige]]></description>
        <Point><coordinates>12.832589,55.870784,0</coordinates></Point>
        <styleUrl>#icon-22</styleUrl>
      </Placemark>
      <Placemark>
        <name><![CDATA[Apoteket Berguven]]></name>
        <description><![CDATA[Apoteket Berguven, Halmstad, Sverige]]></description>
        <Point><coordinates>12.8477,56.681,0</coordinates></Point>
        <styleUrl>#icon-22</styleUrl>
      </Placemark>
      <Placemark>
        <name><![CDATA[Apoteket Vakteln]]></name>
        <description><![CDATA[Apoteket Vakteln, Halmstad, Sverige]]></description>
        <Point><coordinates>12.8587,56.6736,0</coordinates></Point>
        <styleUrl>#icon-22</styleUrl>
      </Placemark>
      <Placemark>
        <name><![CDATA[Apoteket Göteborgsvägen Borås]]></name>
        <description><![CDATA[Apoteket Göteborgsvägen Borås, Borås, Sverige]]></description>
        <Point><coordinates>12.86569,57.714521,0</coordinates></Point>
        <styleUrl>#icon-22</styleUrl>
      </Placemark>
      <Placemark>
        <name><![CDATA[Apoteket Entré Båstad]]></name>
        <description><![CDATA[Apoteket Entré Båstad, Båstad, Sverige]]></description>
        <Point><coordinates>12.88742,56.426254,0</coordinates></Point>
        <styleUrl>#icon-22</styleUrl>
      </Placemark>
      <Placemark>
        <name><![CDATA[Apoteket Solrosen]]></name>
        <description><![CDATA[Apoteket Solrosen, Ängelholm, Sverige]]></description>
        <Point><coordinates>12.8915,56.2551,0</coordinates></Point>
        <styleUrl>#icon-22</styleUrl>
      </Placemark>
      <Placemark>
        <name><![CDATA[Apoteket Vipan]]></name>
        <description><![CDATA[Apoteket Vipan, Halmstad, Sverige]]></description>
        <Point><coordinates>12.9092,56.6774,0</coordinates></Point>
        <styleUrl>#icon-22</styleUrl>
      </Placemark>
      <Placemark>
        <name><![CDATA[Apoteket Hallarna Halmstad]]></name>
        <description><![CDATA[Apoteket Hallarna Halmstad, Halmstad, Sverige]]></description>
        <Point><coordinates>12.911371,56.655453,0</coordinates></Point>
        <styleUrl>#icon-22</styleUrl>
      </Placemark>
      <Placemark>
        <name><![CDATA[Apoteket Bjuv]]></name>
        <description><![CDATA[Apoteket Bjuv, Bjuv, Sverige]]></description>
        <Point><coordinates>12.91484,56.08678,0</coordinates></Point>
        <styleUrl>#icon-22</styleUrl>
      </Placemark>
      <Placemark>
        <name><![CDATA[Apoteket Multihuset Limhamn]]></name>
        <description><![CDATA[Apoteket Multihuset Limhamn, Limhamn, Sverige]]></description>
        <Point><coordinates>12.926891,55.587302,0</coordinates></Point>
        <styleUrl>#icon-22</styleUrl>
      </Placemark>
      <Placemark>
        <name><![CDATA[Apoteket Svanen]]></name>
        <description><![CDATA[Apoteket Svanen, Säffle, Sverige]]></description>
        <Point><coordinates>12.92922,59.13195,0</coordinates></Point>
        <styleUrl>#icon-22</styleUrl>
      </Placemark>
      <Placemark>
        <name><![CDATA[Apoteket Knalleland]]></name>
        <description><![CDATA[Apoteket Knalleland, Borås, Sverige]]></description>
        <Point><coordinates>12.93751,57.73389,0</coordinates></Point>
        <styleUrl>#icon-22</styleUrl>
      </Placemark>
      <Placemark>
        <name><![CDATA[Apoteket Österlånggatan Borås]]></name>
        <description><![CDATA[Apoteket Österlånggatan Borås, Borås, Sverige]]></description>
        <Point><coordinates>12.941331,57.720752,0</coordinates></Point>
        <styleUrl>#icon-22</styleUrl>
      </Placemark>
      <Placemark>
        <name><![CDATA[Apoteket Juwelen]]></name>
        <description><![CDATA[Apoteket Juwelen, Borås, Sverige]]></description>
        <Point><coordinates>12.9598,57.7253,0</coordinates></Point>
        <styleUrl>#icon-22</styleUrl>
      </Placemark>
      <Placemark>
        <name><![CDATA[Apoteket Vara]]></name>
        <description><![CDATA[Apoteket Vara, Vara, Sverige]]></description>
        <Point><coordinates>12.96206,58.25701,0</coordinates></Point>
        <styleUrl>#icon-22</styleUrl>
      </Placemark>
      <Placemark>
        <name><![CDATA[Apoteket Bärnstenen]]></name>
        <description><![CDATA[Apoteket Bärnstenen, Höllviken, Sverige]]></description>
        <Point><coordinates>12.9649,55.4258,0</coordinates></Point>
        <styleUrl>#icon-22</styleUrl>
      </Placemark>
      <Placemark>
        <name><![CDATA[Apoteket Lärkan]]></name>
        <description><![CDATA[Apoteket Lärkan, Munka Ljungby, Sverige]]></description>
        <Point><coordinates>12.9684,56.259,0</coordinates></Point>
        <styleUrl>#icon-22</styleUrl>
      </Placemark>
      <Placemark>
        <name><![CDATA[Apoteket Emporia]]></name>
        <description><![CDATA[Apoteket Emporia, Malmö, Sverige]]></description>
        <Point><coordinates>12.97483,55.56381,0</coordinates></Point>
        <styleUrl>#icon-22</styleUrl>
      </Placemark>
      <Placemark>
        <name><![CDATA[Apoteket Strömstaren]]></name>
        <description><![CDATA[Apoteket Strömstaren, Oskarström, Sverige]]></description>
        <Point><coordinates>12.9753,56.8016,0</coordinates></Point>
        <styleUrl>#icon-22</styleUrl>
      </Placemark>
      <Placemark>
        <name><![CDATA[Apoteket Västra Hamnen]]></name>
        <description><![CDATA[Apoteket Västra Hamnen, Malmö, Sverige]]></description>
        <Point><coordinates>12.981827,55.611032,0</coordinates></Point>
        <styleUrl>#icon-22</styleUrl>
      </Placemark>
      <Placemark>
        <name><![CDATA[Apoteket Center Syd]]></name>
        <description><![CDATA[Apoteket Center Syd, Löddeköpinge, Sverige]]></description>
        <Point><coordinates>12.9894,55.7693,0</coordinates></Point>
        <styleUrl>#icon-22</styleUrl>
      </Placemark>
      <Placemark>
        <name><![CDATA[Apoteket Lejonet]]></name>
        <description><![CDATA[Apoteket Lejonet, Malmö, Sverige]]></description>
        <Point><coordinates>13.0012,55.6061,0</coordinates></Point>
        <styleUrl>#icon-22</styleUrl>
      </Placemark>
      <Placemark>
        <name><![CDATA[Apoteket Triangeln]]></name>
        <description><![CDATA[Apoteket Triangeln, Malmö, Sverige]]></description>
        <Point><coordinates>13.00184,55.59685,0</coordinates></Point>
        <styleUrl>#icon-22</styleUrl>
      </Placemark>
      <Placemark>
        <name><![CDATA[Apoteket Mobilia]]></name>
        <description><![CDATA[Apoteket Mobilia, Malmö, Sverige]]></description>
        <Point><coordinates>13.0035,55.5803,0</coordinates></Point>
        <styleUrl>#icon-22</styleUrl>
      </Placemark>
      <Placemark>
        <name><![CDATA[Apoteket Hansa Malmö]]></name>
        <description><![CDATA[Apoteket Hansa Malmö, Malmö, Sverige]]></description>
        <Point><coordinates>13.003974,55.603281,0</coordinates></Point>
        <styleUrl>#icon-22</styleUrl>
      </Placemark>
      <Placemark>
        <name><![CDATA[Apoteket Gripen]]></name>
        <description><![CDATA[Apoteket Gripen, Malmö, Sverige]]></description>
        <Point><coordinates>13.0062,55.5902,0</coordinates></Point>
        <styleUrl>#icon-22</styleUrl>
      </Placemark>
      <Placemark>
        <name><![CDATA[Apoteket Stjärnan]]></name>
        <description><![CDATA[Apoteket Stjärnan, Herrljunga, Sverige]]></description>
        <Point><coordinates>13.0146,58.076,0</coordinates></Point>
        <styleUrl>#icon-22</styleUrl>
      </Placemark>
      <Placemark>
        <name><![CDATA[Apoteket Hinden]]></name>
        <description><![CDATA[Apoteket Hinden, Malmö, Sverige]]></description>
        <Point><coordinates>13.0187,55.5739,0</coordinates></Point>
        <styleUrl>#icon-22</styleUrl>
      </Placemark>
      <Placemark>
        <name><![CDATA[Apoteket Värnhemstorget Malmö]]></name>
        <description><![CDATA[Apoteket Värnhemstorget Malmö, Malmö, Sverige]]></description>
        <Point><coordinates>13.0238,55.6064,0</coordinates></Point>
        <styleUrl>#icon-22</styleUrl>
      </Placemark>
      <Placemark>
        <name><![CDATA[Apoteket Entré Malmö]]></name>
        <description><![CDATA[Apoteket Entré Malmö, Malmö, Sverige]]></description>
        <Point><coordinates>13.025327,55.607302,0</coordinates></Point>
        <styleUrl>#icon-22</styleUrl>
      </Placemark>
      <Placemark>
        <name><![CDATA[Apoteket Källan]]></name>
        <description><![CDATA[Apoteket Källan, Arlöv, Sverige]]></description>
        <Point><coordinates>13.0842,55.6395,0</coordinates></Point>
        <styleUrl>#icon-22</styleUrl>
      </Placemark>
      <Placemark>
        <name><![CDATA[Apoteket Spoven]]></name>
        <description><![CDATA[Apoteket Spoven, Oxie, Sverige]]></description>
        <Point><coordinates>13.0956,55.5393,0</coordinates></Point>
        <styleUrl>#icon-22</styleUrl>
      </Placemark>
      <Placemark>
        <name><![CDATA[Apoteket Orren]]></name>
        <description><![CDATA[Apoteket Orren, Grums, Sverige]]></description>
        <Point><coordinates>13.11232,59.3533,0</coordinates></Point>
        <styleUrl>#icon-22</styleUrl>
      </Placemark>
      <Placemark>
        <name><![CDATA[Apoteket Kronan]]></name>
        <description><![CDATA[Apoteket Kronan, Kävlinge, Sverige]]></description>
        <Point><coordinates>13.1127,55.7905,0</coordinates></Point>
        <styleUrl>#icon-22</styleUrl>
      </Placemark>
      <Placemark>
        <name><![CDATA[Apoteket Kronan]]></name>
        <description><![CDATA[Apoteket Kronan, Klippan, Sverige]]></description>
        <Point><coordinates>13.12975,56.13579,0</coordinates></Point>
        <styleUrl>#icon-22</styleUrl>
      </Placemark>
      <Placemark>
        <name><![CDATA[Apoteket Stjärnan]]></name>
        <description><![CDATA[Apoteket Stjärnan, Sunne, Sverige]]></description>
        <Point><coordinates>13.1439,59.8366,0</coordinates></Point>
        <styleUrl>#icon-22</styleUrl>
      </Placemark>
      <Placemark>
        <name><![CDATA[Apoteket Näckrosen]]></name>
        <description><![CDATA[Apoteket Näckrosen, Lidköping, Sverige]]></description>
        <Point><coordinates>13.145,58.5087,0</coordinates></Point>
        <styleUrl>#icon-22</styleUrl>
      </Placemark>
      <Placemark>
        <name><![CDATA[Apoteket Svea]]></name>
        <description><![CDATA[Apoteket Svea, Trelleborg, Sverige]]></description>
        <Point><coordinates>13.1588,55.3742,0</coordinates></Point>
        <styleUrl>#icon-22</styleUrl>
      </Placemark>
      <Placemark>
        <name><![CDATA[Apoteket Svanen]]></name>
        <description><![CDATA[Apoteket Svanen, Lund, Sverige]]></description>
        <Point><coordinates>13.1925,55.7037,0</coordinates></Point>
        <styleUrl>#icon-22</styleUrl>
      </Placemark>
      <Placemark>
        <name><![CDATA[Apoteket Lönnen]]></name>
        <description><![CDATA[Apoteket Lönnen, Svedala, Sverige]]></description>
        <Point><coordinates>13.2372,55.5089,0</coordinates></Point>
        <styleUrl>#icon-22</styleUrl>
      </Placemark>
      <Placemark>
        <name><![CDATA[Apoteket Tjädern]]></name>
        <description><![CDATA[Apoteket Tjädern, Hyltebruk, Sverige]]></description>
        <Point><coordinates>13.2402,56.9998,0</coordinates></Point>
        <styleUrl>#icon-22</styleUrl>
      </Placemark>
      <Placemark>
        <name><![CDATA[Apoteket Linero]]></name>
        <description><![CDATA[Apoteket Linero, Lund, Sverige]]></description>
        <Point><coordinates>13.242764,55.694821,0</coordinates></Point>
        <styleUrl>#icon-22</styleUrl>
      </Placemark>
      <Placemark>
        <name><![CDATA[Apoteket Ljungen]]></name>
        <description><![CDATA[Apoteket Ljungen, Örkelljunga, Sverige]]></description>
        <Point><coordinates>13.2769,56.2835,0</coordinates></Point>
        <styleUrl>#icon-22</styleUrl>
      </Placemark>
      <Placemark>
        <name><![CDATA[Apoteket Flygstaden Eslöv]]></name>
        <description><![CDATA[Apoteket Flygstaden Eslöv, Eslöv, Sverige]]></description>
        <Point><coordinates>13.328562,55.843663,0</coordinates></Point>
        <styleUrl>#icon-22</styleUrl>
      </Placemark>
      <Placemark>
        <name><![CDATA[Apoteket Tranan]]></name>
        <description><![CDATA[Apoteket Tranan, Tranemo, Sverige]]></description>
        <Point><coordinates>13.3474,57.4809,0</coordinates></Point>
        <styleUrl>#icon-22</styleUrl>
      </Placemark>
      <Placemark>
        <name><![CDATA[Apoteket Gladan]]></name>
        <description><![CDATA[Apoteket Gladan, Dalby, Sverige]]></description>
        <Point><coordinates>13.3489,55.6642,0</coordinates></Point>
        <styleUrl>#icon-22</styleUrl>
      </Placemark>
      <Placemark>
        <name><![CDATA[Apoteket Näckrosen]]></name>
        <description><![CDATA[Apoteket Näckrosen, Perstorp, Sverige]]></description>
        <Point><coordinates>13.3949,56.1384,0</coordinates></Point>
        <styleUrl>#icon-22</styleUrl>
      </Placemark>
      <Placemark>
        <name><![CDATA[Apoteket Kronan]]></name>
        <description><![CDATA[Apoteket Kronan, Ulricehamn, Sverige]]></description>
        <Point><coordinates>13.4144,57.7953,0</coordinates></Point>
        <styleUrl>#icon-22</styleUrl>
      </Placemark>
      <Placemark>
        <name><![CDATA[Apoteket Kronan]]></name>
        <description><![CDATA[Apoteket Kronan, Skara, Sverige]]></description>
        <Point><coordinates>13.437535,58.38576,0</coordinates></Point>
        <styleUrl>#icon-22</styleUrl>
      </Placemark>
      <Placemark>
        <name><![CDATA[Apoteket Källan]]></name>
        <description><![CDATA[Apoteket Källan, Karlstad, Sverige]]></description>
        <Point><coordinates>13.4405,59.4357,0</coordinates></Point>
        <styleUrl>#icon-22</styleUrl>
      </Placemark>
      <Placemark>
        <name><![CDATA[Apoteket Vargen]]></name>
        <description><![CDATA[Apoteket Vargen, Karlstad, Sverige]]></description>
        <Point><coordinates>13.4781,59.3749,0</coordinates></Point>
        <styleUrl>#icon-22</styleUrl>
      </Placemark>
      <Placemark>
        <name><![CDATA[Apoteket Lärkan]]></name>
        <description><![CDATA[Apoteket Lärkan, Forshaga, Sverige]]></description>
        <Point><coordinates>13.4806,59.5321,0</coordinates></Point>
        <styleUrl>#icon-22</styleUrl>
      </Placemark>
      <Placemark>
        <name><![CDATA[Apoteket Mitt i City]]></name>
        <description><![CDATA[Apoteket Mitt i City, Karlstad, Sverige]]></description>
        <Point><coordinates>13.4996,59.3798,0</coordinates></Point>
        <styleUrl>#icon-22</styleUrl>
      </Placemark>
      <Placemark>
        <name><![CDATA[Apoteket Örnen]]></name>
        <description><![CDATA[Apoteket Örnen, Karlstad, Sverige]]></description>
        <Point><coordinates>13.5003,59.3786,0</coordinates></Point>
        <styleUrl>#icon-22</styleUrl>
      </Placemark>
      <Placemark>
        <name><![CDATA[Apoteket Skurup]]></name>
        <description><![CDATA[Apoteket Skurup, Skurup, Sverige]]></description>
        <Point><coordinates>13.5011,55.479,0</coordinates></Point>
        <styleUrl>#icon-22</styleUrl>
      </Placemark>
      <Placemark>
        <name><![CDATA[Apoteket Björken]]></name>
        <description><![CDATA[Apoteket Björken, Karlstad, Sverige]]></description>
        <Point><coordinates>13.517,59.3916,0</coordinates></Point>
        <styleUrl>#icon-22</styleUrl>
      </Placemark>
      <Placemark>
        <name><![CDATA[Apoteket Gislaved]]></name>
        <description><![CDATA[Apoteket Gislaved, Gislaved, Sverige]]></description>
        <Point><coordinates>13.54088,57.30195,0</coordinates></Point>
        <styleUrl>#icon-22</styleUrl>
      </Placemark>
      <Placemark>
        <name><![CDATA[Apoteket Kronan]]></name>
        <description><![CDATA[Apoteket Kronan, Falköping, Sverige]]></description>
        <Point><coordinates>13.5561,58.161,0</coordinates></Point>
        <styleUrl>#icon-22</styleUrl>
      </Placemark>
      <Placemark>
        <name><![CDATA[Apoteket Höör]]></name>
        <description><![CDATA[Apoteket Höör, Höör, Sverige]]></description>
        <Point><coordinates>13.563311,55.951336,0</coordinates></Point>
        <styleUrl>#icon-22</styleUrl>
      </Placemark>
      <Placemark>
        <name><![CDATA[Apoteket Välsviken Karlstad]]></name>
        <description><![CDATA[Apoteket Välsviken Karlstad, Karlstad, Sverige]]></description>
        <Point><coordinates>13.575721,59.395854,0</coordinates></Point>
        <styleUrl>#icon-22</styleUrl>
      </Placemark>
      <Placemark>
        <name><![CDATA[Apoteket Svanen]]></name>
        <description><![CDATA[Apoteket Svanen, Markaryd, Sverige]]></description>
        <Point><coordinates>13.5976,56.461,0</coordinates></Point>
        <styleUrl>#icon-22</styleUrl>
      </Placemark>
      <Placemark>
        <name><![CDATA[Apoteket Linden]]></name>
        <description><![CDATA[Apoteket Linden, Sösdala, Sverige]]></description>
        <Point><coordinates>13.6803,56.0378,0</coordinates></Point>
        <styleUrl>#icon-22</styleUrl>
      </Placemark>
      <Placemark>
        <name><![CDATA[Apoteket Ängeln]]></name>
        <description><![CDATA[Apoteket Ängeln, Sjöbo, Sverige]]></description>
        <Point><coordinates>13.7037,55.6317,0</coordinates></Point>
        <styleUrl>#icon-22</styleUrl>
      </Placemark>
      <Placemark>
        <name><![CDATA[Apoteket Gallerian]]></name>
        <description><![CDATA[Apoteket Gallerian, Hässleholm, Sverige]]></description>
        <Point><coordinates>13.76676,56.15746,0</coordinates></Point>
        <styleUrl>#icon-22</styleUrl>
      </Placemark>
      <Placemark>
        <name><![CDATA[Apoteket Linné]]></name>
        <description><![CDATA[Apoteket Linné, Hässleholm, Sverige]]></description>
        <Point><coordinates>13.7767,56.1594,0</coordinates></Point>
        <styleUrl>#icon-22</styleUrl>
      </Placemark>
      <Placemark>
        <name><![CDATA[Apoteket Doppingen]]></name>
        <description><![CDATA[Apoteket Doppingen, Ystad, Sverige]]></description>
        <Point><coordinates>13.8166,55.4331,0</coordinates></Point>
        <styleUrl>#icon-22</styleUrl>
      </Placemark>
      <Placemark>
        <name><![CDATA[Apoteket Stortorget]]></name>
        <description><![CDATA[Apoteket Stortorget, Ystad, Sverige]]></description>
        <Point><coordinates>13.82033,55.42981,0</coordinates></Point>
        <styleUrl>#icon-22</styleUrl>
      </Placemark>
      <Placemark>
        <name><![CDATA[Apoteket Oxen]]></name>
        <description><![CDATA[Apoteket Oxen, Mariestad, Sverige]]></description>
        <Point><coordinates>13.8228,58.7089,0</coordinates></Point>
        <styleUrl>#icon-22</styleUrl>
      </Placemark>
      <Placemark>
        <name><![CDATA[Apoteket Tranan]]></name>
        <description><![CDATA[Apoteket Tranan, Skövde, Sverige]]></description>
        <Point><coordinates>13.8387,58.4004,0</coordinates></Point>
        <styleUrl>#icon-22</styleUrl>
      </Placemark>
      <Placemark>
        <name><![CDATA[Apoteket Kärnan]]></name>
        <description><![CDATA[Apoteket Kärnan, Skövde, Sverige]]></description>
        <Point><coordinates>13.8506,58.4254,0</coordinates></Point>
        <styleUrl>#icon-22</styleUrl>
      </Placemark>
      <Placemark>
        <name><![CDATA[Apoteket Kronan]]></name>
        <description><![CDATA[Apoteket Kronan, Ljungby, Sverige]]></description>
        <Point><coordinates>13.9406,56.8346,0</coordinates></Point>
        <styleUrl>#icon-22</styleUrl>
      </Placemark>
      <Placemark>
        <name><![CDATA[Apoteket Artemis]]></name>
        <description><![CDATA[Apoteket Artemis, Tomelilla, Sverige]]></description>
        <Point><coordinates>13.95331,55.54355,0</coordinates></Point>
        <styleUrl>#icon-22</styleUrl>
      </Placemark>
      <Placemark>
        <name><![CDATA[Apoteket Storken]]></name>
        <description><![CDATA[Apoteket Storken, Tollarp, Sverige]]></description>
        <Point><coordinates>13.9721,55.9346,0</coordinates></Point>
        <styleUrl>#icon-22</styleUrl>
      </Placemark>
      <Placemark>
        <name><![CDATA[Apoteket Dufwan]]></name>
        <description><![CDATA[Apoteket Dufwan, Osby, Sverige]]></description>
        <Point><coordinates>13.9952,56.3821,0</coordinates></Point>
        <styleUrl>#icon-22</styleUrl>
      </Placemark>
      <Placemark>
        <name><![CDATA[Apoteket Vågen]]></name>
        <description><![CDATA[Apoteket Vågen, Värnamo, Sverige]]></description>
        <Point><coordinates>14.028,57.1745,0</coordinates></Point>
        <styleUrl>#icon-22</styleUrl>
      </Placemark>
      <Placemark>
        <name><![CDATA[Apoteket Björnen]]></name>
        <description><![CDATA[Apoteket Björnen, Älvdalen, Sverige]]></description>
        <Point><coordinates>14.0378,61.231,0</coordinates></Point>
        <styleUrl>#icon-22</styleUrl>
      </Placemark>
      <Placemark>
        <name><![CDATA[Apoteket Änge]]></name>
        <description><![CDATA[Apoteket Änge, Offerdal, Sverige]]></description>
        <Point><coordinates>14.0688,63.4577,0</coordinates></Point>
        <styleUrl>#icon-22</styleUrl>
      </Placemark>
      <Placemark>
        <name><![CDATA[Apoteket Lärkan]]></name>
        <description><![CDATA[Apoteket Lärkan, Habo, Sverige]]></description>
        <Point><coordinates>14.0888,57.9104,0</coordinates></Point>
        <styleUrl>#icon-22</styleUrl>
      </Placemark>
      <Placemark>
        <name><![CDATA[Apoteket Björnen]]></name>
        <description><![CDATA[Apoteket Björnen, Kristinehamn, Sverige]]></description>
        <Point><coordinates>14.1011,59.3057,0</coordinates></Point>
        <styleUrl>#icon-22</styleUrl>
      </Placemark>
      <Placemark>
        <name><![CDATA[Apoteket Bojorten]]></name>
        <description><![CDATA[Apoteket Bojorten, Kristinehamn, Sverige]]></description>
        <Point><coordinates>14.10842,59.30783,0</coordinates></Point>
        <styleUrl>#icon-22</styleUrl>
      </Placemark>
      <Placemark>
        <name><![CDATA[Apoteket Nyponet]]></name>
        <description><![CDATA[Apoteket Nyponet, Norrahammar, Sverige]]></description>
        <Point><coordinates>14.1174,57.7038,0</coordinates></Point>
        <styleUrl>#icon-22</styleUrl>
      </Placemark>
      <Placemark>
        <name><![CDATA[Apoteket Ekorren]]></name>
        <description><![CDATA[Apoteket Ekorren, Bankeryd, Sverige]]></description>
        <Point><coordinates>14.1261,57.8614,0</coordinates></Point>
        <styleUrl>#icon-22</styleUrl>
      </Placemark>
      <Placemark>
        <name><![CDATA[Apoteket Kronan]]></name>
        <description><![CDATA[Apoteket Kronan, Töreboda, Sverige]]></description>
        <Point><coordinates>14.1267,58.7074,0</coordinates></Point>
        <styleUrl>#icon-22</styleUrl>
      </Placemark>
      <Placemark>
        <name><![CDATA[Apoteket Fjällämmeln]]></name>
        <description><![CDATA[Apoteket Fjällämmeln, Gäddede, Sverige]]></description>
        <Point><coordinates>14.144343,64.501948,0</coordinates></Point>
        <styleUrl>#icon-22</styleUrl>
      </Placemark>
      <Placemark>
        <name><![CDATA[Apoteket Norringen]]></name>
        <description><![CDATA[Apoteket Norringen, Kristianstad, Sverige]]></description>
        <Point><coordinates>14.1481,56.043,0</coordinates></Point>
        <styleUrl>#icon-22</styleUrl>
      </Placemark>
      <Placemark>
        <name><![CDATA[Apoteket Kronan]]></name>
        <description><![CDATA[Apoteket Kronan, Kristianstad, Sverige]]></description>
        <Point><coordinates>14.15558,56.02957,0</coordinates></Point>
        <styleUrl>#icon-22</styleUrl>
      </Placemark>
      <Placemark>
        <name><![CDATA[Apoteket Svanen]]></name>
        <description><![CDATA[Apoteket Svanen, Tibro, Sverige]]></description>
        <Point><coordinates>14.1646,58.4254,0</coordinates></Point>
        <styleUrl>#icon-22</styleUrl>
      </Placemark>
      <Placemark>
        <name><![CDATA[Apoteket Östra Storgatan]]></name>
        <description><![CDATA[Apoteket Östra Storgatan, Jönköping, Sverige]]></description>
        <Point><coordinates>14.17435,57.782483,0</coordinates></Point>
        <styleUrl>#icon-22</styleUrl>
      </Placemark>
      <Placemark>
        <name><![CDATA[Apoteket Ryhov]]></name>
        <description><![CDATA[Apoteket Ryhov, Jönköping, Sverige]]></description>
        <Point><coordinates>14.1953,57.7681,0</coordinates></Point>
        <styleUrl>#icon-22</styleUrl>
      </Placemark>
      <Placemark>
        <name><![CDATA[Apoteket Batterigatan Jönköping]]></name>
        <description><![CDATA[Apoteket Batterigatan Jönköping, Jönköping, Sverige]]></description>
        <Point><coordinates>14.201709,57.767642,0</coordinates></Point>
        <styleUrl>#icon-22</styleUrl>
      </Placemark>
      <Placemark>
        <name><![CDATA[Apoteket Asecs]]></name>
        <description><![CDATA[Apoteket Asecs, Jönköping, Sverige]]></description>
        <Point><coordinates>14.203632,57.770891,0</coordinates></Point>
        <styleUrl>#icon-22</styleUrl>
      </Placemark>
      <Placemark>
        <name><![CDATA[Apoteket A6 Vakten]]></name>
        <description><![CDATA[Apoteket A6 Vakten, Jönköping, Sverige]]></description>
        <Point><coordinates>14.20414,57.76904,0</coordinates></Point>
        <styleUrl>#icon-22</styleUrl>
      </Placemark>
      <Placemark>
        <name><![CDATA[Apoteket C4 Kristianstad]]></name>
        <description><![CDATA[Apoteket C4 Kristianstad, Kristianstad, Sverige]]></description>
        <Point><coordinates>14.206223,56.02631,0</coordinates></Point>
        <styleUrl>#icon-22</styleUrl>
      </Placemark>
      <Placemark>
        <name><![CDATA[Apoteket Tallen]]></name>
        <description><![CDATA[Apoteket Tallen, Vansbro, Sverige]]></description>
        <Point><coordinates>14.2232,60.5106,0</coordinates></Point>
        <styleUrl>#icon-22</styleUrl>
      </Placemark>
      <Placemark>
        <name><![CDATA[Apoteket Alnen]]></name>
        <description><![CDATA[Apoteket Alnen, Rydaholm, Sverige]]></description>
        <Point><coordinates>14.3036,56.9849,0</coordinates></Point>
        <styleUrl>#icon-22</styleUrl>
      </Placemark>
      <Placemark>
        <name><![CDATA[Apoteket Vågen]]></name>
        <description><![CDATA[Apoteket Vågen, Degerfors, Sverige]]></description>
        <Point><coordinates>14.4329,59.2372,0</coordinates></Point>
        <styleUrl>#icon-22</styleUrl>
      </Placemark>
      <Placemark>
        <name><![CDATA[Apoteket Svanen]]></name>
        <description><![CDATA[Apoteket Svanen, Krokom, Sverige]]></description>
        <Point><coordinates>14.4498,63.3265,0</coordinates></Point>
        <styleUrl>#icon-22</styleUrl>
      </Placemark>
      <Placemark>
        <name><![CDATA[Apoteket Lärkan]]></name>
        <description><![CDATA[Apoteket Lärkan, Karlskoga, Sverige]]></description>
        <Point><coordinates>14.506,59.3153,0</coordinates></Point>
        <styleUrl>#icon-22</styleUrl>
      </Placemark>
      <Placemark>
        <name><![CDATA[Apoteket Kulan]]></name>
        <description><![CDATA[Apoteket Kulan, Karlskoga, Sverige]]></description>
        <Point><coordinates>14.5234,59.32583,0</coordinates></Point>
        <styleUrl>#icon-22</styleUrl>
      </Placemark>
      <Placemark>
        <name><![CDATA[Apoteket Storgatan]]></name>
        <description><![CDATA[Apoteket Storgatan, Olofström, Sverige]]></description>
        <Point><coordinates>14.52998,56.2776,0</coordinates></Point>
        <styleUrl>#icon-22</styleUrl>
      </Placemark>
      <Placemark>
        <name><![CDATA[Apoteket Svanen]]></name>
        <description><![CDATA[Apoteket Svanen, Alvesta, Sverige]]></description>
        <Point><coordinates>14.5531,56.8999,0</coordinates></Point>
        <styleUrl>#icon-22</styleUrl>
      </Placemark>
      <Placemark>
        <name><![CDATA[Apoteket Bävern]]></name>
        <description><![CDATA[Apoteket Bävern, Mora, Sverige]]></description>
        <Point><coordinates>14.5849,61.0163,0</coordinates></Point>
        <styleUrl>#icon-22</styleUrl>
      </Placemark>
      <Placemark>
        <name><![CDATA[Apoteket Biet]]></name>
        <description><![CDATA[Apoteket Biet, Frösön, Sverige]]></description>
        <Point><coordinates>14.6004,63.1679,0</coordinates></Point>
        <styleUrl>#icon-22</styleUrl>
      </Placemark>
      <Placemark>
        <name><![CDATA[Apoteket Nornan]]></name>
        <description><![CDATA[Apoteket Nornan, Östersund, Sverige]]></description>
        <Point><coordinates>14.6369,63.1838,0</coordinates></Point>
        <styleUrl>#icon-22</styleUrl>
      </Placemark>
      <Placemark>
        <name><![CDATA[Apoteket Kärnan]]></name>
        <description><![CDATA[Apoteket Kärnan, Östersund, Sverige]]></description>
        <Point><coordinates>14.6374,63.176,0</coordinates></Point>
        <styleUrl>#icon-22</styleUrl>
      </Placemark>
      <Placemark>
        <name><![CDATA[Apoteket Kronan]]></name>
        <description><![CDATA[Apoteket Kronan, Ödeshög, Sverige]]></description>
        <Point><coordinates>14.6494,58.2283,0</coordinates></Point>
        <styleUrl>#icon-22</styleUrl>
      </Placemark>
      <Placemark>
        <name><![CDATA[Apoteket Mjällby Sölvesborg]]></name>
        <description><![CDATA[Apoteket Mjällby Sölvesborg, Sölvesborg, Sverige]]></description>
        <Point><coordinates>14.674069,56.044568,0</coordinates></Point>
        <styleUrl>#icon-22</styleUrl>
      </Placemark>
      <Placemark>
        <name><![CDATA[Apoteket Lillänge]]></name>
        <description><![CDATA[Apoteket Lillänge, Östersund, Sverige]]></description>
        <Point><coordinates>14.6938,63.1744,0</coordinates></Point>
        <styleUrl>#icon-22</styleUrl>
      </Placemark>
      <Placemark>
        <name><![CDATA[Apoteket Loket]]></name>
        <description><![CDATA[Apoteket Loket, Nässjö, Sverige]]></description>
        <Point><coordinates>14.69572,57.65434,0</coordinates></Point>
        <styleUrl>#icon-22</styleUrl>
      </Placemark>
      <Placemark>
        <name><![CDATA[Apoteket Samarkand]]></name>
        <description><![CDATA[Apoteket Samarkand, Växjö, Sverige]]></description>
        <Point><coordinates>14.76635,56.88301,0</coordinates></Point>
        <styleUrl>#icon-22</styleUrl>
      </Placemark>
      <Placemark>
        <name><![CDATA[Apoteket Sambandsvägen Växjö]]></name>
        <description><![CDATA[Apoteket Sambandsvägen Växjö, Växjö, Sverige]]></description>
        <Point><coordinates>14.772653,56.878351,0</coordinates></Point>
        <styleUrl>#icon-22</styleUrl>
      </Placemark>
      <Placemark>
        <name><![CDATA[Apoteket Storgatan]]></name>
        <description><![CDATA[Apoteket Storgatan, Växjö, Sverige]]></description>
        <Point><coordinates>14.8047,56.87876,0</coordinates></Point>
        <styleUrl>#icon-22</styleUrl>
      </Placemark>
      <Placemark>
        <name><![CDATA[Apoteket Ugglan]]></name>
        <description><![CDATA[Apoteket Ugglan, Karlshamn, Sverige]]></description>
        <Point><coordinates>14.8521,56.1873,0</coordinates></Point>
        <styleUrl>#icon-22</styleUrl>
      </Placemark>
      <Placemark>
        <name><![CDATA[Apoteket Örnen]]></name>
        <description><![CDATA[Apoteket Örnen, Vadstena, Sverige]]></description>
        <Point><coordinates>14.8877,58.4476,0</coordinates></Point>
        <styleUrl>#icon-22</styleUrl>
      </Placemark>
      <Placemark>
        <name><![CDATA[Apoteket Sjukhuset Eksjö]]></name>
        <description><![CDATA[Apoteket Sjukhuset Eksjö, Eksjö, Sverige]]></description>
        <Point><coordinates>14.965939,57.666977,0</coordinates></Point>
        <styleUrl>#icon-22</styleUrl>
      </Placemark>
      <Placemark>
        <name><![CDATA[Apoteket Lejonet]]></name>
        <description><![CDATA[Apoteket Lejonet, Eksjö, Sverige]]></description>
        <Point><coordinates>14.97223,57.665535,0</coordinates></Point>
        <styleUrl>#icon-22</styleUrl>
      </Placemark>
      <Placemark>
        <name><![CDATA[Apoteket Tranan]]></name>
        <description><![CDATA[Apoteket Tranan, Tranås, Sverige]]></description>
        <Point><coordinates>14.97735,58.03599,0</coordinates></Point>
        <styleUrl>#icon-22</styleUrl>
      </Placemark>
      <Placemark>
        <name><![CDATA[Apoteket Uttern]]></name>
        <description><![CDATA[Apoteket Uttern, Tingsryd, Sverige]]></description>
        <Point><coordinates>14.9815,56.5231,0</coordinates></Point>
        <styleUrl>#icon-22</styleUrl>
      </Placemark>
      <Placemark>
        <name><![CDATA[Apoteket Leksand]]></name>
        <description><![CDATA[Apoteket Leksand, Leksand, Sverige]]></description>
        <Point><coordinates>14.9979,60.7306,0</coordinates></Point>
        <styleUrl>#icon-22</styleUrl>
      </Placemark>
      <Placemark>
        <name><![CDATA[Apoteket Marieberg]]></name>
        <description><![CDATA[Apoteket Marieberg, Motala, Sverige]]></description>
        <Point><coordinates>15.0012,58.5399,0</coordinates></Point>
        <styleUrl>#icon-22</styleUrl>
      </Placemark>
      <Placemark>
        <name><![CDATA[Apoteket Kronan]]></name>
        <description><![CDATA[Apoteket Kronan, Motala, Sverige]]></description>
        <Point><coordinates>15.039,58.5368,0</coordinates></Point>
        <styleUrl>#icon-22</styleUrl>
      </Placemark>
      <Placemark>
        <name><![CDATA[Apoteket Lejonet]]></name>
        <description><![CDATA[Apoteket Lejonet, Vetlanda, Sverige]]></description>
        <Point><coordinates>15.0854,57.426,0</coordinates></Point>
        <styleUrl>#icon-22</styleUrl>
      </Placemark>
      <Placemark>
        <name><![CDATA[Apoteket Kronan]]></name>
        <description><![CDATA[Apoteket Kronan, Skänninge, Sverige]]></description>
        <Point><coordinates>15.0874,58.3945,0</coordinates></Point>
        <styleUrl>#icon-22</styleUrl>
      </Placemark>
      <Placemark>
        <name><![CDATA[Apoteket Djurås]]></name>
        <description><![CDATA[Apoteket Djurås, Djurås, Sverige]]></description>
        <Point><coordinates>15.1311,60.5608,0</coordinates></Point>
        <styleUrl>#icon-22</styleUrl>
      </Placemark>
      <Placemark>
        <name><![CDATA[Apoteket Marieberg]]></name>
        <description><![CDATA[Apoteket Marieberg, Örebro, Sverige]]></description>
        <Point><coordinates>15.1359,59.2166,0</coordinates></Point>
        <styleUrl>#icon-22</styleUrl>
      </Placemark>
      <Placemark>
        <name><![CDATA[Apoteket Liljan]]></name>
        <description><![CDATA[Apoteket Liljan, Ludvika, Sverige]]></description>
        <Point><coordinates>15.1869,60.1496,0</coordinates></Point>
        <styleUrl>#icon-22</styleUrl>
      </Placemark>
      <Placemark>
        <name><![CDATA[Apoteket Prologgatan Örebro]]></name>
        <description><![CDATA[Apoteket Prologgatan Örebro, Örebro, Sverige]]></description>
        <Point><coordinates>15.199474,59.295128,0</coordinates></Point>
        <styleUrl>#icon-22</styleUrl>
      </Placemark>
      <Placemark>
        <name><![CDATA[Apoteket Älgen]]></name>
        <description><![CDATA[Apoteket Älgen, Örebro, Sverige]]></description>
        <Point><coordinates>15.2067,59.276,0</coordinates></Point>
        <styleUrl>#icon-22</styleUrl>
      </Placemark>
      <Placemark>
        <name><![CDATA[Apoteket Våghustorget Örebro]]></name>
        <description><![CDATA[Apoteket Våghustorget Örebro, Örebro, Sverige]]></description>
        <Point><coordinates>15.210821,59.269899,0</coordinates></Point>
        <styleUrl>#icon-22</styleUrl>
      </Placemark>
      <Placemark>
        <name><![CDATA[Apoteket Kungsgatan]]></name>
        <description><![CDATA[Apoteket Kungsgatan, Örebro, Sverige]]></description>
        <Point><coordinates>15.21449,59.27076,0</coordinates></Point>
        <styleUrl>#icon-22</styleUrl>
      </Placemark>
      <Placemark>
        <name><![CDATA[Apoteket Lokatten]]></name>
        <description><![CDATA[Apoteket Lokatten, Lindesberg, Sverige]]></description>
        <Point><coordinates>15.2165,59.6028,0</coordinates></Point>
        <styleUrl>#icon-22</styleUrl>
      </Placemark>
      <Placemark>
        <name><![CDATA[Apoteket Universitetssjukhuset]]></name>
        <description><![CDATA[Apoteket Universitetssjukhuset, Örebro, Sverige]]></description>
        <Point><coordinates>15.2252,59.2764,0</coordinates></Point>
        <styleUrl>#icon-22</styleUrl>
      </Placemark>
      <Placemark>
        <name><![CDATA[Apoteket Tybble VC]]></name>
        <description><![CDATA[Apoteket Tybble VC, Örebro, Sverige]]></description>
        <Point><coordinates>15.237,59.2544,0</coordinates></Point>
        <styleUrl>#icon-22</styleUrl>
      </Placemark>
      <Placemark>
        <name><![CDATA[Apoteket Snäckan]]></name>
        <description><![CDATA[Apoteket Snäckan, Ronneby, Sverige]]></description>
        <Point><coordinates>15.2705,56.2067,0</coordinates></Point>
        <styleUrl>#icon-22</styleUrl>
      </Placemark>
      <Placemark>
        <name><![CDATA[Apoteket Örnen]]></name>
        <description><![CDATA[Apoteket Örnen, Lessebo, Sverige]]></description>
        <Point><coordinates>15.2706,56.7515,0</coordinates></Point>
        <styleUrl>#icon-22</styleUrl>
      </Placemark>
      <Placemark>
        <name><![CDATA[Apoteket Räven]]></name>
        <description><![CDATA[Apoteket Räven, Ydre, Sverige]]></description>
        <Point><coordinates>15.2767,57.8251,0</coordinates></Point>
        <styleUrl>#icon-22</styleUrl>
      </Placemark>
      <Placemark>
        <name><![CDATA[Apoteket Björnen]]></name>
        <description><![CDATA[Apoteket Björnen, Hammerdal, Sverige]]></description>
        <Point><coordinates>15.351,63.5822,0</coordinates></Point>
        <styleUrl>#icon-22</styleUrl>
      </Placemark>
      <Placemark>
        <name><![CDATA[Apoteket Falken]]></name>
        <description><![CDATA[Apoteket Falken, Borlänge, Sverige]]></description>
        <Point><coordinates>15.4105,60.5158,0</coordinates></Point>
        <styleUrl>#icon-22</styleUrl>
      </Placemark>
      <Placemark>
        <name><![CDATA[Apoteket Kupolen]]></name>
        <description><![CDATA[Apoteket Kupolen, Borlänge, Sverige]]></description>
        <Point><coordinates>15.418058,60.48443,0</coordinates></Point>
        <styleUrl>#icon-22</styleUrl>
      </Placemark>
      <Placemark>
        <name><![CDATA[Apoteket Mården]]></name>
        <description><![CDATA[Apoteket Mården, Bräcke, Sverige]]></description>
        <Point><coordinates>15.419844,62.749222,0</coordinates></Point>
        <styleUrl>#icon-22</styleUrl>
      </Placemark>
      <Placemark>
        <name><![CDATA[Apoteket Humlan]]></name>
        <description><![CDATA[Apoteket Humlan, Linköping, Sverige]]></description>
        <Point><coordinates>15.5085,58.4204,0</coordinates></Point>
        <styleUrl>#icon-22</styleUrl>
      </Placemark>
      <Placemark>
        <name><![CDATA[Apoteket Svanen]]></name>
        <description><![CDATA[Apoteket Svanen, Odensbacken, Sverige]]></description>
        <Point><coordinates>15.5253,59.1564,0</coordinates></Point>
        <styleUrl>#icon-22</styleUrl>
      </Placemark>
      <Placemark>
        <name><![CDATA[Apoteket Älgen]]></name>
        <description><![CDATA[Apoteket Älgen, Strömsund, Sverige]]></description>
        <Point><coordinates>15.5592,63.852,0</coordinates></Point>
        <styleUrl>#icon-22</styleUrl>
      </Placemark>
      <Placemark>
        <name><![CDATA[Apoteket Lambohov]]></name>
        <description><![CDATA[Apoteket Lambohov, Linköping, Sverige]]></description>
        <Point><coordinates>15.5639,58.3877,0</coordinates></Point>
        <styleUrl>#icon-22</styleUrl>
      </Placemark>
      <Placemark>
        <name><![CDATA[Apoteket Wachtmeister]]></name>
        <description><![CDATA[Apoteket Wachtmeister, Karlskrona, Sverige]]></description>
        <Point><coordinates>15.58329,56.16172,0</coordinates></Point>
        <styleUrl>#icon-22</styleUrl>
      </Placemark>
      <Placemark>
        <name><![CDATA[Apoteket Filbyter]]></name>
        <description><![CDATA[Apoteket Filbyter, Linköping, Sverige]]></description>
        <Point><coordinates>15.62098,58.41083,0</coordinates></Point>
        <styleUrl>#icon-22</styleUrl>
      </Placemark>
      <Placemark>
        <name><![CDATA[Apoteket Kronan]]></name>
        <description><![CDATA[Apoteket Kronan, Linköping, Sverige]]></description>
        <Point><coordinates>15.6274,58.4106,0</coordinates></Point>
        <styleUrl>#icon-22</styleUrl>
      </Placemark>
      <Placemark>
        <name><![CDATA[Apoteket Engelbrekt]]></name>
        <description><![CDATA[Apoteket Engelbrekt, Falun, Sverige]]></description>
        <Point><coordinates>15.6322,60.6062,0</coordinates></Point>
        <styleUrl>#icon-22</styleUrl>
      </Placemark>
      <Placemark>
        <name><![CDATA[Apoteket Falu lasarett]]></name>
        <description><![CDATA[Apoteket Falu lasarett, Falun, Sverige]]></description>
        <Point><coordinates>15.6425,60.6086,0</coordinates></Point>
        <styleUrl>#icon-22</styleUrl>
      </Placemark>
      <Placemark>
        <name><![CDATA[Apoteket Pantern]]></name>
        <description><![CDATA[Apoteket Pantern, Lyckeby, Sverige]]></description>
        <Point><coordinates>15.6497,56.1986,0</coordinates></Point>
        <styleUrl>#icon-22</styleUrl>
      </Placemark>
      <Placemark>
        <name><![CDATA[Apoteket Ugglan]]></name>
        <description><![CDATA[Apoteket Ugglan, Ånge, Sverige]]></description>
        <Point><coordinates>15.659,62.5242,0</coordinates></Point>
        <styleUrl>#icon-22</styleUrl>
      </Placemark>
      <Placemark>
        <name><![CDATA[Apoteket Viggen]]></name>
        <description><![CDATA[Apoteket Viggen, Linköping, Sverige]]></description>
        <Point><coordinates>15.6816,58.3801,0</coordinates></Point>
        <styleUrl>#icon-22</styleUrl>
      </Placemark>
      <Placemark>
        <name><![CDATA[Apoteket Vallonen]]></name>
        <description><![CDATA[Apoteket Vallonen, Finspång, Sverige]]></description>
        <Point><coordinates>15.7605,58.7107,0</coordinates></Point>
        <styleUrl>#icon-22</styleUrl>
      </Placemark>
      <Placemark>
        <name><![CDATA[Apoteket Lejonet]]></name>
        <description><![CDATA[Apoteket Lejonet, Fagersta, Sverige]]></description>
        <Point><coordinates>15.797,60.0054,0</coordinates></Point>
        <styleUrl>#icon-22</styleUrl>
      </Placemark>
      <Placemark>
        <name><![CDATA[Apoteket Kronan]]></name>
        <description><![CDATA[Apoteket Kronan, Hultsfred, Sverige]]></description>
        <Point><coordinates>15.8426,57.4882,0</coordinates></Point>
        <styleUrl>#icon-22</styleUrl>
      </Placemark>
      <Placemark>
        <name><![CDATA[Apoteket Kråkan]]></name>
        <description><![CDATA[Apoteket Kråkan, Svärdsjö, Sverige]]></description>
        <Point><coordinates>15.904,60.7406,0</coordinates></Point>
        <styleUrl>#icon-22</styleUrl>
      </Placemark>
      <Placemark>
        <name><![CDATA[Apoteket Lönnen]]></name>
        <description><![CDATA[Apoteket Lönnen, Nybro, Sverige]]></description>
        <Point><coordinates>15.9064,56.74467,0</coordinates></Point>
        <styleUrl>#icon-22</styleUrl>
      </Placemark>
      <Placemark>
        <name><![CDATA[Apoteket Tärnan]]></name>
        <description><![CDATA[Apoteket Tärnan, Köping, Sverige]]></description>
        <Point><coordinates>16.0027,59.5091,0</coordinates></Point>
        <styleUrl>#icon-22</styleUrl>
      </Placemark>
      <Placemark>
        <name><![CDATA[Apoteket Malen]]></name>
        <description><![CDATA[Apoteket Malen, Högsby, Sverige]]></description>
        <Point><coordinates>16.0269,57.1649,0</coordinates></Point>
        <styleUrl>#icon-22</styleUrl>
      </Placemark>
      <Placemark>
        <name><![CDATA[Apoteket Nordstjärnan]]></name>
        <description><![CDATA[Apoteket Nordstjärnan, Alfta, Sverige]]></description>
        <Point><coordinates>16.0678,61.3463,0</coordinates></Point>
        <styleUrl>#icon-22</styleUrl>
      </Placemark>
      <Placemark>
        <name><![CDATA[Apoteket Kronan]]></name>
        <description><![CDATA[Apoteket Kronan, Kungsör, Sverige]]></description>
        <Point><coordinates>16.0962,59.4185,0</coordinates></Point>
        <styleUrl>#icon-22</styleUrl>
      </Placemark>
      <Placemark>
        <name><![CDATA[Apoteket Vargen]]></name>
        <description><![CDATA[Apoteket Vargen, Fränsta, Sverige]]></description>
        <Point><coordinates>16.167,62.5005,0</coordinates></Point>
        <styleUrl>#icon-22</styleUrl>
      </Placemark>
      <Placemark>
        <name><![CDATA[Apoteket Kronan]]></name>
        <description><![CDATA[Apoteket Kronan, Avesta, Sverige]]></description>
        <Point><coordinates>16.1683,60.1459,0</coordinates></Point>
        <styleUrl>#icon-22</styleUrl>
      </Placemark>
      <Placemark>
        <name><![CDATA[Apoteket Fasanen]]></name>
        <description><![CDATA[Apoteket Fasanen, Norrköping, Sverige]]></description>
        <Point><coordinates>16.1698,58.5707,0</coordinates></Point>
        <styleUrl>#icon-22</styleUrl>
      </Placemark>
      <Placemark>
        <name><![CDATA[Apoteket Malmgatan Norrköping]]></name>
        <description><![CDATA[Apoteket Malmgatan Norrköping, Norrköping, Sverige]]></description>
        <Point><coordinates>16.175529,58.616273,0</coordinates></Point>
        <styleUrl>#icon-22</styleUrl>
      </Placemark>
      <Placemark>
        <name><![CDATA[Apoteket Vrinnevisjukhuset]]></name>
        <description><![CDATA[Apoteket Vrinnevisjukhuset, Norrköping, Sverige]]></description>
        <Point><coordinates>16.1791,58.5636,0</coordinates></Point>
        <styleUrl>#icon-22</styleUrl>
      </Placemark>
      <Placemark>
        <name><![CDATA[Apoteket Spiralen]]></name>
        <description><![CDATA[Apoteket Spiralen, Norrköping, Sverige]]></description>
        <Point><coordinates>16.18904,58.58699,0</coordinates></Point>
        <styleUrl>#icon-22</styleUrl>
      </Placemark>
      <Placemark>
        <name><![CDATA[Apoteket Hjorten]]></name>
        <description><![CDATA[Apoteket Hjorten, Norrköping, Sverige]]></description>
        <Point><coordinates>16.19161,58.5876,0</coordinates></Point>
        <styleUrl>#icon-22</styleUrl>
      </Placemark>
      <Placemark>
        <name><![CDATA[Apoteket Visenten]]></name>
        <description><![CDATA[Apoteket Visenten, Avesta, Sverige]]></description>
        <Point><coordinates>16.2009,60.1412,0</coordinates></Point>
        <styleUrl>#icon-22</styleUrl>
      </Placemark>
      <Placemark>
        <name><![CDATA[Apoteket Björken]]></name>
        <description><![CDATA[Apoteket Björken, Hoting, Sverige]]></description>
        <Point><coordinates>16.2077,64.1144,0</coordinates></Point>
        <styleUrl>#icon-22</styleUrl>
      </Placemark>
      <Placemark>
        <name><![CDATA[Apoteket Violen]]></name>
        <description><![CDATA[Apoteket Violen, Katrineholm, Sverige]]></description>
        <Point><coordinates>16.20829,58.99441,0</coordinates></Point>
        <styleUrl>#icon-22</styleUrl>
      </Placemark>
      <Placemark>
        <name><![CDATA[Apoteket Illern]]></name>
        <description><![CDATA[Apoteket Illern, Surahammar, Sverige]]></description>
        <Point><coordinates>16.2214,59.7077,0</coordinates></Point>
        <styleUrl>#icon-22</styleUrl>
      </Placemark>
      <Placemark>
        <name><![CDATA[Apoteket Solvändan]]></name>
        <description><![CDATA[Apoteket Solvändan, Kalmar, Sverige]]></description>
        <Point><coordinates>16.2953,56.7342,0</coordinates></Point>
        <styleUrl>#icon-22</styleUrl>
      </Placemark>
      <Placemark>
        <name><![CDATA[Apoteket Trångsundsvägen Kalmar]]></name>
        <description><![CDATA[Apoteket Trångsundsvägen Kalmar, Kalmar, Sverige]]></description>
        <Point><coordinates>16.315165,56.685503,0</coordinates></Point>
        <styleUrl>#icon-22</styleUrl>
      </Placemark>
      <Placemark>
        <name><![CDATA[Apoteket Sundet]]></name>
        <description><![CDATA[Apoteket Sundet, Kalmar, Sverige]]></description>
        <Point><coordinates>16.3295,56.6575,0</coordinates></Point>
        <styleUrl>#icon-22</styleUrl>
      </Placemark>
      <Placemark>
        <name><![CDATA[Apoteket Hinden]]></name>
        <description><![CDATA[Apoteket Hinden, Kalmar, Sverige]]></description>
        <Point><coordinates>16.339004,56.692168,0</coordinates></Point>
        <styleUrl>#icon-22</styleUrl>
      </Placemark>
      <Placemark>
        <name><![CDATA[Apoteket Linblomman]]></name>
        <description><![CDATA[Apoteket Linblomman, Bollnäs, Sverige]]></description>
        <Point><coordinates>16.3615,61.3542,0</coordinates></Point>
        <styleUrl>#icon-22</styleUrl>
      </Placemark>
      <Placemark>
        <name><![CDATA[Apoteket Baronen]]></name>
        <description><![CDATA[Apoteket Baronen, Kalmar, Sverige]]></description>
        <Point><coordinates>16.3652,56.6606,0</coordinates></Point>
        <styleUrl>#icon-22</styleUrl>
      </Placemark>
      <Placemark>
        <name><![CDATA[Apoteket Kronan]]></name>
        <description><![CDATA[Apoteket Kronan, Mörbylånga, Sverige]]></description>
        <Point><coordinates>16.379,56.5266,0</coordinates></Point>
        <styleUrl>#icon-22</styleUrl>
      </Placemark>
      <Placemark>
        <name><![CDATA[Apoteket Kronan]]></name>
        <description><![CDATA[Apoteket Kronan, Backe, Sverige]]></description>
        <Point><coordinates>16.4045,63.8109,0</coordinates></Point>
        <styleUrl>#icon-22</styleUrl>
      </Placemark>
      <Placemark>
        <name><![CDATA[Apoteket Blåklockan]]></name>
        <description><![CDATA[Apoteket Blåklockan, Horndal, Sverige]]></description>
        <Point><coordinates>16.4095,60.2949,0</coordinates></Point>
        <styleUrl>#icon-22</styleUrl>
      </Placemark>
      <Placemark>
        <name><![CDATA[Apoteket Lejonet]]></name>
        <description><![CDATA[Apoteket Lejonet, Oskarshamn, Sverige]]></description>
        <Point><coordinates>16.449,57.2641,0</coordinates></Point>
        <styleUrl>#icon-22</styleUrl>
      </Placemark>
      <Placemark>
        <name><![CDATA[Apoteket Tuna Park]]></name>
        <description><![CDATA[Apoteket Tuna Park, Eskilstuna, Sverige]]></description>
        <Point><coordinates>16.47011,59.37134,0</coordinates></Point>
        <styleUrl>#icon-22</styleUrl>
      </Placemark>
      <Placemark>
        <name><![CDATA[Apoteket Svanen]]></name>
        <description><![CDATA[Apoteket Svanen, Torshälla, Sverige]]></description>
        <Point><coordinates>16.4753,59.4199,0</coordinates></Point>
        <styleUrl>#icon-22</styleUrl>
      </Placemark>
      <Placemark>
        <name><![CDATA[Apoteket Freja]]></name>
        <description><![CDATA[Apoteket Freja, Eskilstuna, Sverige]]></description>
        <Point><coordinates>16.5125,59.371,0</coordinates></Point>
        <styleUrl>#icon-22</styleUrl>
      </Placemark>
      <Placemark>
        <name><![CDATA[Apoteket Duvan]]></name>
        <description><![CDATA[Apoteket Duvan, Storvik, Sverige]]></description>
        <Point><coordinates>16.5303,60.5829,0</coordinates></Point>
        <styleUrl>#icon-22</styleUrl>
      </Placemark>
      <Placemark>
        <name><![CDATA[Apoteket Stora Gatan 52 Västerås]]></name>
        <description><![CDATA[Apoteket Stora Gatan 52 Västerås, Västerås, Sverige]]></description>
        <Point><coordinates>16.540882,59.608966,0</coordinates></Point>
        <styleUrl>#icon-22</styleUrl>
      </Placemark>
      <Placemark>
        <name><![CDATA[Apoteket Hjorten]]></name>
        <description><![CDATA[Apoteket Hjorten, Västerås, Sverige]]></description>
        <Point><coordinates>16.5443,59.6099,0</coordinates></Point>
        <styleUrl>#icon-22</styleUrl>
      </Placemark>
      <Placemark>
        <name><![CDATA[Apoteket Vingen]]></name>
        <description><![CDATA[Apoteket Vingen, Västerås, Sverige]]></description>
        <Point><coordinates>16.5747,59.6094,0</coordinates></Point>
        <styleUrl>#icon-22</styleUrl>
      </Placemark>
      <Placemark>
        <name><![CDATA[Apoteket Renen]]></name>
        <description><![CDATA[Apoteket Renen, Sala, Sverige]]></description>
        <Point><coordinates>16.6051,59.9214,0</coordinates></Point>
        <styleUrl>#icon-22</styleUrl>
      </Placemark>
      <Placemark>
        <name><![CDATA[Apoteket Hälla]]></name>
        <description><![CDATA[Apoteket Hälla, Västerås, Sverige]]></description>
        <Point><coordinates>16.619149,59.608265,0</coordinates></Point>
        <styleUrl>#icon-22</styleUrl>
      </Placemark>
      <Placemark>
        <name><![CDATA[Apoteket Lejonet]]></name>
        <description><![CDATA[Apoteket Lejonet, Västervik, Sverige]]></description>
        <Point><coordinates>16.6339,57.7553,0</coordinates></Point>
        <styleUrl>#icon-22</styleUrl>
      </Placemark>
      <Placemark>
        <name><![CDATA[Apoteket Tullporten Västervik]]></name>
        <description><![CDATA[Apoteket Tullporten Västervik, Västervik, Sverige]]></description>
        <Point><coordinates>16.638987,57.758386,0</coordinates></Point>
        <styleUrl>#icon-22</styleUrl>
      </Placemark>
      <Placemark>
        <name><![CDATA[Apoteket Kronan]]></name>
        <description><![CDATA[Apoteket Kronan, Malmköping, Sverige]]></description>
        <Point><coordinates>16.7339,59.1344,0</coordinates></Point>
        <styleUrl>#icon-22</styleUrl>
      </Placemark>
      <Placemark>
        <name><![CDATA[Apoteket Valbo]]></name>
        <description><![CDATA[Apoteket Valbo, Valbo, Sverige]]></description>
        <Point><coordinates>16.9946,60.6336,0</coordinates></Point>
        <styleUrl>#icon-22</styleUrl>
      </Placemark>
      <Placemark>
        <name><![CDATA[Apoteket Axet]]></name>
        <description><![CDATA[Apoteket Axet, Nyköping, Sverige]]></description>
        <Point><coordinates>17.003611,58.751835,0</coordinates></Point>
        <styleUrl>#icon-22</styleUrl>
      </Placemark>
      <Placemark>
        <name><![CDATA[Apoteket Gripen]]></name>
        <description><![CDATA[Apoteket Gripen, Nyköping, Sverige]]></description>
        <Point><coordinates>17.00639,58.75248,0</coordinates></Point>
        <styleUrl>#icon-22</styleUrl>
      </Placemark>
      <Placemark>
        <name><![CDATA[Apoteket Laxen]]></name>
        <description><![CDATA[Apoteket Laxen, Matfors, Sverige]]></description>
        <Point><coordinates>17.0144,62.3486,0</coordinates></Point>
        <styleUrl>#icon-22</styleUrl>
      </Placemark>
      <Placemark>
        <name><![CDATA[Apoteket E-center Söderhamn]]></name>
        <description><![CDATA[Apoteket E-center Söderhamn, Söderhamn, Sverige]]></description>
        <Point><coordinates>17.020752,61.295581,0</coordinates></Point>
        <styleUrl>#icon-22</styleUrl>
      </Placemark>
      <Placemark>
        <name><![CDATA[Apoteket Mården]]></name>
        <description><![CDATA[Apoteket Mården, Bergby, Sverige]]></description>
        <Point><coordinates>17.0434,60.9288,0</coordinates></Point>
        <styleUrl>#icon-22</styleUrl>
      </Placemark>
      <Placemark>
        <name><![CDATA[Apoteket Björnen]]></name>
        <description><![CDATA[Apoteket Björnen, Bergsjö, Sverige]]></description>
        <Point><coordinates>17.0607,61.9845,0</coordinates></Point>
        <styleUrl>#icon-22</styleUrl>
      </Placemark>
      <Placemark>
        <name><![CDATA[Apoteket Ugglan]]></name>
        <description><![CDATA[Apoteket Ugglan, Enköping, Sverige]]></description>
        <Point><coordinates>17.0709,59.6299,0</coordinates></Point>
        <styleUrl>#icon-22</styleUrl>
      </Placemark>
      <Placemark>
        <name><![CDATA[Apoteket Rönnen]]></name>
        <description><![CDATA[Apoteket Rönnen, Iggesund, Sverige]]></description>
        <Point><coordinates>17.0752,61.645,0</coordinates></Point>
        <styleUrl>#icon-22</styleUrl>
      </Placemark>
      <Placemark>
        <name><![CDATA[Apoteket Stjärnan]]></name>
        <description><![CDATA[Apoteket Stjärnan, Hudiksvall, Sverige]]></description>
        <Point><coordinates>17.0986,61.7299,0</coordinates></Point>
        <styleUrl>#icon-22</styleUrl>
      </Placemark>
      <Placemark>
        <name><![CDATA[Apoteket Fyren]]></name>
        <description><![CDATA[Apoteket Fyren, Hudiksvall, Sverige]]></description>
        <Point><coordinates>17.10491,61.72714,0</coordinates></Point>
        <styleUrl>#icon-22</styleUrl>
      </Placemark>
      <Placemark>
        <name><![CDATA[Apoteket Syrenen]]></name>
        <description><![CDATA[Apoteket Syrenen, Gävle, Sverige]]></description>
        <Point><coordinates>17.1172,60.6777,0</coordinates></Point>
        <styleUrl>#icon-22</styleUrl>
      </Placemark>
      <Placemark>
        <name><![CDATA[Apoteket Bocken]]></name>
        <description><![CDATA[Apoteket Bocken, Gävle, Sverige]]></description>
        <Point><coordinates>17.141,60.674,0</coordinates></Point>
        <styleUrl>#icon-22</styleUrl>
      </Placemark>
      <Placemark>
        <name><![CDATA[Apoteket Drottninggatan Gävle]]></name>
        <description><![CDATA[Apoteket Drottninggatan Gävle, Gävle, Sverige]]></description>
        <Point><coordinates>17.142972,60.674352,0</coordinates></Point>
        <styleUrl>#icon-22</styleUrl>
      </Placemark>
      <Placemark>
        <name><![CDATA[Apoteket Lokatten]]></name>
        <description><![CDATA[Apoteket Lokatten, Harmånger, Sverige]]></description>
        <Point><coordinates>17.2194,61.9266,0</coordinates></Point>
        <styleUrl>#icon-22</styleUrl>
      </Placemark>
      <Placemark>
        <name><![CDATA[Apoteket Skärvsta]]></name>
        <description><![CDATA[Apoteket Skärvsta, Sollefteå, Sverige]]></description>
        <Point><coordinates>17.2357,63.1744,0</coordinates></Point>
        <styleUrl>#icon-22</styleUrl>
      </Placemark>
      <Placemark>
        <name><![CDATA[Apoteket Lejonet]]></name>
        <description><![CDATA[Apoteket Lejonet, Sundsvall, Sverige]]></description>
        <Point><coordinates>17.305161,62.391383,0</coordinates></Point>
        <styleUrl>#icon-22</styleUrl>
      </Placemark>
      <Placemark>
        <name><![CDATA[Apoteket Gripen]]></name>
        <description><![CDATA[Apoteket Gripen, Sundsvall, Sverige]]></description>
        <Point><coordinates>17.3106,62.391,0</coordinates></Point>
        <styleUrl>#icon-22</styleUrl>
      </Placemark>
      <Placemark>
        <name><![CDATA[Apoteket Timrå]]></name>
        <description><![CDATA[Apoteket Timrå, Timrå, Sverige]]></description>
        <Point><coordinates>17.3241,62.4867,0</coordinates></Point>
        <styleUrl>#icon-22</styleUrl>
      </Placemark>
      <Placemark>
        <name><![CDATA[Apoteket Birsta]]></name>
        <description><![CDATA[Apoteket Birsta, Sundsvall, Sverige]]></description>
        <Point><coordinates>17.33574,62.44713,0</coordinates></Point>
        <styleUrl>#icon-22</styleUrl>
      </Placemark>
      <Placemark>
        <name><![CDATA[Apoteket Centrumvägen Nykvarn]]></name>
        <description><![CDATA[Apoteket Centrumvägen Nykvarn, Nykvarn, Sverige]]></description>
        <Point><coordinates>17.4325,59.1774,0</coordinates></Point>
        <styleUrl>#icon-22</styleUrl>
      </Placemark>
      <Placemark>
        <name><![CDATA[Apoteket Örnen]]></name>
        <description><![CDATA[Apoteket Örnen, Tierp, Sverige]]></description>
        <Point><coordinates>17.5142,60.3369,0</coordinates></Point>
        <styleUrl>#icon-22</styleUrl>
      </Placemark>
      <Placemark>
        <name><![CDATA[Apoteket Vasa Södertälje]]></name>
        <description><![CDATA[Apoteket Vasa Södertälje, Södertälje, Sverige]]></description>
        <Point><coordinates>17.573569,59.187224,0</coordinates></Point>
        <styleUrl>#icon-22</styleUrl>
      </Placemark>
      <Placemark>
        <name><![CDATA[Apoteket S:ta Ragnhild]]></name>
        <description><![CDATA[Apoteket S:ta Ragnhild, Södertälje, Sverige]]></description>
        <Point><coordinates>17.628,59.196,0</coordinates></Point>
        <styleUrl>#icon-22</styleUrl>
      </Placemark>
      <Placemark>
        <name><![CDATA[Apoteket Kronan]]></name>
        <description><![CDATA[Apoteket Kronan, Uppsala, Sverige]]></description>
        <Point><coordinates>17.6368,59.8595,0</coordinates></Point>
        <styleUrl>#icon-22</styleUrl>
      </Placemark>
      <Placemark>
        <name><![CDATA[Apoteket S:t Per]]></name>
        <description><![CDATA[Apoteket S:t Per, Uppsala, Sverige]]></description>
        <Point><coordinates>17.6376,59.8598,0</coordinates></Point>
        <styleUrl>#icon-22</styleUrl>
      </Placemark>
      <Placemark>
        <name><![CDATA[Apoteket Forumkvarteret Uppsala]]></name>
        <description><![CDATA[Apoteket Forumkvarteret Uppsala, Uppsala, Sverige]]></description>
        <Point><coordinates>17.640226,59.857975,0</coordinates></Point>
        <styleUrl>#icon-22</styleUrl>
      </Placemark>
      <Placemark>
        <name><![CDATA[Apoteket Kungsgatan Uppsala]]></name>
        <description><![CDATA[Apoteket Kungsgatan Uppsala, Uppsala, Sverige]]></description>
        <Point><coordinates>17.658305,59.849459,0</coordinates></Point>
        <styleUrl>#icon-22</styleUrl>
      </Placemark>
      <Placemark>
        <name><![CDATA[Apoteket Boländerna]]></name>
        <description><![CDATA[Apoteket Boländerna, Uppsala, Sverige]]></description>
        <Point><coordinates>17.69284,59.8466,0</coordinates></Point>
        <styleUrl>#icon-22</styleUrl>
      </Placemark>
      <Placemark>
        <name><![CDATA[Apoteket Röllekan]]></name>
        <description><![CDATA[Apoteket Röllekan, Uppsala, Sverige]]></description>
        <Point><coordinates>17.7025,59.8101,0</coordinates></Point>
        <styleUrl>#icon-22</styleUrl>
      </Placemark>
      <Placemark>
        <name><![CDATA[Apoteket Myran]]></name>
        <description><![CDATA[Apoteket Myran, Nyland, Sverige]]></description>
        <Point><coordinates>17.7644,63.0063,0</coordinates></Point>
        <styleUrl>#icon-22</styleUrl>
      </Placemark>
      <Placemark>
        <name><![CDATA[Apoteket Stenbocken]]></name>
        <description><![CDATA[Apoteket Stenbocken, Järfälla, Sverige]]></description>
        <Point><coordinates>17.8025,59.4116,0</coordinates></Point>
        <styleUrl>#icon-22</styleUrl>
      </Placemark>
      <Placemark>
        <name><![CDATA[Apoteket Tidlösan]]></name>
        <description><![CDATA[Apoteket Tidlösan, Ekerö, Sverige]]></description>
        <Point><coordinates>17.811666,59.290379,0</coordinates></Point>
        <styleUrl>#icon-22</styleUrl>
      </Placemark>
      <Placemark>
        <name><![CDATA[Apoteket Källan]]></name>
        <description><![CDATA[Apoteket Källan, Norsborg, Sverige]]></description>
        <Point><coordinates>17.827,59.2448,0</coordinates></Point>
        <styleUrl>#icon-22</styleUrl>
      </Placemark>
      <Placemark>
        <name><![CDATA[Apoteket Jakobsberg Centrum]]></name>
        <description><![CDATA[Apoteket Jakobsberg Centrum, Järfälla, Sverige]]></description>
        <Point><coordinates>17.8366,59.4233,0</coordinates></Point>
        <styleUrl>#icon-22</styleUrl>
      </Placemark>
      <Placemark>
        <name><![CDATA[Apoteket Malvan]]></name>
        <description><![CDATA[Apoteket Malvan, Vällingby, Sverige]]></description>
        <Point><coordinates>17.87167,59.364,0</coordinates></Point>
        <styleUrl>#icon-22</styleUrl>
      </Placemark>
      <Placemark>
        <name><![CDATA[Apoteket Pelikanen]]></name>
        <description><![CDATA[Apoteket Pelikanen, Spånga, Sverige]]></description>
        <Point><coordinates>17.8974,59.3825,0</coordinates></Point>
        <styleUrl>#icon-22</styleUrl>
      </Placemark>
      <Placemark>
        <name><![CDATA[Apoteket Flamingon]]></name>
        <description><![CDATA[Apoteket Flamingon, Skärholmen, Sverige]]></description>
        <Point><coordinates>17.9083,59.2766,0</coordinates></Point>
        <styleUrl>#icon-22</styleUrl>
      </Placemark>
      <Placemark>
        <name><![CDATA[Apoteket Tigern]]></name>
        <description><![CDATA[Apoteket Tigern, Sollentuna, Sverige]]></description>
        <Point><coordinates>17.9159,59.4713,0</coordinates></Point>
        <styleUrl>#icon-22</styleUrl>
      </Placemark>
      <Placemark>
        <name><![CDATA[Apoteket Kungens kurva]]></name>
        <description><![CDATA[Apoteket Kungens kurva, Kungens Kurva, Sverige]]></description>
        <Point><coordinates>17.92491,59.2668,0</coordinates></Point>
        <styleUrl>#icon-22</styleUrl>
      </Placemark>
      <Placemark>
        <name><![CDATA[Apoteket Ankaret]]></name>
        <description><![CDATA[Apoteket Ankaret, Härnösand, Sverige]]></description>
        <Point><coordinates>17.925113,62.635295,0</coordinates></Point>
        <styleUrl>#icon-22</styleUrl>
      </Placemark>
      <Placemark>
        <name><![CDATA[Apoteket Häggvik]]></name>
        <description><![CDATA[Apoteket Häggvik, Sollentuna, Sverige]]></description>
        <Point><coordinates>17.932071,59.440989,0</coordinates></Point>
        <styleUrl>#icon-22</styleUrl>
      </Placemark>
      <Placemark>
        <name><![CDATA[Apoteket Spoven]]></name>
        <description><![CDATA[Apoteket Spoven, Skärholmen, Sverige]]></description>
        <Point><coordinates>17.9344,59.2952,0</coordinates></Point>
        <styleUrl>#icon-22</styleUrl>
      </Placemark>
      <Placemark>
        <name><![CDATA[Apoteket Nova Huddinge Sjukhus]]></name>
        <description><![CDATA[Apoteket Nova Huddinge Sjukhus, Huddinge, Sverige]]></description>
        <Point><coordinates>17.9365,59.2214,0</coordinates></Point>
        <styleUrl>#icon-22</styleUrl>
      </Placemark>
      <Placemark>
        <name><![CDATA[Apoteket Duvan]]></name>
        <description><![CDATA[Apoteket Duvan, Bromma, Sverige]]></description>
        <Point><coordinates>17.9399,59.3388,0</coordinates></Point>
        <styleUrl>#icon-22</styleUrl>
      </Placemark>
      <Placemark>
        <name><![CDATA[Apoteket Kista Galleria]]></name>
        <description><![CDATA[Apoteket Kista Galleria, Kista, Sverige]]></description>
        <Point><coordinates>17.9443,59.40329,0</coordinates></Point>
        <styleUrl>#icon-22</styleUrl>
      </Placemark>
      <Placemark>
        <name><![CDATA[Apoteket Fruängstorget Hägersten]]></name>
        <description><![CDATA[Apoteket Fruängstorget Hägersten, Hägersten, Sverige]]></description>
        <Point><coordinates>17.9638,59.2861,0</coordinates></Point>
        <styleUrl>#icon-22</styleUrl>
      </Placemark>
      <Placemark>
        <name><![CDATA[Apoteket Sturegatan Sundbyberg]]></name>
        <description><![CDATA[Apoteket Sturegatan Sundbyberg, Sundbyberg, Sverige]]></description>
        <Point><coordinates>17.969408,59.362798,0</coordinates></Point>
        <styleUrl>#icon-22</styleUrl>
      </Placemark>
      <Placemark>
        <name><![CDATA[Apoteket Gasellen]]></name>
        <description><![CDATA[Apoteket Gasellen, Hägersten, Sverige]]></description>
        <Point><coordinates>17.9749,59.3039,0</coordinates></Point>
        <styleUrl>#icon-22</styleUrl>
      </Placemark>
      <Placemark>
        <name><![CDATA[Apoteket Ulven]]></name>
        <description><![CDATA[Apoteket Ulven, Solna, Sverige]]></description>
        <Point><coordinates>17.9864,59.3501,0</coordinates></Point>
        <styleUrl>#icon-22</styleUrl>
      </Placemark>
      <Placemark>
        <name><![CDATA[Apoteket Solen]]></name>
        <description><![CDATA[Apoteket Solen, Solna, Sverige]]></description>
        <Point><coordinates>18.0005,59.36,0</coordinates></Point>
        <styleUrl>#icon-22</styleUrl>
      </Placemark>
      <Placemark>
        <name><![CDATA[Apoteket Mall of Scandinavia]]></name>
        <description><![CDATA[Apoteket Mall of Scandinavia, Solna, Sverige]]></description>
        <Point><coordinates>18.001184,59.371998,0</coordinates></Point>
        <styleUrl>#icon-22</styleUrl>
      </Placemark>
      <Placemark>
        <name><![CDATA[Apoteket Älvsjö Torg]]></name>
        <description><![CDATA[Apoteket Älvsjö Torg, Älvsjö, Sverige]]></description>
        <Point><coordinates>18.008941,59.278615,0</coordinates></Point>
        <styleUrl>#icon-22</styleUrl>
      </Placemark>
      <Placemark>
        <name><![CDATA[Apoteket Morkullan]]></name>
        <description><![CDATA[Apoteket Morkullan, Bandhagen, Sverige]]></description>
        <Point><coordinates>18.01481,59.26218,0</coordinates></Point>
        <styleUrl>#icon-22</styleUrl>
      </Placemark>
      <Placemark>
        <name><![CDATA[Apoteket Biet]]></name>
        <description><![CDATA[Apoteket Biet, Stockholm, Sverige]]></description>
        <Point><coordinates>18.016,59.3287,0</coordinates></Point>
        <styleUrl>#icon-22</styleUrl>
      </Placemark>
      <Placemark>
        <name><![CDATA[Apoteket Karolinska Universitetssjukhuset Solna]]></name>
        <description><![CDATA[Apoteket Karolinska Universitetssjukhuset Solna, Solna, Sverige]]></description>
        <Point><coordinates>18.029687,59.348378,0</coordinates></Point>
        <styleUrl>#icon-22</styleUrl>
      </Placemark>
      <Placemark>
        <name><![CDATA[Apoteket Kungsmyntan]]></name>
        <description><![CDATA[Apoteket Kungsmyntan, Stockholm, Sverige]]></description>
        <Point><coordinates>18.0305,59.3324,0</coordinates></Point>
        <styleUrl>#icon-22</styleUrl>
      </Placemark>
      <Placemark>
        <name><![CDATA[Apoteket Västermalm]]></name>
        <description><![CDATA[Apoteket Västermalm, Stockholm, Sverige]]></description>
        <Point><coordinates>18.0323,59.3347,0</coordinates></Point>
        <styleUrl>#icon-22</styleUrl>
      </Placemark>
      <Placemark>
        <name><![CDATA[Apoteket Eken]]></name>
        <description><![CDATA[Apoteket Eken, Danderyd, Sverige]]></description>
        <Point><coordinates>18.0368,59.3979,0</coordinates></Point>
        <styleUrl>#icon-22</styleUrl>
      </Placemark>
      <Placemark>
        <name><![CDATA[Apoteket Odengatan Stockholm]]></name>
        <description><![CDATA[Apoteket Odengatan Stockholm, Stockholm, Sverige]]></description>
        <Point><coordinates>18.057393,59.344745,0</coordinates></Point>
        <styleUrl>#icon-22</styleUrl>
      </Placemark>
      <Placemark>
        <name><![CDATA[Apoteket Hornsgatan 49 Stockholm]]></name>
        <description><![CDATA[Apoteket Hornsgatan 49 Stockholm, Stockholm, Sverige]]></description>
        <Point><coordinates>18.057577,59.318139,0</coordinates></Point>
        <styleUrl>#icon-22</styleUrl>
      </Placemark>
      <Placemark>
        <name><![CDATA[Apoteket Shop]]></name>
        <description><![CDATA[Apoteket Shop, Stockholm, Sverige]]></description>
        <Point><coordinates>18.057594,59.334,0</coordinates></Point>
        <styleUrl>#icon-22</styleUrl>
      </Placemark>
      <Placemark>
        <name><![CDATA[Apoteket C W Scheele]]></name>
        <description><![CDATA[Apoteket C W Scheele, Stockholm, Sverige]]></description>
        <Point><coordinates>18.0597,59.3319,0</coordinates></Point>
        <styleUrl>#icon-22</styleUrl>
      </Placemark>
      <Placemark>
        <name><![CDATA[Apoteket Ugglan]]></name>
        <description><![CDATA[Apoteket Ugglan, Stockholm, Sverige]]></description>
        <Point><coordinates>18.061,59.334,0</coordinates></Point>
        <styleUrl>#icon-22</styleUrl>
      </Placemark>
      <Placemark>
        <name><![CDATA[Apoteket Tussilagon]]></name>
        <description><![CDATA[Apoteket Tussilagon, Enskede, Sverige]]></description>
        <Point><coordinates>18.0655,59.2783,0</coordinates></Point>
        <styleUrl>#icon-22</styleUrl>
      </Placemark>
      <Placemark>
        <name><![CDATA[Apoteket Sergel]]></name>
        <description><![CDATA[Apoteket Sergel, Stockholm, Sverige]]></description>
        <Point><coordinates>18.0668,59.3325,0</coordinates></Point>
        <styleUrl>#icon-22</styleUrl>
      </Placemark>
      <Placemark>
        <name><![CDATA[Apoteket Orion]]></name>
        <description><![CDATA[Apoteket Orion, Täby, Sverige]]></description>
        <Point><coordinates>18.0669,59.4444,0</coordinates></Point>
        <styleUrl>#icon-22</styleUrl>
      </Placemark>
      <Placemark>
        <name><![CDATA[Apoteket Korpen]]></name>
        <description><![CDATA[Apoteket Korpen, Stockholm, Sverige]]></description>
        <Point><coordinates>18.068808,59.325626,0</coordinates></Point>
        <styleUrl>#icon-22</styleUrl>
      </Placemark>
      <Placemark>
        <name><![CDATA[Apoteket PK-huset]]></name>
        <description><![CDATA[Apoteket PK-huset, Stockholm, Sverige]]></description>
        <Point><coordinates>18.0712,59.333,0</coordinates></Point>
        <styleUrl>#icon-22</styleUrl>
      </Placemark>
      <Placemark>
        <name><![CDATA[Apoteket Täby Centrum]]></name>
        <description><![CDATA[Apoteket Täby Centrum, Täby, Sverige]]></description>
        <Point><coordinates>18.0718,59.4446,0</coordinates></Point>
        <styleUrl>#icon-22</styleUrl>
      </Placemark>
      <Placemark>
        <name><![CDATA[Apoteket Götgatsbacken]]></name>
        <description><![CDATA[Apoteket Götgatsbacken, Stockholm, Sverige]]></description>
        <Point><coordinates>18.0718,59.3174,0</coordinates></Point>
        <styleUrl>#icon-22</styleUrl>
      </Placemark>
      <Placemark>
        <name><![CDATA[Apoteket Vita Björn]]></name>
        <description><![CDATA[Apoteket Vita Björn, Stockholm, Sverige]]></description>
        <Point><coordinates>18.0753,59.33637,0</coordinates></Point>
        <styleUrl>#icon-22</styleUrl>
      </Placemark>
      <Placemark>
        <name><![CDATA[Apoteket Björnen]]></name>
        <description><![CDATA[Apoteket Björnen, Stockholm, Sverige]]></description>
        <Point><coordinates>18.07534,59.31459,0</coordinates></Point>
        <styleUrl>#icon-22</styleUrl>
      </Placemark>
      <Placemark>
        <name><![CDATA[Apoteket Fenix]]></name>
        <description><![CDATA[Apoteket Fenix, Stockholm, Sverige]]></description>
        <Point><coordinates>18.07546,59.31113,0</coordinates></Point>
        <styleUrl>#icon-22</styleUrl>
      </Placemark>
      <Placemark>
        <name><![CDATA[Apoteket Elefanten]]></name>
        <description><![CDATA[Apoteket Elefanten, Stockholm, Sverige]]></description>
        <Point><coordinates>18.0768,59.3365,0</coordinates></Point>
        <styleUrl>#icon-22</styleUrl>
      </Placemark>
      <Placemark>
        <name><![CDATA[Apoteket Express Gullmarsplan Stockholm]]></name>
        <description><![CDATA[Apoteket Express Gullmarsplan Stockholm, Johanneshov, Sverige]]></description>
        <Point><coordinates>18.081249,59.299245,0</coordinates></Point>
        <styleUrl>#icon-22</styleUrl>
      </Placemark>
      <Placemark>
        <name><![CDATA[Apoteket Globen]]></name>
        <description><![CDATA[Apoteket Globen, Johanneshov, Sverige]]></description>
        <Point><coordinates>18.0814,59.2932,0</coordinates></Point>
        <styleUrl>#icon-22</styleUrl>
      </Placemark>
      <Placemark>
        <name><![CDATA[Apoteket Storken]]></name>
        <description><![CDATA[Apoteket Storken, Stockholm, Sverige]]></description>
        <Point><coordinates>18.087,59.3343,0</coordinates></Point>
        <styleUrl>#icon-22</styleUrl>
      </Placemark>
      <Placemark>
        <name><![CDATA[Apoteket Farsta centrum]]></name>
        <description><![CDATA[Apoteket Farsta centrum, Farsta, Sverige]]></description>
        <Point><coordinates>18.089504,59.242844,0</coordinates></Point>
        <styleUrl>#icon-22</styleUrl>
      </Placemark>
      <Placemark>
        <name><![CDATA[Apoteket Falken]]></name>
        <description><![CDATA[Apoteket Falken, Stockholm, Sverige]]></description>
        <Point><coordinates>18.0917,59.3399,0</coordinates></Point>
        <styleUrl>#icon-22</styleUrl>
      </Placemark>
      <Placemark>
        <name><![CDATA[Apoteket Hinden]]></name>
        <description><![CDATA[Apoteket Hinden, Johanneshov, Sverige]]></description>
        <Point><coordinates>18.0998,59.2954,0</coordinates></Point>
        <styleUrl>#icon-22</styleUrl>
      </Placemark>
      <Placemark>
        <name><![CDATA[Apoteket Sjöhästen]]></name>
        <description><![CDATA[Apoteket Sjöhästen, Västerhaninge, Sverige]]></description>
        <Point><coordinates>18.1051,59.1229,0</coordinates></Point>
        <styleUrl>#icon-22</styleUrl>
      </Placemark>
      <Placemark>
        <name><![CDATA[Apoteket Myrten]]></name>
        <description><![CDATA[Apoteket Myrten, Bredbyn, Sverige]]></description>
        <Point><coordinates>18.1094,63.4478,0</coordinates></Point>
        <styleUrl>#icon-22</styleUrl>
      </Placemark>
      <Placemark>
        <name><![CDATA[Apoteket Viggen]]></name>
        <description><![CDATA[Apoteket Viggen, Lidingö, Sverige]]></description>
        <Point><coordinates>18.1232,59.3631,0</coordinates></Point>
        <styleUrl>#icon-22</styleUrl>
      </Placemark>
      <Placemark>
        <name><![CDATA[Apoteket Hästhoven]]></name>
        <description><![CDATA[Apoteket Hästhoven, Täby, Sverige]]></description>
        <Point><coordinates>18.1345,59.46274,0</coordinates></Point>
        <styleUrl>#icon-22</styleUrl>
      </Placemark>
      <Placemark>
        <name><![CDATA[Apoteket Arninge station]]></name>
        <description><![CDATA[Apoteket Arninge station, Täby, Sverige]]></description>
        <Point><coordinates>18.138428,59.459645,0</coordinates></Point>
        <styleUrl>#icon-22</styleUrl>
      </Placemark>
      <Placemark>
        <name><![CDATA[Apoteket Linnéan]]></name>
        <description><![CDATA[Apoteket Linnéan, Skogås, Sverige]]></description>
        <Point><coordinates>18.154,59.218,0</coordinates></Point>
        <styleUrl>#icon-22</styleUrl>
      </Placemark>
      <Placemark>
        <name><![CDATA[Apoteket Svanen]]></name>
        <description><![CDATA[Apoteket Svanen, Nacka, Sverige]]></description>
        <Point><coordinates>18.1644,59.3094,0</coordinates></Point>
        <styleUrl>#icon-22</styleUrl>
      </Placemark>
      <Placemark>
        <name><![CDATA[Apoteket Sparvugglan]]></name>
        <description><![CDATA[Apoteket Sparvugglan, Brandbergen, Sverige]]></description>
        <Point><coordinates>18.169703,59.172229,0</coordinates></Point>
        <styleUrl>#icon-22</styleUrl>
      </Placemark>
      <Placemark>
        <name><![CDATA[Apoteket Biet]]></name>
        <description><![CDATA[Apoteket Biet, Gimo, Sverige]]></description>
        <Point><coordinates>18.1852,60.1725,0</coordinates></Point>
        <styleUrl>#icon-22</styleUrl>
      </Placemark>
      <Placemark>
        <name><![CDATA[Apoteket Strandskatan]]></name>
        <description><![CDATA[Apoteket Strandskatan, Visby, Sverige]]></description>
        <Point><coordinates>18.300628,57.648016,0</coordinates></Point>
        <styleUrl>#icon-22</styleUrl>
      </Placemark>