<?xml version="1.0" encoding="UTF-8"?>
<kml xmlns="http://www.opengis.net/kml/2.2">
  <Document>
    <name><![CDATA[Bankomat]]></name>
    <description/>
    <Style id="icon-22-normal"><IconStyle><scale>1.1</scale><Icon><href>https://www.gstatic.com/mapspro/images/stock/22-blue-dot.png</href></Icon><hotSpot x="16" xunits="pixels" y="32" yunits="insetPixels"/></IconStyle><LabelStyle><scale>0</scale></LabelStyle></Style>
    <Style id="icon-22-highlight"><IconStyle><scale>1.1</scale><Icon><href>https://www.gstatic.com/mapspro/images/stock/22-blue-dot.png</href></Icon><hotSpot x="16" xunits="pixels" y="32" yunits="insetPixels"/></IconStyle><LabelStyle><scale>1.1</scale></LabelStyle></Style>
    <StyleMap id="icon-22"><Pair><key>normal</key><styleUrl>#icon-22-normal</styleUrl></Pair><Pair><key>highlight</key><styleUrl>#icon-22-highlight</styleUrl></Pair></StyleMap>
    <Folder>
      <name><![CDATA[Bankomat]]></name>
      <Placemark>
        <name><![CDATA[Bankomat - Västra Klevgatan 2]]></name>
        <description><![CDATA[Bankomat - Västra Klevgatan 2, Strömstad]]></description>
        <Point><coordinates>11.1708,58.9386,0</coordinates></Point>
        <styleUrl>#icon-22</styleUrl>
      </Placemark>
      <Placemark>
        <name><![CDATA[Bankomat - Västra Klevgatan 2]]></name>
        <description><![CDATA[Bankomat - Västra Klevgatan 2, Strömstad]]></description>
        <Point><coordinates>11.1708,58.9386,0</coordinates></Point>
        <styleUrl>#icon-22</styleUrl>
      </Placemark>
      <Placemark>
        <name><![CDATA[Bankomat - Nordby västra köpcentrum]]></name>
        <description><![CDATA[Bankomat - Nordby västra köpcentrum, Strömstad]]></description>
        <Point><coordinates>11.20841,59.06387,0</coordinates></Point>
        <styleUrl>#icon-22</styleUrl>
      </Placemark>
      <Placemark>
        <name><![CDATA[Bankomat - SEB]]></name>
        <description><![CDATA[Bankomat - SEB, Kungshamn]]></description>
        <Point><coordinates>11.24869,58.36033,0</coordinates></Point>
        <styleUrl>#icon-22</styleUrl>
      </Placemark>
      <Placemark>
        <name><![CDATA[Bankomat - Nedre långgatan 14]]></name>
        <description><![CDATA[Bankomat - Nedre långgatan 14, Grebbestad]]></description>
        <Point><coordinates>11.25564,58.69178,0</coordinates></Point>
        <styleUrl>#icon-22</styleUrl>
      </Placemark>
      <Placemark>
        <name><![CDATA[Bankomat - Postvägen 2]]></name>
        <description><![CDATA[Bankomat - Postvägen 2, Hamburgsund]]></description>
        <Point><coordinates>11.27166,58.55196,0</coordinates></Point>
        <styleUrl>#icon-22</styleUrl>
      </Placemark>
      <Placemark>
        <name><![CDATA[Bankomat - Kyrkvägen 1]]></name>
        <description><![CDATA[Bankomat - Kyrkvägen 1, Fjällbacka]]></description>
        <Point><coordinates>11.28427,58.59886,0</coordinates></Point>
        <styleUrl>#icon-22</styleUrl>
      </Placemark>
      <Placemark>
        <name><![CDATA[Bankomat - Skolgatan 1]]></name>
        <description><![CDATA[Bankomat - Skolgatan 1, Hunnebostrand]]></description>
        <Point><coordinates>11.30415,58.4405,0</coordinates></Point>
        <styleUrl>#icon-22</styleUrl>
      </Placemark>
      <Placemark>
        <name><![CDATA[Bankomat - ICA]]></name>
        <description><![CDATA[Bankomat - ICA, Tanumshede]]></description>
        <Point><coordinates>11.32465,58.72467,0</coordinates></Point>
        <styleUrl>#icon-22</styleUrl>
      </Placemark>
      <Placemark>
        <name><![CDATA[Bankomat - Drottninggatan 42]]></name>
        <description><![CDATA[Bankomat - Drottninggatan 42, Lysekil]]></description>
        <Point><coordinates>11.43512,58.27277,0</coordinates></Point>
        <styleUrl>#icon-22</styleUrl>
      </Placemark>
      <Placemark>
        <name><![CDATA[Bankomat - Drottninggatan 42]]></name>
        <description><![CDATA[Bankomat - Drottninggatan 42, Lysekil]]></description>
        <Point><coordinates>11.43512,58.27277,0</coordinates></Point>
        <styleUrl>#icon-22</styleUrl>
      </Placemark>
      <Placemark>
        <name><![CDATA[Bankomat - Edebacken 1]]></name>
        <description><![CDATA[Bankomat - Edebacken 1, Ellös]]></description>
        <Point><coordinates>11.46722,58.18233,0</coordinates></Point>
        <styleUrl>#icon-22</styleUrl>
      </Placemark>
      <Placemark>
        <name><![CDATA[Bankomat - Coop]]></name>
        <description><![CDATA[Bankomat - Coop, Brastad]]></description>
        <Point><coordinates>11.48545,58.38092,0</coordinates></Point>
        <styleUrl>#icon-22</styleUrl>
      </Placemark>
      <Placemark>
        <name><![CDATA[Bankomat - Hamngatan 54]]></name>
        <description><![CDATA[Bankomat - Hamngatan 54, Skärhamn]]></description>
        <Point><coordinates>11.54912,57.98646,0</coordinates></Point>
        <styleUrl>#icon-22</styleUrl>
      </Placemark>
      <Placemark>
        <name><![CDATA[Bankomat - Ringplan 1]]></name>
        <description><![CDATA[Bankomat - Ringplan 1, Marstrand]]></description>
        <Point><coordinates>11.58868,57.88739,0</coordinates></Point>
        <styleUrl>#icon-22</styleUrl>
      </Placemark>
      <Placemark>
        <name><![CDATA[Bankomat - SEB]]></name>
        <description><![CDATA[Bankomat - SEB, Hönö]]></description>
        <Point><coordinates>11.6507,57.69653,0</coordinates></Point>
        <styleUrl>#icon-22</styleUrl>
      </Placemark>
      <Placemark>
        <name><![CDATA[Bankomat - Börshuset Öckerö Hamn]]></name>
        <description><![CDATA[Bankomat - Börshuset Öckerö Hamn, Öckerö]]></description>
        <Point><coordinates>11.65512,57.70797,0</coordinates></Point>
        <styleUrl>#icon-22</styleUrl>
      </Placemark>
      <Placemark>
        <name><![CDATA[Bankomat - Svenborgsvägen 1]]></name>
        <description><![CDATA[Bankomat - Svenborgsvägen 1, Kållekärr]]></description>
        <Point><coordinates>11.66037,58.02502,0</coordinates></Point>
        <styleUrl>#icon-22</styleUrl>
      </Placemark>
      <Placemark>
        <name><![CDATA[Bankomat - Centrumvägen 28]]></name>
        <description><![CDATA[Bankomat - Centrumvägen 28, Munkedal]]></description>
        <Point><coordinates>11.67333,58.46687,0</coordinates></Point>
        <styleUrl>#icon-22</styleUrl>
      </Placemark>
      <Placemark>
        <name><![CDATA[Bankomat - Hamntorget 12]]></name>
        <description><![CDATA[Bankomat - Hamntorget 12, Henån]]></description>
        <Point><coordinates>11.67917,58.23745,0</coordinates></Point>
        <styleUrl>#icon-22</styleUrl>
      </Placemark>
      <Placemark>
        <name><![CDATA[Bankomat - Hamntorget 12]]></name>
        <description><![CDATA[Bankomat - Hamntorget 12, Henån]]></description>
        <Point><coordinates>11.67917,58.23745,0</coordinates></Point>
        <styleUrl>#icon-22</styleUrl>
      </Placemark>
      <Placemark>
        <name><![CDATA[Bankomat - Hedströms väg 1]]></name>
        <description><![CDATA[Bankomat - Hedströms väg 1, Varekil]]></description>
        <Point><coordinates>11.71553,58.12576,0</coordinates></Point>
        <styleUrl>#icon-22</styleUrl>
      </Placemark>
      <Placemark>
        <name><![CDATA[Bankomat - Centrumhuset]]></name>
        <description><![CDATA[Bankomat - Centrumhuset, Myggenäs]]></description>
        <Point><coordinates>11.75207,58.06165,0</coordinates></Point>
        <styleUrl>#icon-22</styleUrl>
      </Placemark>
      <Placemark>
        <name><![CDATA[Bankomat - Gamla flygplatsvägen 44]]></name>
        <description><![CDATA[Bankomat - Gamla flygplatsvägen 44, Torslanda]]></description>
        <Point><coordinates>11.77398,57.70993,0</coordinates></Point>
        <styleUrl>#icon-22</styleUrl>
      </Placemark>
      <Placemark>
        <name><![CDATA[Bankomat - Gamla flygplatsvägen 4]]></name>
        <description><![CDATA[Bankomat - Gamla flygplatsvägen 4, Torslanda]]></description>
        <Point><coordinates>11.78331,57.71339,0</coordinates></Point>
        <styleUrl>#icon-22</styleUrl>
      </Placemark>
      <Placemark>
        <name><![CDATA[Bankomat - Torp köpcentrum]]></name>
        <description><![CDATA[Bankomat - Torp köpcentrum, Uddevalla]]></description>
        <Point><coordinates>11.80575,58.35254,0</coordinates></Point>
        <styleUrl>#icon-22</styleUrl>
      </Placemark>
      <Placemark>
        <name><![CDATA[Bankomat - Mellan Sandbergs Plats och kajen]]></name>
        <description><![CDATA[Bankomat - Mellan Sandbergs Plats och kajen, Stenungsund]]></description>
        <Point><coordinates>11.81707,58.06936,0</coordinates></Point>
        <styleUrl>#icon-22</styleUrl>
      </Placemark>
      <Placemark>
        <name><![CDATA[Bankomat - Mellan Sandbergs Plats och kajen]]></name>
        <description><![CDATA[Bankomat - Mellan Sandbergs Plats och kajen, Stenungsund]]></description>
        <Point><coordinates>11.81707,58.06936,0</coordinates></Point>
        <styleUrl>#icon-22</styleUrl>
      </Placemark>
      <Placemark>
        <name><![CDATA[Bankomat - Centrumhuset]]></name>
        <description><![CDATA[Bankomat - Centrumhuset, Svanesund]]></description>
        <Point><coordinates>11.82017,58.14263,0</coordinates></Point>
        <styleUrl>#icon-22</styleUrl>
      </Placemark>
      <Placemark>
        <name><![CDATA[Bankomat - Sveavägen 18]]></name>
        <description><![CDATA[Bankomat - Sveavägen 18, Töcksfors]]></description>
        <Point><coordinates>11.83874,59.5084,0</coordinates></Point>
        <styleUrl>#icon-22</styleUrl>
      </Placemark>
      <Placemark>
        <name><![CDATA[Bankomat - Västtrafiks terminal]]></name>
        <description><![CDATA[Bankomat - Västtrafiks terminal, Västra frölunda]]></description>
        <Point><coordinates>11.84311,57.6609,0</coordinates></Point>
        <styleUrl>#icon-22</styleUrl>
      </Placemark>
      <Placemark>
        <name><![CDATA[Bankomat - Töcksfors shoppingcenter]]></name>
        <description><![CDATA[Bankomat - Töcksfors shoppingcenter, Töcksfors]]></description>
        <Point><coordinates>11.84479,59.50645,0</coordinates></Point>
        <styleUrl>#icon-22</styleUrl>
      </Placemark>
      <Placemark>
        <name><![CDATA[Bankomat - Vårväderstorget 6]]></name>
        <description><![CDATA[Bankomat - Vårväderstorget 6, Göteborg]]></description>
        <Point><coordinates>11.89207,57.71283,0</coordinates></Point>
        <styleUrl>#icon-22</styleUrl>
      </Placemark>
      <Placemark>
        <name><![CDATA[Bankomat - Vårväderstorget 1]]></name>
        <description><![CDATA[Bankomat - Vårväderstorget 1, Göteborg]]></description>
        <Point><coordinates>11.89228,57.71278,0</coordinates></Point>
        <styleUrl>#icon-22</styleUrl>
      </Placemark>
      <Placemark>
        <name><![CDATA[Bankomat - Friskväderstorget 2]]></name>
        <description><![CDATA[Bankomat - Friskväderstorget 2, Göteborg]]></description>
        <Point><coordinates>11.89251,57.72374,0</coordinates></Point>
        <styleUrl>#icon-22</styleUrl>
      </Placemark>
      <Placemark>
        <name><![CDATA[Bankomat - Frölunda torg, nedre plan vid utgång till spårvagnar]]></name>
        <description><![CDATA[Bankomat - Frölunda torg, nedre plan vid utgång till spårvagnar, Västra frölunda]]></description>
        <Point><coordinates>11.91176,57.65229,0</coordinates></Point>
        <styleUrl>#icon-22</styleUrl>
      </Placemark>
      <Placemark>
        <name><![CDATA[Bankomat - Frölunda torg, nedre plan vid utgång till spårvagnar]]></name>
        <description><![CDATA[Bankomat - Frölunda torg, nedre plan vid utgång till spårvagnar, Västra frölunda]]></description>
        <Point><coordinates>11.91176,57.65229,0</coordinates></Point>
        <styleUrl>#icon-22</styleUrl>
      </Placemark>
      <Placemark>
        <name><![CDATA[Bankomat - Frölunda torg, nedre plan vid utgång till spårvagnar]]></name>
        <description><![CDATA[Bankomat - Frölunda torg, nedre plan vid utgång till spårvagnar, Västra frölunda]]></description>
        <Point><coordinates>11.91176,57.65229,0</coordinates></Point>
        <styleUrl>#icon-22</styleUrl>
      </Placemark>
      <Placemark>
        <name><![CDATA[Bankomat - Frölunda torg, nedre plan vid utgång till spårvagnar]]></name>
        <description><![CDATA[Bankomat - Frölunda torg, nedre plan vid utgång till spårvagnar, Västra frölunda]]></description>
        <Point><coordinates>11.91176,57.65229,0</coordinates></Point>
        <styleUrl>#icon-22</styleUrl>
      </Placemark>
      <Placemark>
        <name><![CDATA[Bankomat - Frölunda torg]]></name>
        <description><![CDATA[Bankomat - Frölunda torg, Västra frölunda]]></description>
        <Point><coordinates>11.91313,57.65249,0</coordinates></Point>
        <styleUrl>#icon-22</styleUrl>
      </Placemark>
      <Placemark>
        <name><![CDATA[Bankomat - Skogslyckan]]></name>
        <description><![CDATA[Bankomat - Skogslyckan, Uddevalla]]></description>
        <Point><coordinates>11.915,58.36117,0</coordinates></Point>
        <styleUrl>#icon-22</styleUrl>
      </Placemark>
      <Placemark>
        <name><![CDATA[Bankomat - Topasgatan 1]]></name>
        <description><![CDATA[Bankomat - Topasgatan 1, Västra frölunda]]></description>
        <Point><coordinates>11.91633,57.64605,0</coordinates></Point>
        <styleUrl>#icon-22</styleUrl>
      </Placemark>
      <Placemark>
        <name><![CDATA[Bankomat - Majorna]]></name>
        <description><![CDATA[Bankomat - Majorna, Göteborg]]></description>
        <Point><coordinates>11.91892,57.69438,0</coordinates></Point>
        <styleUrl>#icon-22</styleUrl>
      </Placemark>
      <Placemark>
        <name><![CDATA[Bankomat - Vällebergsvägen 12]]></name>
        <description><![CDATA[Bankomat - Vällebergsvägen 12, Ljungskile]]></description>
        <Point><coordinates>11.92037,58.2242,0</coordinates></Point>
        <styleUrl>#icon-22</styleUrl>
      </Placemark>
      <Placemark>
        <name><![CDATA[Bankomat - Kolhamnsgatan 5]]></name>
        <description><![CDATA[Bankomat - Kolhamnsgatan 5, Göteborg]]></description>
        <Point><coordinates>11.92041,57.70908,0</coordinates></Point>
        <styleUrl>#icon-22</styleUrl>
      </Placemark>
      <Placemark>
        <name><![CDATA[Bankomat - Mariaplan 5]]></name>
        <description><![CDATA[Bankomat - Mariaplan 5, Göteborg]]></description>
        <Point><coordinates>11.92164,57.68746,0</coordinates></Point>
        <styleUrl>#icon-22</styleUrl>
      </Placemark>
      <Placemark>
        <name><![CDATA[Bankomat - Volvo, B-porten]]></name>
        <description><![CDATA[Bankomat - Volvo, B-porten, Göteborg]]></description>
        <Point><coordinates>11.92289,57.71621,0</coordinates></Point>
        <styleUrl>#icon-22</styleUrl>
      </Placemark>
      <Placemark>
        <name><![CDATA[Bankomat - Tuve centrum]]></name>
        <description><![CDATA[Bankomat - Tuve centrum, Göteborg]]></description>
        <Point><coordinates>11.92734,57.75508,0</coordinates></Point>
        <styleUrl>#icon-22</styleUrl>
      </Placemark>
      <Placemark>
        <name><![CDATA[Bankomat - Markmyntsgatan 2]]></name>
        <description><![CDATA[Bankomat - Markmyntsgatan 2, Göteborg]]></description>
        <Point><coordinates>11.92826,57.67121,0</coordinates></Point>
        <styleUrl>#icon-22</styleUrl>
      </Placemark>
      <Placemark>
        <name><![CDATA[Bankomat - Sjukhuset]]></name>
        <description><![CDATA[Bankomat - Sjukhuset, Uddevalla]]></description>
        <Point><coordinates>11.9298,58.3561,0</coordinates></Point>
        <styleUrl>#icon-22</styleUrl>
      </Placemark>
      <Placemark>
        <name><![CDATA[Bankomat - Bussterminalen]]></name>
        <description><![CDATA[Bankomat - Bussterminalen, Uddevalla]]></description>
        <Point><coordinates>11.93108,58.34999,0</coordinates></Point>
        <styleUrl>#icon-22</styleUrl>
      </Placemark>
      <Placemark>
        <name><![CDATA[Bankomat - Torget 4]]></name>
        <description><![CDATA[Bankomat - Torget 4, Ed]]></description>
        <Point><coordinates>11.93257,58.91205,0</coordinates></Point>
        <styleUrl>#icon-22</styleUrl>
      </Placemark>
      <Placemark>
        <name><![CDATA[Bankomat - Norra drottninggatan 10]]></name>
        <description><![CDATA[Bankomat - Norra drottninggatan 10, Uddevalla]]></description>
        <Point><coordinates>11.9343,58.35027,0</coordinates></Point>
        <styleUrl>#icon-22</styleUrl>
      </Placemark>
      <Placemark>
        <name><![CDATA[Bankomat - Wieselgrensplatsen 10]]></name>
        <description><![CDATA[Bankomat - Wieselgrensplatsen 10, Göteborg]]></description>
        <Point><coordinates>11.93502,57.72134,0</coordinates></Point>
        <styleUrl>#icon-22</styleUrl>
      </Placemark>
      <Placemark>
        <name><![CDATA[Bankomat - Stigbergstorget 20]]></name>
        <description><![CDATA[Bankomat - Stigbergstorget 20, Göteborg]]></description>
        <Point><coordinates>11.93542,57.69917,0</coordinates></Point>
        <styleUrl>#icon-22</styleUrl>
      </Placemark>
      <Placemark>
        <name><![CDATA[Bankomat - Kungsgatan 12]]></name>
        <description><![CDATA[Bankomat - Kungsgatan 12, Uddevalla]]></description>
        <Point><coordinates>11.93547,58.34946,0</coordinates></Point>
        <styleUrl>#icon-22</styleUrl>
      </Placemark>
      <Placemark>
        <name><![CDATA[Bankomat - Kungsgatan 12]]></name>
        <description><![CDATA[Bankomat - Kungsgatan 12, Uddevalla]]></description>
        <Point><coordinates>11.93547,58.34946,0</coordinates></Point>
        <styleUrl>#icon-22</styleUrl>
      </Placemark>
      <Placemark>
        <name><![CDATA[Bankomat - Kungsgatan 12]]></name>
        <description><![CDATA[Bankomat - Kungsgatan 12, Uddevalla]]></description>
        <Point><coordinates>11.93547,58.34946,0</coordinates></Point>
        <styleUrl>#icon-22</styleUrl>
      </Placemark>
      <Placemark>
        <name><![CDATA[Bankomat - Hisingsgatan 30]]></name>
        <description><![CDATA[Bankomat - Hisingsgatan 30, Göteborg]]></description>
        <Point><coordinates>11.94494,57.71949,0</coordinates></Point>
        <styleUrl>#icon-22</styleUrl>
      </Placemark>
      <Placemark>
        <name><![CDATA[Bankomat - Högsbo köpcentrum]]></name>
        <description><![CDATA[Bankomat - Högsbo köpcentrum, Västra frölunda]]></description>
        <Point><coordinates>11.94562,57.6505,0</coordinates></Point>
        <styleUrl>#icon-22</styleUrl>
      </Placemark>
      <Placemark>
        <name><![CDATA[Bankomat - Första långgatan 26]]></name>
        <description><![CDATA[Bankomat - Första långgatan 26, Göteborg]]></description>
        <Point><coordinates>11.94645,57.69957,0</coordinates></Point>
        <styleUrl>#icon-22</styleUrl>
      </Placemark>
      <Placemark>
        <name><![CDATA[Bankomat - Hornbach]]></name>
        <description><![CDATA[Bankomat - Hornbach, Göteborg]]></description>
        <Point><coordinates>11.94646,57.73021,0</coordinates></Point>
        <styleUrl>#icon-22</styleUrl>
      </Placemark>
      <Placemark>
        <name><![CDATA[Bankomat - Backaplans köpcentrum]]></name>
        <description><![CDATA[Bankomat - Backaplans köpcentrum, Göteborg]]></description>
        <Point><coordinates>11.95145,57.72157,0</coordinates></Point>
        <styleUrl>#icon-22</styleUrl>
      </Placemark>
      <Placemark>
        <name><![CDATA[Bankomat - Linnegatan 30]]></name>
        <description><![CDATA[Bankomat - Linnegatan 30, Göteborg]]></description>
        <Point><coordinates>11.9515,57.6965,0</coordinates></Point>
        <styleUrl>#icon-22</styleUrl>
      </Placemark>
      <Placemark>
        <name><![CDATA[Bankomat - Motorgatan 1-3]]></name>
        <description><![CDATA[Bankomat - Motorgatan 1-3, Göteborg]]></description>
        <Point><coordinates>11.95258,57.72175,0</coordinates></Point>
        <styleUrl>#icon-22</styleUrl>
      </Placemark>
      <Placemark>
        <name><![CDATA[Bankomat - Sisjö centrum]]></name>
        <description><![CDATA[Bankomat - Sisjö centrum, Askim]]></description>
        <Point><coordinates>11.95261,57.64012,0</coordinates></Point>
        <styleUrl>#icon-22</styleUrl>
      </Placemark>
      <Placemark>
        <name><![CDATA[Bankomat - Hjalmar Brantingsplatsen]]></name>
        <description><![CDATA[Bankomat - Hjalmar Brantingsplatsen, Göteborg]]></description>
        <Point><coordinates>11.95384,57.72083,0</coordinates></Point>
        <styleUrl>#icon-22</styleUrl>
      </Placemark>
      <Placemark>
        <name><![CDATA[Bankomat - Backa2]]></name>
        <description><![CDATA[Bankomat - Backa2, Göteborg]]></description>
        <Point><coordinates>11.95448,57.72259,0</coordinates></Point>
        <styleUrl>#icon-22</styleUrl>
      </Placemark>
      <Placemark>
        <name><![CDATA[Bankomat - Stenpiren resecentrum]]></name>
        <description><![CDATA[Bankomat - Stenpiren resecentrum, Göteborg]]></description>
        <Point><coordinates>11.95876,57.70596,0</coordinates></Point>
        <styleUrl>#icon-22</styleUrl>
      </Placemark>
      <Placemark>
        <name><![CDATA[Bankomat - Cosmopol]]></name>
        <description><![CDATA[Bankomat - Cosmopol, Göteborg]]></description>
        <Point><coordinates>11.95968,57.70755,0</coordinates></Point>
        <styleUrl>#icon-22</styleUrl>
      </Placemark>
      <Placemark>
        <name><![CDATA[Bankomat - Cosmopol]]></name>
        <description><![CDATA[Bankomat - Cosmopol, Göteborg]]></description>
        <Point><coordinates>11.95968,57.70755,0</coordinates></Point>
        <styleUrl>#icon-22</styleUrl>
      </Placemark>
      <Placemark>
        <name><![CDATA[Bankomat - Kungsporten 6 B]]></name>
        <description><![CDATA[Bankomat - Kungsporten 6 B, Billdal]]></description>
        <Point><coordinates>11.96085,57.5608,0</coordinates></Point>
        <styleUrl>#icon-22</styleUrl>
      </Placemark>
      <Placemark>
        <name><![CDATA[Bankomat - Sahlgrenska sjukhuset]]></name>
        <description><![CDATA[Bankomat - Sahlgrenska sjukhuset, Göteborg]]></description>
        <Point><coordinates>11.96165,57.68262,0</coordinates></Point>
        <styleUrl>#icon-22</styleUrl>
      </Placemark>
      <Placemark>
        <name><![CDATA[Bankomat - Sahlgrenska sjukhuset]]></name>
        <description><![CDATA[Bankomat - Sahlgrenska sjukhuset, Göteborg]]></description>
        <Point><coordinates>11.96165,57.68262,0</coordinates></Point>
        <styleUrl>#icon-22</styleUrl>
      </Placemark>
      <Placemark>
        <name><![CDATA[Bankomat - Almedalsmagasinet]]></name>
        <description><![CDATA[Bankomat - Almedalsmagasinet, Göteborg]]></description>
        <Point><coordinates>11.96639,57.70438,0</coordinates></Point>
        <styleUrl>#icon-22</styleUrl>
      </Placemark>
      <Placemark>
        <name><![CDATA[Bankomat - ESS-hallen]]></name>
        <description><![CDATA[Bankomat - ESS-hallen, Särö]]></description>
        <Point><coordinates>11.96643,57.5203,0</coordinates></Point>
        <styleUrl>#icon-22</styleUrl>
      </Placemark>
      <Placemark>
        <name><![CDATA[Bankomat - Vasagatan 26]]></name>
        <description><![CDATA[Bankomat - Vasagatan 26, Göteborg]]></description>
        <Point><coordinates>11.9673,57.69848,0</coordinates></Point>
        <styleUrl>#icon-22</styleUrl>
      </Placemark>
      <Placemark>
        <name><![CDATA[Bankomat - SEB]]></name>
        <description><![CDATA[Bankomat - SEB, Göteborg]]></description>
        <Point><coordinates>11.96733,57.70837,0</coordinates></Point>
        <styleUrl>#icon-22</styleUrl>
      </Placemark>
      <Placemark>
        <name><![CDATA[Bankomat - SEB]]></name>
        <description><![CDATA[Bankomat - SEB, Göteborg]]></description>
        <Point><coordinates>11.96733,57.70837,0</coordinates></Point>
        <styleUrl>#icon-22</styleUrl>
      </Placemark>
      <Placemark>
        <name><![CDATA[Bankomat - Kongahälla shopping]]></name>
        <description><![CDATA[Bankomat - Kongahälla shopping, Kungälv]]></description>
        <Point><coordinates>11.96744,57.87418,0</coordinates></Point>
        <styleUrl>#icon-22</styleUrl>
      </Placemark>
      <Placemark>
        <name><![CDATA[Bankomat - Kongahälla shopping]]></name>
        <description><![CDATA[Bankomat - Kongahälla shopping, Kungälv]]></description>
        <Point><coordinates>11.96744,57.87418,0</coordinates></Point>
        <styleUrl>#icon-22</styleUrl>
      </Placemark>
      <Placemark>
        <name><![CDATA[Bankomat - Kungälv resecentrum]]></name>
        <description><![CDATA[Bankomat - Kungälv resecentrum, Kungälv]]></description>
        <Point><coordinates>11.96802,57.87185,0</coordinates></Point>
        <styleUrl>#icon-22</styleUrl>
      </Placemark>
      <Placemark>
        <name><![CDATA[Bankomat - Södra Hamngatan 37]]></name>
        <description><![CDATA[Bankomat - Södra Hamngatan 37, Göteborg]]></description>
        <Point><coordinates>11.96885,57.7065,0</coordinates></Point>
        <styleUrl>#icon-22</styleUrl>
      </Placemark>
      <Placemark>
        <name><![CDATA[Bankomat - Infocenter Nordstan]]></name>
        <description><![CDATA[Bankomat - Infocenter Nordstan, Göteborg]]></description>
        <Point><coordinates>11.96887,57.70898,0</coordinates></Point>
        <styleUrl>#icon-22</styleUrl>
      </Placemark>
      <Placemark>
        <name><![CDATA[Bankomat - Infocenter Nordstan]]></name>
        <description><![CDATA[Bankomat - Infocenter Nordstan, Göteborg]]></description>
        <Point><coordinates>11.96887,57.70898,0</coordinates></Point>
        <styleUrl>#icon-22</styleUrl>
      </Placemark>
      <Placemark>
        <name><![CDATA[Bankomat - Nordstan Information]]></name>
        <description><![CDATA[Bankomat - Nordstan Information, Göteborg]]></description>
        <Point><coordinates>11.96911,57.70869,0</coordinates></Point>
        <styleUrl>#icon-22</styleUrl>
      </Placemark>
      <Placemark>
        <name><![CDATA[Bankomat - Nordstan Information]]></name>
        <description><![CDATA[Bankomat - Nordstan Information, Göteborg]]></description>
        <Point><coordinates>11.96911,57.70869,0</coordinates></Point>
        <styleUrl>#icon-22</styleUrl>
      </Placemark>
      <Placemark>
        <name><![CDATA[Bankomat - Kungsportsplatsen 2]]></name>
        <description><![CDATA[Bankomat - Kungsportsplatsen 2, Göteborg]]></description>
        <Point><coordinates>11.97002,57.70418,0</coordinates></Point>
        <styleUrl>#icon-22</styleUrl>
      </Placemark>
      <Placemark>
        <name><![CDATA[Bankomat - Kungsportsplatsen 2]]></name>
        <description><![CDATA[Bankomat - Kungsportsplatsen 2, Göteborg]]></description>
        <Point><coordinates>11.97002,57.70418,0</coordinates></Point>
        <styleUrl>#icon-22</styleUrl>
      </Placemark>
      <Placemark>
        <name><![CDATA[Bankomat - Landala torg]]></name>
        <description><![CDATA[Bankomat - Landala torg, Göteborg]]></description>
        <Point><coordinates>11.97045,57.69355,0</coordinates></Point>
        <styleUrl>#icon-22</styleUrl>
      </Placemark>
      <Placemark>
        <name><![CDATA[Bankomat - Brunnsbotorget 5]]></name>
        <description><![CDATA[Bankomat - Brunnsbotorget 5, Hisings backa]]></description>
        <Point><coordinates>11.97104,57.72826,0</coordinates></Point>
        <styleUrl>#icon-22</styleUrl>
      </Placemark>
      <Placemark>
        <name><![CDATA[Bankomat - Doktor Fries torg 17]]></name>
        <description><![CDATA[Bankomat - Doktor Fries torg 17, Göteborg]]></description>
        <Point><coordinates>11.97206,57.68416,0</coordinates></Point>
        <styleUrl>#icon-22</styleUrl>
      </Placemark>
      <Placemark>
        <name><![CDATA[Bankomat - Göteborg C]]></name>
        <description><![CDATA[Bankomat - Göteborg C, Göteborg]]></description>
        <Point><coordinates>11.97235,57.70927,0</coordinates></Point>
        <styleUrl>#icon-22</styleUrl>
      </Placemark>
      <Placemark>
        <name><![CDATA[Bankomat - Göteborg C]]></name>
        <description><![CDATA[Bankomat - Göteborg C, Göteborg]]></description>
        <Point><coordinates>11.97235,57.70927,0</coordinates></Point>
        <styleUrl>#icon-22</styleUrl>
      </Placemark>
      <Placemark>
        <name><![CDATA[Bankomat - Göteborg C]]></name>
        <description><![CDATA[Bankomat - Göteborg C, Göteborg]]></description>
        <Point><coordinates>11.9729,57.70866,0</coordinates></Point>
        <styleUrl>#icon-22</styleUrl>
      </Placemark>
      <Placemark>
        <name><![CDATA[Bankomat - Göteborg C]]></name>
        <description><![CDATA[Bankomat - Göteborg C, Göteborg]]></description>
        <Point><coordinates>11.9729,57.70866,0</coordinates></Point>
        <styleUrl>#icon-22</styleUrl>
      </Placemark>
      <Placemark>
        <name><![CDATA[Bankomat - Göteborg C]]></name>
        <description><![CDATA[Bankomat - Göteborg C, Göteborg]]></description>
        <Point><coordinates>11.97343,57.70854,0</coordinates></Point>
        <styleUrl>#icon-22</styleUrl>
      </Placemark>
      <Placemark>
        <name><![CDATA[Bankomat - Göteborg C]]></name>
        <description><![CDATA[Bankomat - Göteborg C, Göteborg]]></description>
        <Point><coordinates>11.97343,57.70854,0</coordinates></Point>
        <styleUrl>#icon-22</styleUrl>
      </Placemark>
      <Placemark>
        <name><![CDATA[Bankomat - Vita fläcken]]></name>
        <description><![CDATA[Bankomat - Vita fläcken, Kungälv]]></description>
        <Point><coordinates>11.9736,57.87368,0</coordinates></Point>
        <styleUrl>#icon-22</styleUrl>
      </Placemark>
      <Placemark>
        <name><![CDATA[Bankomat - City Avenyn, plan-1]]></name>
        <description><![CDATA[Bankomat - City Avenyn, plan-1, Göteborg]]></description>
        <Point><coordinates>11.9771,57.69935,0</coordinates></Point>
        <styleUrl>#icon-22</styleUrl>
      </Placemark>
      <Placemark>
        <name><![CDATA[Bankomat - City Avenyn, plan-1]]></name>
        <description><![CDATA[Bankomat - City Avenyn, plan-1, Göteborg]]></description>
        <Point><coordinates>11.9771,57.69935,0</coordinates></Point>
        <styleUrl>#icon-22</styleUrl>
      </Placemark>
      <Placemark>
        <name><![CDATA[Bankomat - City Avenyn, plan-1]]></name>
        <description><![CDATA[Bankomat - City Avenyn, plan-1, Göteborg]]></description>
        <Point><coordinates>11.9771,57.69935,0</coordinates></Point>
        <styleUrl>#icon-22</styleUrl>
      </Placemark>
      <Placemark>
        <name><![CDATA[Bankomat - Selma Lagerlöfs Torg]]></name>
        <description><![CDATA[Bankomat - Selma Lagerlöfs Torg, Hisings backa]]></description>
        <Point><coordinates>11.98111,57.74959,0</coordinates></Point>
        <styleUrl>#icon-22</styleUrl>
      </Placemark>
      <Placemark>
        <name><![CDATA[Bankomat - Selma Lagerlöfs Torg]]></name>
        <description><![CDATA[Bankomat - Selma Lagerlöfs Torg, Hisings backa]]></description>
        <Point><coordinates>11.98111,57.74959,0</coordinates></Point>
        <styleUrl>#icon-22</styleUrl>
      </Placemark>
      <Placemark>
        <name><![CDATA[Bankomat - Willys]]></name>
        <description><![CDATA[Bankomat - Willys, Göteborg]]></description>
        <Point><coordinates>11.98582,57.68745,0</coordinates></Point>
        <styleUrl>#icon-22</styleUrl>
      </Placemark>
      <Placemark>
        <name><![CDATA[Bankomat - Svenska Mässan, ingång 5]]></name>
        <description><![CDATA[Bankomat - Svenska Mässan, ingång 5, Göteborg]]></description>
        <Point><coordinates>11.98772,57.69737,0</coordinates></Point>
        <styleUrl>#icon-22</styleUrl>
      </Placemark>
      <Placemark>
        <name><![CDATA[Bankomat - Kärraplatsen 7]]></name>
        <description><![CDATA[Bankomat - Kärraplatsen 7, Hisings kärra]]></description>
        <Point><coordinates>11.9892,57.7943,0</coordinates></Point>
        <styleUrl>#icon-22</styleUrl>
      </Placemark>
      <Placemark>
        <name><![CDATA[Bankomat - Liseberg]]></name>
        <description><![CDATA[Bankomat - Liseberg, Göteborg]]></description>
        <Point><coordinates>11.99088,57.697,0</coordinates></Point>
        <styleUrl>#icon-22</styleUrl>
      </Placemark>
      <Placemark>
        <name><![CDATA[Bankomat - Stigs center]]></name>
        <description><![CDATA[Bankomat - Stigs center, Hisings backa]]></description>
        <Point><coordinates>11.99401,57.7473,0</coordinates></Point>
        <styleUrl>#icon-22</styleUrl>
      </Placemark>
      <Placemark>
        <name><![CDATA[Bankomat - Liseberg]]></name>
        <description><![CDATA[Bankomat - Liseberg, Göteborg]]></description>
        <Point><coordinates>11.99558,57.6952,0</coordinates></Point>
        <styleUrl>#icon-22</styleUrl>
      </Placemark>
      <Placemark>
        <name><![CDATA[Bankomat - Liseberg]]></name>
        <description><![CDATA[Bankomat - Liseberg, Göteborg]]></description>
        <Point><coordinates>11.99558,57.6952,0</coordinates></Point>
        <styleUrl>#icon-22</styleUrl>
      </Placemark>
      <Placemark>
        <name><![CDATA[Bankomat - Centrumvägen 6]]></name>
        <description><![CDATA[Bankomat - Centrumvägen 6, Färgelanda]]></description>
        <Point><coordinates>11.99657,58.56757,0</coordinates></Point>
        <styleUrl>#icon-22</styleUrl>
      </Placemark>
      <Placemark>
        <name><![CDATA[Bankomat - Redbergsvägen 11]]></name>
        <description><![CDATA[Bankomat - Redbergsvägen 11, Göteborg]]></description>
        <Point><coordinates>11.9989,57.7145,0</coordinates></Point>
        <styleUrl>#icon-22</styleUrl>
      </Placemark>
      <Placemark>
        <name><![CDATA[Bankomat - Redbergsvägen 40]]></name>
        <description><![CDATA[Bankomat - Redbergsvägen 40, Göteborg]]></description>
        <Point><coordinates>12.00267,57.7155,0</coordinates></Point>
        <styleUrl>#icon-22</styleUrl>
      </Placemark>
      <Placemark>
        <name><![CDATA[Bankomat - Åby travbana]]></name>
        <description><![CDATA[Bankomat - Åby travbana, Mölndal]]></description>
        <Point><coordinates>12.00311,57.64945,0</coordinates></Point>
        <styleUrl>#icon-22</styleUrl>
      </Placemark>
      <Placemark>
        <name><![CDATA[Bankomat - Gamlestaden resecentrum]]></name>
        <description><![CDATA[Bankomat - Gamlestaden resecentrum, Göteborg]]></description>
        <Point><coordinates>12.00478,57.72778,0</coordinates></Point>
        <styleUrl>#icon-22</styleUrl>
      </Placemark>
      <Placemark>
        <name><![CDATA[Bankomat - Prästgårdsängen 1]]></name>
        <description><![CDATA[Bankomat - Prästgårdsängen 1, Göteborg]]></description>
        <Point><coordinates>12.00693,57.70472,0</coordinates></Point>
        <styleUrl>#icon-22</styleUrl>
      </Placemark>
      <Placemark>
        <name><![CDATA[Bankomat - Göteborgsvägen 95]]></name>
        <description><![CDATA[Bankomat - Göteborgsvägen 95, Mölndal]]></description>
        <Point><coordinates>12.01054,57.66922,0</coordinates></Point>
        <styleUrl>#icon-22</styleUrl>
      </Placemark>
      <Placemark>
        <name><![CDATA[Bankomat - Göteborgsvägen 95]]></name>
        <description><![CDATA[Bankomat - Göteborgsvägen 95, Mölndal]]></description>
        <Point><coordinates>12.01054,57.66922,0</coordinates></Point>
        <styleUrl>#icon-22</styleUrl>
      </Placemark>
      <Placemark>
        <name><![CDATA[Bankomat - Storgatan 32 A]]></name>
        <description><![CDATA[Bankomat - Storgatan 32 A, Mölndal]]></description>
        <Point><coordinates>12.01133,57.65512,0</coordinates></Point>
        <styleUrl>#icon-22</styleUrl>
      </Placemark>
      <Placemark>
        <name><![CDATA[Bankomat - Mölndals vårdcentral]]></name>
        <description><![CDATA[Bankomat - Mölndals vårdcentral, Mölndal]]></description>
        <Point><coordinates>12.0119,57.66152,0</coordinates></Point>
        <styleUrl>#icon-22</styleUrl>
      </Placemark>
      <Placemark>
        <name><![CDATA[Bankomat - Göteborgsvägen 217]]></name>
        <description><![CDATA[Bankomat - Göteborgsvägen 217, Bohus]]></description>
        <Point><coordinates>12.01528,57.85105,0</coordinates></Point>
        <styleUrl>#icon-22</styleUrl>
      </Placemark>
      <Placemark>
        <name><![CDATA[Bankomat - Knutpunkten]]></name>
        <description><![CDATA[Bankomat - Knutpunkten, Mölndal]]></description>
        <Point><coordinates>12.01738,57.65545,0</coordinates></Point>
        <styleUrl>#icon-22</styleUrl>
      </Placemark>
      <Placemark>
        <name><![CDATA[Bankomat - Onsala kyrkby 3]]></name>
        <description><![CDATA[Bankomat - Onsala kyrkby 3, Onsala]]></description>
        <Point><coordinates>12.01907,57.41358,0</coordinates></Point>
        <styleUrl>#icon-22</styleUrl>
      </Placemark>
      <Placemark>
        <name><![CDATA[Bankomat - Hjällbo centrum]]></name>
        <description><![CDATA[Bankomat - Hjällbo centrum, Angered]]></description>
        <Point><coordinates>12.02019,57.76919,0</coordinates></Point>
        <styleUrl>#icon-22</styleUrl>
      </Placemark>
      <Placemark>
        <name><![CDATA[Bankomat - Hjällbo centrum]]></name>
        <description><![CDATA[Bankomat - Hjällbo centrum, Angered]]></description>
        <Point><coordinates>12.02019,57.76919,0</coordinates></Point>
        <styleUrl>#icon-22</styleUrl>
      </Placemark>
      <Placemark>
        <name><![CDATA[Bankomat - Kortedala torg 3]]></name>
        <description><![CDATA[Bankomat - Kortedala torg 3, Göteborg]]></description>
        <Point><coordinates>12.03206,57.75178,0</coordinates></Point>
        <styleUrl>#icon-22</styleUrl>
      </Placemark>
      <Placemark>
        <name><![CDATA[Bankomat - Gårdsten centrum]]></name>
        <description><![CDATA[Bankomat - Gårdsten centrum, Angered]]></description>
        <Point><coordinates>12.03248,57.80358,0</coordinates></Point>
        <styleUrl>#icon-22</styleUrl>
      </Placemark>
      <Placemark>
        <name><![CDATA[Bankomat - Shopping park]]></name>
        <description><![CDATA[Bankomat - Shopping park, Kållered]]></description>
        <Point><coordinates>12.04456,57.60815,0</coordinates></Point>
        <styleUrl>#icon-22</styleUrl>
      </Placemark>
      <Placemark>
        <name><![CDATA[Bankomat - ICA Maxi]]></name>
        <description><![CDATA[Bankomat - ICA Maxi, Nödinge]]></description>
        <Point><coordinates>12.04499,57.8922,0</coordinates></Point>
        <styleUrl>#icon-22</styleUrl>
      </Placemark>
      <Placemark>
        <name><![CDATA[Bankomat - Östra sjukhuset]]></name>
        <description><![CDATA[Bankomat - Östra sjukhuset, Göteborg]]></description>
        <Point><coordinates>12.0495,57.7219,0</coordinates></Point>
        <styleUrl>#icon-22</styleUrl>
      </Placemark>
      <Placemark>
        <name><![CDATA[Bankomat - Kultivatorgatan 1]]></name>
        <description><![CDATA[Bankomat - Kultivatorgatan 1, Angered]]></description>
        <Point><coordinates>12.04974,57.79734,0</coordinates></Point>
        <styleUrl>#icon-22</styleUrl>
      </Placemark>
      <Placemark>
        <name><![CDATA[Bankomat - Angered Centrum]]></name>
        <description><![CDATA[Bankomat - Angered Centrum, Angered]]></description>
        <Point><coordinates>12.05072,57.79702,0</coordinates></Point>
        <styleUrl>#icon-22</styleUrl>
      </Placemark>
      <Placemark>
        <name><![CDATA[Bankomat - Genavägen 22]]></name>
        <description><![CDATA[Bankomat - Genavägen 22, Högsäter]]></description>
        <Point><coordinates>12.05545,58.65008,0</coordinates></Point>
        <styleUrl>#icon-22</styleUrl>
      </Placemark>
      <Placemark>
        <name><![CDATA[Bankomat - Bergsjön]]></name>
        <description><![CDATA[Bankomat - Bergsjön, Göteborg]]></description>
        <Point><coordinates>12.06987,57.75621,0</coordinates></Point>
        <styleUrl>#icon-22</styleUrl>
      </Placemark>
      <Placemark>
        <name><![CDATA[Bankomat - Kungsmässan, ingång 2]]></name>
        <description><![CDATA[Bankomat - Kungsmässan, ingång 2, Kungsbacka]]></description>
        <Point><coordinates>12.07397,57.49283,0</coordinates></Point>
        <styleUrl>#icon-22</styleUrl>
      </Placemark>
      <Placemark>
        <name><![CDATA[Bankomat - Kungsmässan, ingång 5]]></name>
        <description><![CDATA[Bankomat - Kungsmässan, ingång 5, Kungsbacka]]></description>
        <Point><coordinates>12.07409,57.49217,0</coordinates></Point>
        <styleUrl>#icon-22</styleUrl>
      </Placemark>
      <Placemark>
        <name><![CDATA[Bankomat - Nygatan 10]]></name>
        <description><![CDATA[Bankomat - Nygatan 10, Kungsbacka]]></description>
        <Point><coordinates>12.07652,57.48522,0</coordinates></Point>
        <styleUrl>#icon-22</styleUrl>
      </Placemark>
      <Placemark>
        <name><![CDATA[Bankomat - Göteborgsvägen 88]]></name>
        <description><![CDATA[Bankomat - Göteborgsvägen 88, Sävedalen]]></description>
        <Point><coordinates>12.07693,57.73335,0</coordinates></Point>
        <styleUrl>#icon-22</styleUrl>
      </Placemark>
      <Placemark>
        <name><![CDATA[Bankomat - Kungsbacka station]]></name>
        <description><![CDATA[Bankomat - Kungsbacka station, Kungsbacka]]></description>
        <Point><coordinates>12.07925,57.48925,0</coordinates></Point>
        <styleUrl>#icon-22</styleUrl>
      </Placemark>
      <Placemark>
        <name><![CDATA[Bankomat - Lindome centrum]]></name>
        <description><![CDATA[Bankomat - Lindome centrum, Lindome]]></description>
        <Point><coordinates>12.08878,57.57753,0</coordinates></Point>
        <styleUrl>#icon-22</styleUrl>
      </Placemark>
      <Placemark>
        <name><![CDATA[Bankomat - Galleria Allum]]></name>
        <description><![CDATA[Bankomat - Galleria Allum, Partille]]></description>
        <Point><coordinates>12.10573,57.7391,0</coordinates></Point>
        <styleUrl>#icon-22</styleUrl>
      </Placemark>
      <Placemark>
        <name><![CDATA[Bankomat - Galleria Allum]]></name>
        <description><![CDATA[Bankomat - Galleria Allum, Partille]]></description>
        <Point><coordinates>12.10573,57.7391,0</coordinates></Point>
        <styleUrl>#icon-22</styleUrl>
      </Placemark>
      <Placemark>
        <name><![CDATA[Bankomat - Galleria Allum]]></name>
        <description><![CDATA[Bankomat - Galleria Allum, Partille]]></description>
        <Point><coordinates>12.10573,57.7391,0</coordinates></Point>
        <styleUrl>#icon-22</styleUrl>
      </Placemark>
      <Placemark>
        <name><![CDATA[Bankomat - Gamla kronvägen 19 A]]></name>
        <description><![CDATA[Bankomat - Gamla kronvägen 19 A, Partille]]></description>
        <Point><coordinates>12.11029,57.74027,0</coordinates></Point>
        <styleUrl>#icon-22</styleUrl>
      </Placemark>
      <Placemark>
        <name><![CDATA[Bankomat - Härryda]]></name>
        <description><![CDATA[Bankomat - Härryda, Mölnlycke]]></description>
        <Point><coordinates>12.11702,57.65925,0</coordinates></Point>
        <styleUrl>#icon-22</styleUrl>
      </Placemark>
      <Placemark>
        <name><![CDATA[Bankomat - Härryda]]></name>
        <description><![CDATA[Bankomat - Härryda, Mölnlycke]]></description>
        <Point><coordinates>12.11702,57.65925,0</coordinates></Point>
        <styleUrl>#icon-22</styleUrl>
      </Placemark>
      <Placemark>
        <name><![CDATA[Bankomat - Älvängen resecenter]]></name>
        <description><![CDATA[Bankomat - Älvängen resecenter, Älvängen]]></description>
        <Point><coordinates>12.11728,57.95777,0</coordinates></Point>
        <styleUrl>#icon-22</styleUrl>
      </Placemark>
      <Placemark>
        <name><![CDATA[Bankomat - Göteborgsvägen 99 B]]></name>
        <description><![CDATA[Bankomat - Göteborgsvägen 99 B, Älvängen]]></description>
        <Point><coordinates>12.1229,57.95821,0</coordinates></Point>
        <styleUrl>#icon-22</styleUrl>
      </Placemark>
      <Placemark>
        <name><![CDATA[Bankomat - Buavägen 30]]></name>
        <description><![CDATA[Bankomat - Buavägen 30, Bua]]></description>
        <Point><coordinates>12.12596,57.23633,0</coordinates></Point>
        <styleUrl>#icon-22</styleUrl>
      </Placemark>
      <Placemark>
        <name><![CDATA[Bankomat - Göteborgsvägen 49]]></name>
        <description><![CDATA[Bankomat - Göteborgsvägen 49, Lilla edet]]></description>
        <Point><coordinates>12.12782,58.13717,0</coordinates></Point>
        <styleUrl>#icon-22</styleUrl>
      </Placemark>
      <Placemark>
        <name><![CDATA[Bankomat - Kvarnåsgatan 3]]></name>
        <description><![CDATA[Bankomat - Kvarnåsgatan 3, Årjäng]]></description>
        <Point><coordinates>12.13161,59.39241,0</coordinates></Point>
        <styleUrl>#icon-22</styleUrl>
      </Placemark>
      <Placemark>
        <name><![CDATA[Bankomat - Långgatan 8]]></name>
        <description><![CDATA[Bankomat - Långgatan 8, Lödöse]]></description>
        <Point><coordinates>12.15325,58.03303,0</coordinates></Point>
        <styleUrl>#icon-22</styleUrl>
      </Placemark>
      <Placemark>
        <name><![CDATA[Bankomat - Koppom]]></name>
        <description><![CDATA[Bankomat - Koppom, Koppom]]></description>
        <Point><coordinates>12.16211,59.71581,0</coordinates></Point>
        <styleUrl>#icon-22</styleUrl>
      </Placemark>
      <Placemark>
        <name><![CDATA[Bankomat - Torggatan 14]]></name>
        <description><![CDATA[Bankomat - Torggatan 14, Bäckefors]]></description>
        <Point><coordinates>12.16271,58.80602,0</coordinates></Point>
        <styleUrl>#icon-22</styleUrl>
      </Placemark>
      <Placemark>
        <name><![CDATA[Bankomat - Torstensviksvägen 3]]></name>
        <description><![CDATA[Bankomat - Torstensviksvägen 3, Frillesås]]></description>
        <Point><coordinates>12.17474,57.31672,0</coordinates></Point>
        <styleUrl>#icon-22</styleUrl>
      </Placemark>
      <Placemark>
        <name><![CDATA[Bankomat - Storgatan 13]]></name>
        <description><![CDATA[Bankomat - Storgatan 13, Bengtsfors]]></description>
        <Point><coordinates>12.22503,59.02925,0</coordinates></Point>
        <styleUrl>#icon-22</styleUrl>
      </Placemark>
      <Placemark>
        <name><![CDATA[Bankomat - Galleria Trädgården, nedre ingången]]></name>
        <description><![CDATA[Bankomat - Galleria Trädgården, nedre ingången, Varberg]]></description>
        <Point><coordinates>12.24733,57.10621,0</coordinates></Point>
        <styleUrl>#icon-22</styleUrl>
      </Placemark>
      <Placemark>
        <name><![CDATA[Bankomat - Galleria Trädgården, nedre ingången]]></name>
        <description><![CDATA[Bankomat - Galleria Trädgården, nedre ingången, Varberg]]></description>
        <Point><coordinates>12.24733,57.10621,0</coordinates></Point>
        <styleUrl>#icon-22</styleUrl>
      </Placemark>
      <Placemark>
        <name><![CDATA[Bankomat - Stenebyvägen 13 A]]></name>
        <description><![CDATA[Bankomat - Stenebyvägen 13 A, Billingsfors]]></description>
        <Point><coordinates>12.24944,58.98417,0</coordinates></Point>
        <styleUrl>#icon-22</styleUrl>
      </Placemark>
      <Placemark>
        <name><![CDATA[Bankomat - Bäckgatan 16]]></name>
        <description><![CDATA[Bankomat - Bäckgatan 16, Varberg]]></description>
        <Point><coordinates>12.25038,57.10482,0</coordinates></Point>
        <styleUrl>#icon-22</styleUrl>
      </Placemark>
      <Placemark>
        <name><![CDATA[Bankomat - ICA]]></name>
        <description><![CDATA[Bankomat - ICA, Varberg]]></description>
        <Point><coordinates>12.25743,57.11665,0</coordinates></Point>
        <styleUrl>#icon-22</styleUrl>
      </Placemark>
      <Placemark>
        <name><![CDATA[Bankomat - Lilla torget 7]]></name>
        <description><![CDATA[Bankomat - Lilla torget 7, Lerum]]></description>
        <Point><coordinates>12.26796,57.76955,0</coordinates></Point>
        <styleUrl>#icon-22</styleUrl>
      </Placemark>
      <Placemark>
        <name><![CDATA[Bankomat - Solkatten köpcentrum]]></name>
        <description><![CDATA[Bankomat - Solkatten köpcentrum, Lerum]]></description>
        <Point><coordinates>12.26875,57.76948,0</coordinates></Point>
        <styleUrl>#icon-22</styleUrl>
      </Placemark>
      <Placemark>
        <name><![CDATA[Bankomat - Håstens torg]]></name>
        <description><![CDATA[Bankomat - Håstens torg, Varberg]]></description>
        <Point><coordinates>12.27743,57.11241,0</coordinates></Point>
        <styleUrl>#icon-22</styleUrl>
      </Placemark>
      <Placemark>
        <name><![CDATA[Bankomat - Swedbank]]></name>
        <description><![CDATA[Bankomat - Swedbank, Trollhättan]]></description>
        <Point><coordinates>12.28584,58.2845,0</coordinates></Point>
        <styleUrl>#icon-22</styleUrl>
      </Placemark>
      <Placemark>
        <name><![CDATA[Bankomat - Swedbank]]></name>
        <description><![CDATA[Bankomat - Swedbank, Trollhättan]]></description>
        <Point><coordinates>12.28584,58.2845,0</coordinates></Point>
        <styleUrl>#icon-22</styleUrl>
      </Placemark>
      <Placemark>
        <name><![CDATA[Bankomat - Charlottenbergs shoppingcenter]]></name>
        <description><![CDATA[Bankomat - Charlottenbergs shoppingcenter, Charlottenberg]]></description>
        <Point><coordinates>12.28981,59.88189,0</coordinates></Point>
        <styleUrl>#icon-22</styleUrl>
      </Placemark>
      <Placemark>
        <name><![CDATA[Bankomat - Affärshuset Oden]]></name>
        <description><![CDATA[Bankomat - Affärshuset Oden, Trollhättan]]></description>
        <Point><coordinates>12.29115,58.28467,0</coordinates></Point>
        <styleUrl>#icon-22</styleUrl>
      </Placemark>
      <Placemark>
        <name><![CDATA[Bankomat - Affärshuset Oden]]></name>
        <description><![CDATA[Bankomat - Affärshuset Oden, Trollhättan]]></description>
        <Point><coordinates>12.29115,58.28467,0</coordinates></Point>
        <styleUrl>#icon-22</styleUrl>
      </Placemark>
      <Placemark>
        <name><![CDATA[Bankomat - Affärshuset Oden]]></name>
        <description><![CDATA[Bankomat - Affärshuset Oden, Trollhättan]]></description>
        <Point><coordinates>12.29115,58.28467,0</coordinates></Point>
        <styleUrl>#icon-22</styleUrl>
      </Placemark>
      <Placemark>
        <name><![CDATA[Bankomat - Karlstorpsvägen 100]]></name>
        <description><![CDATA[Bankomat - Karlstorpsvägen 100, Trollhättan]]></description>
        <Point><coordinates>12.29433,58.27118,0</coordinates></Point>
        <styleUrl>#icon-22</styleUrl>
      </Placemark>
      <Placemark>
        <name><![CDATA[Bankomat - Landvetter flygplats, utrikes]]></name>
        <description><![CDATA[Bankomat - Landvetter flygplats, utrikes, Härryda]]></description>
        <Point><coordinates>12.29521,57.66803,0</coordinates></Point>
        <styleUrl>#icon-22</styleUrl>
      </Placemark>
      <Placemark>
        <name><![CDATA[Bankomat - Stenebyvägen 30]]></name>
        <description><![CDATA[Bankomat - Stenebyvägen 30, Dals långed]]></description>
        <Point><coordinates>12.29644,58.92771,0</coordinates></Point>
        <styleUrl>#icon-22</styleUrl>
      </Placemark>
      <Placemark>
        <name><![CDATA[Bankomat - Mjörnbotorget]]></name>
        <description><![CDATA[Bankomat - Mjörnbotorget, Gråbo]]></description>
        <Point><coordinates>12.2986,57.83655,0</coordinates></Point>
        <styleUrl>#icon-22</styleUrl>
      </Placemark>
      <Placemark>
        <name><![CDATA[Bankomat - Torggatan 7]]></name>
        <description><![CDATA[Bankomat - Torggatan 7, Charlottenberg]]></description>
        <Point><coordinates>12.30381,59.88386,0</coordinates></Point>
        <styleUrl>#icon-22</styleUrl>
      </Placemark>
      <Placemark>
        <name><![CDATA[Bankomat - SIBA-huset]]></name>
        <description><![CDATA[Bankomat - SIBA-huset, Trollhättan]]></description>
        <Point><coordinates>12.30857,58.31238,0</coordinates></Point>
        <styleUrl>#icon-22</styleUrl>
      </Placemark>
      <Placemark>
        <name><![CDATA[Bankomat - Kärna Kors]]></name>
        <description><![CDATA[Bankomat - Kärna Kors, Vänersborg]]></description>
        <Point><coordinates>12.32248,58.3793,0</coordinates></Point>
        <styleUrl>#icon-22</styleUrl>
      </Placemark>
      <Placemark>
        <name><![CDATA[Bankomat - Drottninggatan 10]]></name>
        <description><![CDATA[Bankomat - Drottninggatan 10, Vänersborg]]></description>
        <Point><coordinates>12.32264,58.38176,0</coordinates></Point>
        <styleUrl>#icon-22</styleUrl>
      </Placemark>
      <Placemark>
        <name><![CDATA[Bankomat - Trenova Center]]></name>
        <description><![CDATA[Bankomat - Trenova Center, Vänersborg]]></description>
        <Point><coordinates>12.33229,58.37768,0</coordinates></Point>
        <styleUrl>#icon-22</styleUrl>
      </Placemark>
      <Placemark>
        <name><![CDATA[Bankomat - Trenova Center]]></name>
        <description><![CDATA[Bankomat - Trenova Center, Vänersborg]]></description>
        <Point><coordinates>12.33229,58.37768,0</coordinates></Point>
        <styleUrl>#icon-22</styleUrl>
      </Placemark>
      <Placemark>
        <name><![CDATA[Bankomat - Trenova Center]]></name>
        <description><![CDATA[Bankomat - Trenova Center, Vänersborg]]></description>
        <Point><coordinates>12.33229,58.37768,0</coordinates></Point>
        <styleUrl>#icon-22</styleUrl>
      </Placemark>
      <Placemark>
        <name><![CDATA[Bankomat - Viskastigen 38]]></name>
        <description><![CDATA[Bankomat - Viskastigen 38, Veddige]]></description>
        <Point><coordinates>12.33593,57.26745,0</coordinates></Point>
        <styleUrl>#icon-22</styleUrl>
      </Placemark>
      <Placemark>
        <name><![CDATA[Bankomat - Storgatan 15]]></name>
        <description><![CDATA[Bankomat - Storgatan 15, Brålanda]]></description>
        <Point><coordinates>12.3501,58.56303,0</coordinates></Point>
        <styleUrl>#icon-22</styleUrl>
      </Placemark>
      <Placemark>
        <name><![CDATA[Bankomat - Floda centrum]]></name>
        <description><![CDATA[Bankomat - Floda centrum, Floda]]></description>
        <Point><coordinates>12.36177,57.80832,0</coordinates></Point>
        <styleUrl>#icon-22</styleUrl>
      </Placemark>
      <Placemark>
        <name><![CDATA[Bankomat - Jössevägen 6]]></name>
        <description><![CDATA[Bankomat - Jössevägen 6, Åmotfors]]></description>
        <Point><coordinates>12.36343,59.76317,0</coordinates></Point>
        <styleUrl>#icon-22</styleUrl>
      </Placemark>
      <Placemark>
        <name><![CDATA[Bankomat - Storegårdsvägen 6]]></name>
        <description><![CDATA[Bankomat - Storegårdsvägen 6, Vargön]]></description>
        <Point><coordinates>12.3903,58.35572,0</coordinates></Point>
        <styleUrl>#icon-22</styleUrl>
      </Placemark>
      <Placemark>
        <name><![CDATA[Bankomat - Fastarpsvägen 38]]></name>
        <description><![CDATA[Bankomat - Fastarpsvägen 38, Tvååker]]></description>
        <Point><coordinates>12.39743,57.0423,0</coordinates></Point>
        <styleUrl>#icon-22</styleUrl>
      </Placemark>
      <Placemark>
        <name><![CDATA[Bankomat - Storvägen 38]]></name>
        <description><![CDATA[Bankomat - Storvägen 38, Åsensbruk]]></description>
        <Point><coordinates>12.42108,58.80643,0</coordinates></Point>
        <styleUrl>#icon-22</styleUrl>
      </Placemark>
      <Placemark>
        <name><![CDATA[Bankomat - Hyssnavägen 1]]></name>
        <description><![CDATA[Bankomat - Hyssnavägen 1, Sätila]]></description>
        <Point><coordinates>12.43372,57.54238,0</coordinates></Point>
        <styleUrl>#icon-22</styleUrl>
      </Placemark>
      <Placemark>
        <name><![CDATA[Bankomat - Köpmantorget 1]]></name>
        <description><![CDATA[Bankomat - Köpmantorget 1, Mellerud]]></description>
        <Point><coordinates>12.45199,58.69899,0</coordinates></Point>
        <styleUrl>#icon-22</styleUrl>
      </Placemark>
      <Placemark>
        <name><![CDATA[Bankomat - Varbergsvägen 438]]></name>
        <description><![CDATA[Bankomat - Varbergsvägen 438, Horred]]></description>
        <Point><coordinates>12.4753,57.35343,0</coordinates></Point>
        <styleUrl>#icon-22</styleUrl>
      </Placemark>
      <Placemark>
        <name><![CDATA[Bankomat - Falkenbergs sparbank]]></name>
        <description><![CDATA[Bankomat - Falkenbergs sparbank, Falkenberg]]></description>
        <Point><coordinates>12.49078,56.90378,0</coordinates></Point>
        <styleUrl>#icon-22</styleUrl>
      </Placemark>
      <Placemark>
        <name><![CDATA[Bankomat - Falkenbergs sparbank]]></name>
        <description><![CDATA[Bankomat - Falkenbergs sparbank, Falkenberg]]></description>
        <Point><coordinates>12.49078,56.90378,0</coordinates></Point>
        <styleUrl>#icon-22</styleUrl>
      </Placemark>
      <Placemark>
        <name><![CDATA[Bankomat - Kronan shopping]]></name>
        <description><![CDATA[Bankomat - Kronan shopping, Falkenberg]]></description>
        <Point><coordinates>12.49089,56.90319,0</coordinates></Point>
        <styleUrl>#icon-22</styleUrl>
      </Placemark>
      <Placemark>
        <name><![CDATA[Bankomat - Kronan shopping]]></name>
        <description><![CDATA[Bankomat - Kronan shopping, Falkenberg]]></description>
        <Point><coordinates>12.49089,56.90319,0</coordinates></Point>
        <styleUrl>#icon-22</styleUrl>
      </Placemark>
      <Placemark>
        <name><![CDATA[Bankomat - Gallerian]]></name>
        <description><![CDATA[Bankomat - Gallerian, Falkenberg]]></description>
        <Point><coordinates>12.49197,56.90552,0</coordinates></Point>
        <styleUrl>#icon-22</styleUrl>
      </Placemark>
      <Placemark>
        <name><![CDATA[Bankomat - Hjortsberg]]></name>
        <description><![CDATA[Bankomat - Hjortsberg, Falkenberg]]></description>
        <Point><coordinates>12.51152,56.8865,0</coordinates></Point>
        <styleUrl>#icon-22</styleUrl>
      </Placemark>
      <Placemark>
        <name><![CDATA[Bankomat - Sparbanken Alingsås]]></name>
        <description><![CDATA[Bankomat - Sparbanken Alingsås, Sollebrunn]]></description>
        <Point><coordinates>12.53199,58.12014,0</coordinates></Point>
        <styleUrl>#icon-22</styleUrl>
      </Placemark>
      <Placemark>
        <name><![CDATA[Bankomat - Sparbanken Alingsås]]></name>
        <description><![CDATA[Bankomat - Sparbanken Alingsås, Alingsås]]></description>
        <Point><coordinates>12.533,57.92866,0</coordinates></Point>
        <styleUrl>#icon-22</styleUrl>
      </Placemark>
      <Placemark>
        <name><![CDATA[Bankomat - Kungsgatan 25]]></name>
        <description><![CDATA[Bankomat - Kungsgatan 25, Alingsås]]></description>
        <Point><coordinates>12.53553,57.93008,0</coordinates></Point>
        <styleUrl>#icon-22</styleUrl>
      </Placemark>
      <Placemark>
        <name><![CDATA[Bankomat - Kungsgatan 25]]></name>
        <description><![CDATA[Bankomat - Kungsgatan 25, Alingsås]]></description>
        <Point><coordinates>12.53553,57.93008,0</coordinates></Point>
        <styleUrl>#icon-22</styleUrl>
      </Placemark>
      <Placemark>
        <name><![CDATA[Bankomat - Kungsgatan 25]]></name>
        <description><![CDATA[Bankomat - Kungsgatan 25, Alingsås]]></description>
        <Point><coordinates>12.53553,57.93008,0</coordinates></Point>
        <styleUrl>#icon-22</styleUrl>
      </Placemark>
      <Placemark>
        <name><![CDATA[Bankomat - Coop]]></name>
        <description><![CDATA[Bankomat - Coop, Svanskog]]></description>
        <Point><coordinates>12.55275,59.17904,0</coordinates></Point>
        <styleUrl>#icon-22</styleUrl>
      </Placemark>
      <Placemark>
        <name><![CDATA[Bankomat - Storgatan 60]]></name>
        <description><![CDATA[Bankomat - Storgatan 60, Höganäs]]></description>
        <Point><coordinates>12.5597,56.20022,0</coordinates></Point>
        <styleUrl>#icon-22</styleUrl>
      </Placemark>
      <Placemark>
        <name><![CDATA[Bankomat - Storgatan 60]]></name>
        <description><![CDATA[Bankomat - Storgatan 60, Höganäs]]></description>
        <Point><coordinates>12.5597,56.20022,0</coordinates></Point>
        <styleUrl>#icon-22</styleUrl>
      </Placemark>
      <Placemark>
        <name><![CDATA[Bankomat - Hönacka Sälgen]]></name>
        <description><![CDATA[Bankomat - Hönacka Sälgen, Glava]]></description>
        <Point><coordinates>12.56365,59.54838,0</coordinates></Point>
        <styleUrl>#icon-22</styleUrl>
      </Placemark>
      <Placemark>
        <name><![CDATA[Bankomat - Västra torggatan 1 A]]></name>
        <description><![CDATA[Bankomat - Västra torggatan 1 A, Arvika]]></description>
        <Point><coordinates>12.59063,59.65409,0</coordinates></Point>
        <styleUrl>#icon-22</styleUrl>
      </Placemark>
      <Placemark>
        <name><![CDATA[Bankomat - Västra torggatan 1 A]]></name>
        <description><![CDATA[Bankomat - Västra torggatan 1 A, Arvika]]></description>
        <Point><coordinates>12.59063,59.65409,0</coordinates></Point>
        <styleUrl>#icon-22</styleUrl>
      </Placemark>
      <Placemark>
        <name><![CDATA[Bankomat - Gästgivaregatan 2]]></name>
        <description><![CDATA[Bankomat - Gästgivaregatan 2, Skene]]></description>
        <Point><coordinates>12.64163,57.48943,0</coordinates></Point>
        <styleUrl>#icon-22</styleUrl>
      </Placemark>
      <Placemark>
        <name><![CDATA[Bankomat - Mor Kerstins torg]]></name>
        <description><![CDATA[Bankomat - Mor Kerstins torg, Kinna]]></description>
        <Point><coordinates>12.69223,57.50738,0</coordinates></Point>
        <styleUrl>#icon-22</styleUrl>
      </Placemark>
      <Placemark>
        <name><![CDATA[Bankomat - Boråsvägen 33]]></name>
        <description><![CDATA[Bankomat - Boråsvägen 33, Kinna]]></description>
        <Point><coordinates>12.69345,57.50735,0</coordinates></Point>
        <styleUrl>#icon-22</styleUrl>
      </Placemark>
      <Placemark>
        <name><![CDATA[Bankomat - Stortorget 7]]></name>
        <description><![CDATA[Bankomat - Stortorget 7, Helsingborg]]></description>
        <Point><coordinates>12.69358,56.04667,0</coordinates></Point>
        <styleUrl>#icon-22</styleUrl>
      </Placemark>
      <Placemark>
        <name><![CDATA[Bankomat - Swedbank]]></name>
        <description><![CDATA[Bankomat - Swedbank, Helsingborg]]></description>
        <Point><coordinates>12.69394,56.04558,0</coordinates></Point>
        <styleUrl>#icon-22</styleUrl>
      </Placemark>
      <Placemark>
        <name><![CDATA[Bankomat - Swedbank]]></name>
        <description><![CDATA[Bankomat - Swedbank, Helsingborg]]></description>
        <Point><coordinates>12.69394,56.04558,0</coordinates></Point>
        <styleUrl>#icon-22</styleUrl>
      </Placemark>
      <Placemark>
        <name><![CDATA[Bankomat - Knutpunkten]]></name>
        <description><![CDATA[Bankomat - Knutpunkten, Helsingborg]]></description>
        <Point><coordinates>12.69402,56.0445,0</coordinates></Point>
        <styleUrl>#icon-22</styleUrl>
      </Placemark>
      <Placemark>
        <name><![CDATA[Bankomat - Knutpunkten]]></name>
        <description><![CDATA[Bankomat - Knutpunkten, Helsingborg]]></description>
        <Point><coordinates>12.69402,56.0445,0</coordinates></Point>
        <styleUrl>#icon-22</styleUrl>
      </Placemark>
      <Placemark>
        <name><![CDATA[Bankomat - Knutpunkten]]></name>
        <description><![CDATA[Bankomat - Knutpunkten, Helsingborg]]></description>
        <Point><coordinates>12.69402,56.0445,0</coordinates></Point>
        <styleUrl>#icon-22</styleUrl>
      </Placemark>
      <Placemark>
        <name><![CDATA[Bankomat - Stattena centrum]]></name>
        <description><![CDATA[Bankomat - Stattena centrum, Helsingborg]]></description>
        <Point><coordinates>12.70062,56.0568,0</coordinates></Point>
        <styleUrl>#icon-22</styleUrl>
      </Placemark>
      <Placemark>
        <name><![CDATA[Bankomat - Galleria Söder]]></name>
        <description><![CDATA[Bankomat - Galleria Söder, Helsingborg]]></description>
        <Point><coordinates>12.70117,56.04039,0</coordinates></Point>
        <styleUrl>#icon-22</styleUrl>
      </Placemark>
      <Placemark>
        <name><![CDATA[Bankomat - Galleria Söder]]></name>
        <description><![CDATA[Bankomat - Galleria Söder, Helsingborg]]></description>
        <Point><coordinates>12.70117,56.04039,0</coordinates></Point>
        <styleUrl>#icon-22</styleUrl>
      </Placemark>
      <Placemark>
        <name><![CDATA[Bankomat - Coop Konsum]]></name>
        <description><![CDATA[Bankomat - Coop Konsum, Åmål]]></description>
        <Point><coordinates>12.70178,59.05131,0</coordinates></Point>
        <styleUrl>#icon-22</styleUrl>
      </Placemark>
      <Placemark>
        <name><![CDATA[Bankomat - Coop Konsum]]></name>
        <description><![CDATA[Bankomat - Coop Konsum, Åmål]]></description>
        <Point><coordinates>12.70178,59.05131,0</coordinates></Point>
        <styleUrl>#icon-22</styleUrl>
      </Placemark>
      <Placemark>
        <name><![CDATA[Bankomat - Lasarettet]]></name>
        <description><![CDATA[Bankomat - Lasarettet, Helsingborg]]></description>
        <Point><coordinates>12.70424,56.04571,0</coordinates></Point>
        <styleUrl>#icon-22</styleUrl>
      </Placemark>
      <Placemark>
        <name><![CDATA[Bankomat - Södra stenbocksgatan 125]]></name>
        <description><![CDATA[Bankomat - Södra stenbocksgatan 125, Helsingborg]]></description>
        <Point><coordinates>12.71127,56.04093,0</coordinates></Point>
        <styleUrl>#icon-22</styleUrl>
      </Placemark>
      <Placemark>
        <name><![CDATA[Bankomat - Danska vägen 13]]></name>
        <description><![CDATA[Bankomat - Danska vägen 13, Ullared]]></description>
        <Point><coordinates>12.71457,57.13528,0</coordinates></Point>
        <styleUrl>#icon-22</styleUrl>
      </Placemark>
      <Placemark>
        <name><![CDATA[Bankomat - Boråsvägen 3]]></name>
        <description><![CDATA[Bankomat - Boråsvägen 3, Ullared]]></description>
        <Point><coordinates>12.71876,57.13693,0</coordinates></Point>
        <styleUrl>#icon-22</styleUrl>
      </Placemark>
      <Placemark>
        <name><![CDATA[Bankomat - HSB-vägen 1]]></name>
        <description><![CDATA[Bankomat - HSB-vägen 1, Idre]]></description>
        <Point><coordinates>12.71996,61.85849,0</coordinates></Point>
        <styleUrl>#icon-22</styleUrl>
      </Placemark>
      <Placemark>
        <name><![CDATA[Bankomat - Coop]]></name>
        <description><![CDATA[Bankomat - Coop, Helsingborg]]></description>
        <Point><coordinates>12.72069,56.04444,0</coordinates></Point>
        <styleUrl>#icon-22</styleUrl>
      </Placemark>
      <Placemark>
        <name><![CDATA[Bankomat - Sparbanken Skaraborg]]></name>
        <description><![CDATA[Bankomat - Sparbanken Skaraborg, Nossebro]]></description>
        <Point><coordinates>12.72085,58.18789,0</coordinates></Point>
        <styleUrl>#icon-22</styleUrl>
      </Placemark>
      <Placemark>
        <name><![CDATA[Bankomat - Garnisonsgatan 7 A]]></name>
        <description><![CDATA[Bankomat - Garnisonsgatan 7 A, Helsingborg]]></description>
        <Point><coordinates>12.72375,56.0716,0</coordinates></Point>
        <styleUrl>#icon-22</styleUrl>
      </Placemark>
      <Placemark>
        <name><![CDATA[Bankomat - Brogatan 14]]></name>
        <description><![CDATA[Bankomat - Brogatan 14, Getinge]]></description>
        <Point><coordinates>12.73273,56.81928,0</coordinates></Point>
        <styleUrl>#icon-22</styleUrl>
      </Placemark>
      <Placemark>
        <name><![CDATA[Bankomat - Väla centrum, ingång 3]]></name>
        <description><![CDATA[Bankomat - Väla centrum, ingång 3, Ödåkra]]></description>
        <Point><coordinates>12.75673,56.09225,0</coordinates></Point>
        <styleUrl>#icon-22</styleUrl>
      </Placemark>
      <Placemark>
        <name><![CDATA[Bankomat - Väla centrum, ingång 3]]></name>
        <description><![CDATA[Bankomat - Väla centrum, ingång 3, Ödåkra]]></description>
        <Point><coordinates>12.75673,56.09225,0</coordinates></Point>
        <styleUrl>#icon-22</styleUrl>
      </Placemark>
      <Placemark>
        <name><![CDATA[Bankomat - Frösögatan 7]]></name>
        <description><![CDATA[Bankomat - Frösögatan 7, Rydebäck]]></description>
        <Point><coordinates>12.77503,55.96629,0</coordinates></Point>
        <styleUrl>#icon-22</styleUrl>
      </Placemark>
      <Placemark>
        <name><![CDATA[Bankomat - Alingsåsvägen 1]]></name>
        <description><![CDATA[Bankomat - Alingsåsvägen 1, Sandared]]></description>
        <Point><coordinates>12.79208,57.71018,0</coordinates></Point>
        <styleUrl>#icon-22</styleUrl>
      </Placemark>
      <Placemark>
        <name><![CDATA[Bankomat - ICA]]></name>
        <description><![CDATA[Bankomat - ICA, Halmstad]]></description>
        <Point><coordinates>12.80482,56.66043,0</coordinates></Point>
        <styleUrl>#icon-22</styleUrl>
      </Placemark>
      <Placemark>
        <name><![CDATA[Bankomat - Sparbanken Alingsås]]></name>
        <description><![CDATA[Bankomat - Sparbanken Alingsås, Vårgårda]]></description>
        <Point><coordinates>12.80793,58.03173,0</coordinates></Point>
        <styleUrl>#icon-22</styleUrl>
      </Placemark>
      <Placemark>
        <name><![CDATA[Bankomat - Sparbanken Alingsås]]></name>
        <description><![CDATA[Bankomat - Sparbanken Alingsås, Vårgårda]]></description>
        <Point><coordinates>12.80793,58.03173,0</coordinates></Point>
        <styleUrl>#icon-22</styleUrl>
      </Placemark>
      <Placemark>
        <name><![CDATA[Bankomat - Kungsgatan 21]]></name>
        <description><![CDATA[Bankomat - Kungsgatan 21, Vårgårda]]></description>
        <Point><coordinates>12.80847,58.03597,0</coordinates></Point>
        <styleUrl>#icon-22</styleUrl>
      </Placemark>
      <Placemark>
        <name><![CDATA[Bankomat - Mercurivägen 1A]]></name>
        <description><![CDATA[Bankomat - Mercurivägen 1A, Förslöv]]></description>
        <Point><coordinates>12.81592,56.34915,0</coordinates></Point>
        <styleUrl>#icon-22</styleUrl>
      </Placemark>
      <Placemark>
        <name><![CDATA[Bankomat - Brinova gallerian]]></name>
        <description><![CDATA[Bankomat - Brinova gallerian, Landskrona]]></description>
        <Point><coordinates>12.83114,55.86986,0</coordinates></Point>
        <styleUrl>#icon-22</styleUrl>
      </Placemark>
      <Placemark>
        <name><![CDATA[Bankomat - Brinova gallerian]]></name>
        <description><![CDATA[Bankomat - Brinova gallerian, Landskrona]]></description>
        <Point><coordinates>12.83114,55.86986,0</coordinates></Point>
        <styleUrl>#icon-22</styleUrl>
      </Placemark>
      <Placemark>
        <name><![CDATA[Bankomat - Brinova gallerian]]></name>
        <description><![CDATA[Bankomat - Brinova gallerian, Landskrona]]></description>
        <Point><coordinates>12.83114,55.86986,0</coordinates></Point>
        <styleUrl>#icon-22</styleUrl>
      </Placemark>
      <Placemark>
        <name><![CDATA[Bankomat - Brinova gallerian]]></name>
        <description><![CDATA[Bankomat - Brinova gallerian, Landskrona]]></description>
        <Point><coordinates>12.83114,55.86986,0</coordinates></Point>
        <styleUrl>#icon-22</styleUrl>
      </Placemark>
      <Placemark>
        <name><![CDATA[Bankomat - City Gross]]></name>
        <description><![CDATA[Bankomat - City Gross, Landskrona]]></description>
        <Point><coordinates>12.83124,55.86883,0</coordinates></Point>
        <styleUrl>#icon-22</styleUrl>
      </Placemark>
      <Placemark>
        <name><![CDATA[Bankomat - Eriksgatan 124]]></name>
        <description><![CDATA[Bankomat - Eriksgatan 124, Landskrona]]></description>
        <Point><coordinates>12.83284,55.87623,0</coordinates></Point>
        <styleUrl>#icon-22</styleUrl>
      </Placemark>
      <Placemark>
        <name><![CDATA[Bankomat - Swedbank]]></name>
        <description><![CDATA[Bankomat - Swedbank, Båstad]]></description>
        <Point><coordinates>12.83937,56.43088,0</coordinates></Point>
        <styleUrl>#icon-22</styleUrl>
      </Placemark>
      <Placemark>
        <name><![CDATA[Bankomat - Swedbank]]></name>
        <description><![CDATA[Bankomat - Swedbank, Båstad]]></description>
        <Point><coordinates>12.83937,56.43088,0</coordinates></Point>
        <styleUrl>#icon-22</styleUrl>
      </Placemark>
      <Placemark>
        <name><![CDATA[Bankomat - ICA]]></name>
        <description><![CDATA[Bankomat - ICA, Skanör]]></description>
        <Point><coordinates>12.84363,55.41201,0</coordinates></Point>
        <styleUrl>#icon-22</styleUrl>
      </Placemark>
      <Placemark>
        <name><![CDATA[Bankomat - Ringvägen 170]]></name>
        <description><![CDATA[Bankomat - Ringvägen 170, Landskrona]]></description>
        <Point><coordinates>12.84915,55.87083,0</coordinates></Point>
        <styleUrl>#icon-22</styleUrl>
      </Placemark>
      <Placemark>
        <name><![CDATA[Bankomat - Klammerdammsgatan 8]]></name>
        <description><![CDATA[Bankomat - Klammerdammsgatan 8, Halmstad]]></description>
        <Point><coordinates>12.85727,56.67513,0</coordinates></Point>
        <styleUrl>#icon-22</styleUrl>
      </Placemark>
      <Placemark>
        <name><![CDATA[Bankomat - Tempo]]></name>
        <description><![CDATA[Bankomat - Tempo, Viskafors]]></description>
        <Point><coordinates>12.85808,57.63455,0</coordinates></Point>
        <styleUrl>#icon-22</styleUrl>
      </Placemark>
      <Placemark>
        <name><![CDATA[Bankomat - Gallerian]]></name>
        <description><![CDATA[Bankomat - Gallerian, Halmstad]]></description>
        <Point><coordinates>12.8585,56.67416,0</coordinates></Point>
        <styleUrl>#icon-22</styleUrl>
      </Placemark>
      <Placemark>
        <name><![CDATA[Bankomat - Gallerian]]></name>
        <description><![CDATA[Bankomat - Gallerian, Halmstad]]></description>
        <Point><coordinates>12.8585,56.67416,0</coordinates></Point>
        <styleUrl>#icon-22</styleUrl>
      </Placemark>
      <Placemark>
        <name><![CDATA[Bankomat - Gallerian]]></name>
        <description><![CDATA[Bankomat - Gallerian, Halmstad]]></description>
        <Point><coordinates>12.8585,56.67416,0</coordinates></Point>
        <styleUrl>#icon-22</styleUrl>
      </Placemark>
      <Placemark>
        <name><![CDATA[Bankomat - Storgatan 26]]></name>
        <description><![CDATA[Bankomat - Storgatan 26, Ängelholm]]></description>
        <Point><coordinates>12.86252,56.24259,0</coordinates></Point>
        <styleUrl>#icon-22</styleUrl>
      </Placemark>
      <Placemark>
        <name><![CDATA[Bankomat - Torget 2]]></name>
        <description><![CDATA[Bankomat - Torget 2, Sysslebäck]]></description>
        <Point><coordinates>12.87194,60.73034,0</coordinates></Point>
        <styleUrl>#icon-22</styleUrl>
      </Placemark>
      <Placemark>
        <name><![CDATA[Bankomat - Nyhems torg]]></name>
        <description><![CDATA[Bankomat - Nyhems torg, Halmstad]]></description>
        <Point><coordinates>12.87337,56.66868,0</coordinates></Point>
        <styleUrl>#icon-22</styleUrl>
      </Placemark>
      <Placemark>
        <name><![CDATA[Bankomat - Coop]]></name>
        <description><![CDATA[Bankomat - Coop, Ängelholm]]></description>
        <Point><coordinates>12.87547,56.23788,0</coordinates></Point>
        <styleUrl>#icon-22</styleUrl>
      </Placemark>
      <Placemark>
        <name><![CDATA[Bankomat - Coop]]></name>
        <description><![CDATA[Bankomat - Coop, Ängelholm]]></description>
        <Point><coordinates>12.87547,56.23788,0</coordinates></Point>
        <styleUrl>#icon-22</styleUrl>
      </Placemark>
      <Placemark>
        <name><![CDATA[Bankomat - Kristian IV's väg 3]]></name>
        <description><![CDATA[Bankomat - Kristian IV's väg 3, Halmstad]]></description>
        <Point><coordinates>12.87609,56.66389,0</coordinates></Point>
        <styleUrl>#icon-22</styleUrl>
      </Placemark>
      <Placemark>
        <name><![CDATA[Bankomat - Munka Ljungbyvägen 5]]></name>
        <description><![CDATA[Bankomat - Munka Ljungbyvägen 5, Ängelholm]]></description>
        <Point><coordinates>12.87938,56.25458,0</coordinates></Point>
        <styleUrl>#icon-22</styleUrl>
      </Placemark>
      <Placemark>
        <name><![CDATA[Bankomat - Lidavägen 1]]></name>
        <description><![CDATA[Bankomat - Lidavägen 1, Överlida]]></description>
        <Point><coordinates>12.8939,57.34898,0</coordinates></Point>
        <styleUrl>#icon-22</styleUrl>
      </Placemark>
      <Placemark>
        <name><![CDATA[Bankomat - Hallarna]]></name>
        <description><![CDATA[Bankomat - Hallarna, Halmstad]]></description>
        <Point><coordinates>12.90946,56.65524,0</coordinates></Point>
        <styleUrl>#icon-22</styleUrl>
      </Placemark>
      <Placemark>
        <name><![CDATA[Bankomat - Hallarna]]></name>
        <description><![CDATA[Bankomat - Hallarna, Halmstad]]></description>
        <Point><coordinates>12.90946,56.65524,0</coordinates></Point>
        <styleUrl>#icon-22</styleUrl>
      </Placemark>
      <Placemark>
        <name><![CDATA[Bankomat - ICA]]></name>
        <description><![CDATA[Bankomat - ICA, Halmstad]]></description>
        <Point><coordinates>12.90979,56.67676,0</coordinates></Point>
        <styleUrl>#icon-22</styleUrl>
      </Placemark>
      <Placemark>
        <name><![CDATA[Bankomat - Norra Storgatan 6]]></name>
        <description><![CDATA[Bankomat - Norra Storgatan 6, Bjuv]]></description>
        <Point><coordinates>12.91608,56.08613,0</coordinates></Point>
        <styleUrl>#icon-22</styleUrl>
      </Placemark>
      <Placemark>
        <name><![CDATA[Bankomat - Norra Storgatan 6]]></name>
        <description><![CDATA[Bankomat - Norra Storgatan 6, Bjuv]]></description>
        <Point><coordinates>12.91608,56.08613,0</coordinates></Point>
        <styleUrl>#icon-22</styleUrl>
      </Placemark>
      <Placemark>
        <name><![CDATA[Bankomat - Magasinsgatan 6]]></name>
        <description><![CDATA[Bankomat - Magasinsgatan 6, Säffle]]></description>
        <Point><coordinates>12.91901,59.13484,0</coordinates></Point>
        <styleUrl>#icon-22</styleUrl>
      </Placemark>
      <Placemark>
        <name><![CDATA[Bankomat - Klagshamnsvägen 40]]></name>
        <description><![CDATA[Bankomat - Klagshamnsvägen 40, Bunkeflostrand]]></description>
        <Point><coordinates>12.91917,55.55533,0</coordinates></Point>
        <styleUrl>#icon-22</styleUrl>
      </Placemark>
      <Placemark>
        <name><![CDATA[Bankomat - Limhamn]]></name>
        <description><![CDATA[Bankomat - Limhamn, Limhamn]]></description>
        <Point><coordinates>12.93207,55.58224,0</coordinates></Point>
        <styleUrl>#icon-22</styleUrl>
      </Placemark>
      <Placemark>
        <name><![CDATA[Bankomat - Östra storgatan 17]]></name>
        <description><![CDATA[Bankomat - Östra storgatan 17, Säffle]]></description>
        <Point><coordinates>12.93267,59.13284,0</coordinates></Point>
        <styleUrl>#icon-22</styleUrl>
      </Placemark>
      <Placemark>
        <name><![CDATA[Bankomat - Linnégatan 45]]></name>
        <description><![CDATA[Bankomat - Linnégatan 45, Limhamn]]></description>
        <Point><coordinates>12.93342,55.58147,0</coordinates></Point>
        <styleUrl>#icon-22</styleUrl>
      </Placemark>
      <Placemark>
        <name><![CDATA[Bankomat - ICA Malmborgs Limhamn]]></name>
        <description><![CDATA[Bankomat - ICA Malmborgs Limhamn, Limhamn]]></description>
        <Point><coordinates>12.93512,55.58165,0</coordinates></Point>
        <styleUrl>#icon-22</styleUrl>
      </Placemark>
      <Placemark>
        <name><![CDATA[Bankomat - Borås Knallerian]]></name>
        <description><![CDATA[Bankomat - Borås Knallerian, Borås]]></description>
        <Point><coordinates>12.93805,57.73538,0</coordinates></Point>
        <styleUrl>#icon-22</styleUrl>
      </Placemark>
      <Placemark>
        <name><![CDATA[Bankomat - Bergslenagatan 11]]></name>
        <description><![CDATA[Bankomat - Bergslenagatan 11, Borås]]></description>
        <Point><coordinates>12.93886,57.73367,0</coordinates></Point>
        <styleUrl>#icon-22</styleUrl>
      </Placemark>
      <Placemark>
        <name><![CDATA[Bankomat - Pallas shopping]]></name>
        <description><![CDATA[Bankomat - Pallas shopping, Borås]]></description>
        <Point><coordinates>12.93904,57.71977,0</coordinates></Point>
        <styleUrl>#icon-22</styleUrl>
      </Placemark>
      <Placemark>
        <name><![CDATA[Bankomat - Pallas shopping]]></name>
        <description><![CDATA[Bankomat - Pallas shopping, Borås]]></description>
        <Point><coordinates>12.93904,57.71977,0</coordinates></Point>
        <styleUrl>#icon-22</styleUrl>
      </Placemark>
      <Placemark>
        <name><![CDATA[Bankomat - Pallas shopping]]></name>
        <description><![CDATA[Bankomat - Pallas shopping, Borås]]></description>
        <Point><coordinates>12.93904,57.71977,0</coordinates></Point>
        <styleUrl>#icon-22</styleUrl>
      </Placemark>
      <Placemark>
        <name><![CDATA[Bankomat - ICA]]></name>
        <description><![CDATA[Bankomat - ICA, Borås]]></description>
        <Point><coordinates>12.93925,57.72981,0</coordinates></Point>
        <styleUrl>#icon-22</styleUrl>
      </Placemark>
      <Placemark>
        <name><![CDATA[Bankomat - Österlånggatan 30]]></name>
        <description><![CDATA[Bankomat - Österlånggatan 30, Borås]]></description>
        <Point><coordinates>12.94094,57.72154,0</coordinates></Point>
        <styleUrl>#icon-22</styleUrl>
      </Placemark>
      <Placemark>
        <name><![CDATA[Bankomat - Allégatan 55]]></name>
        <description><![CDATA[Bankomat - Allégatan 55, Borås]]></description>
        <Point><coordinates>12.94339,57.71916,0</coordinates></Point>
        <styleUrl>#icon-22</styleUrl>
      </Placemark>
      <Placemark>
        <name><![CDATA[Bankomat - Allégatan 55]]></name>
        <description><![CDATA[Bankomat - Allégatan 55, Borås]]></description>
        <Point><coordinates>12.94339,57.71916,0</coordinates></Point>
        <styleUrl>#icon-22</styleUrl>
      </Placemark>
      <Placemark>
        <name><![CDATA[Bankomat - Sjöbo torggata 4]]></name>
        <description><![CDATA[Bankomat - Sjöbo torggata 4, Borås]]></description>
        <Point><coordinates>12.94422,57.74975,0</coordinates></Point>
        <styleUrl>#icon-22</styleUrl>
      </Placemark>
      <Placemark>
        <name><![CDATA[Bankomat - Swedbank]]></name>
        <description><![CDATA[Bankomat - Swedbank, Åstorp]]></description>
        <Point><coordinates>12.94754,56.13476,0</coordinates></Point>
        <styleUrl>#icon-22</styleUrl>
      </Placemark>
      <Placemark>
        <name><![CDATA[Bankomat - Skolgatan 6]]></name>
        <description><![CDATA[Bankomat - Skolgatan 6, Åstorp]]></description>
        <Point><coordinates>12.94766,56.13462,0</coordinates></Point>
        <styleUrl>#icon-22</styleUrl>
      </Placemark>
      <Placemark>
        <name><![CDATA[Bankomat - Sparbanken Skaraborg]]></name>
        <description><![CDATA[Bankomat - Sparbanken Skaraborg, Vara]]></description>
        <Point><coordinates>12.95256,58.26222,0</coordinates></Point>
        <styleUrl>#icon-22</styleUrl>
      </Placemark>
      <Placemark>
        <name><![CDATA[Bankomat - Mellby Center]]></name>
        <description><![CDATA[Bankomat - Mellby Center, Mellbystrand]]></description>
        <Point><coordinates>12.957,56.50302,0</coordinates></Point>
        <styleUrl>#icon-22</styleUrl>
      </Placemark>
      <Placemark>
        <name><![CDATA[Bankomat - Mellby Center]]></name>
        <description><![CDATA[Bankomat - Mellby Center, Mellbystrand]]></description>
        <Point><coordinates>12.957,56.50302,0</coordinates></Point>
        <styleUrl>#icon-22</styleUrl>
      </Placemark>
      <Placemark>
        <name><![CDATA[Bankomat - Brämhultsvägen 32]]></name>
        <description><![CDATA[Bankomat - Brämhultsvägen 32, Borås]]></description>
        <Point><coordinates>12.95814,57.72247,0</coordinates></Point>
        <styleUrl>#icon-22</styleUrl>
      </Placemark>
      <Placemark>
        <name><![CDATA[Bankomat - Trandaredsgatan 43]]></name>
        <description><![CDATA[Bankomat - Trandaredsgatan 43, Borås]]></description>
        <Point><coordinates>12.9625,57.70917,0</coordinates></Point>
        <styleUrl>#icon-22</styleUrl>
      </Placemark>
      <Placemark>
        <name><![CDATA[Bankomat - Toppengallerian]]></name>
        <description><![CDATA[Bankomat - Toppengallerian, Höllviken]]></description>
        <Point><coordinates>12.96375,55.42562,0</coordinates></Point>
        <styleUrl>#icon-22</styleUrl>
      </Placemark>
      <Placemark>
        <name><![CDATA[Bankomat - Toppengallerian]]></name>
        <description><![CDATA[Bankomat - Toppengallerian, Höllviken]]></description>
        <Point><coordinates>12.96375,55.42562,0</coordinates></Point>
        <styleUrl>#icon-22</styleUrl>
      </Placemark>
      <Placemark>
        <name><![CDATA[Bankomat - Toppengallerian]]></name>
        <description><![CDATA[Bankomat - Toppengallerian, Höllviken]]></description>
        <Point><coordinates>12.96375,55.42562,0</coordinates></Point>
        <styleUrl>#icon-22</styleUrl>
      </Placemark>
      <Placemark>
        <name><![CDATA[Bankomat - Köpenhamnsvägen 49]]></name>
        <description><![CDATA[Bankomat - Köpenhamnsvägen 49, Malmö]]></description>
        <Point><coordinates>12.968,55.59412,0</coordinates></Point>
        <styleUrl>#icon-22</styleUrl>
      </Placemark>
      <Placemark>
        <name><![CDATA[Bankomat - ICA]]></name>
        <description><![CDATA[Bankomat - ICA, Munka-ljungby]]></description>
        <Point><coordinates>12.96873,56.25948,0</coordinates></Point>
        <styleUrl>#icon-22</styleUrl>
      </Placemark>
      <Placemark>
        <name><![CDATA[Bankomat - Storgatan 14]]></name>
        <description><![CDATA[Bankomat - Storgatan 14, Ekeby]]></description>
        <Point><coordinates>12.97277,56.00075,0</coordinates></Point>
        <styleUrl>#icon-22</styleUrl>
      </Placemark>
      <Placemark>
        <name><![CDATA[Bankomat - Emporia, plan 2]]></name>
        <description><![CDATA[Bankomat - Emporia, plan 2, Malmö]]></description>
        <Point><coordinates>12.97332,55.56522,0</coordinates></Point>
        <styleUrl>#icon-22</styleUrl>
      </Placemark>
      <Placemark>
        <name><![CDATA[Bankomat - Ågatan 27]]></name>
        <description><![CDATA[Bankomat - Ågatan 27, Oskarström]]></description>
        <Point><coordinates>12.97493,56.80168,0</coordinates></Point>
        <styleUrl>#icon-22</styleUrl>
      </Placemark>
      <Placemark>
        <name><![CDATA[Bankomat - Malmö arena]]></name>
        <description><![CDATA[Bankomat - Malmö arena, Malmö]]></description>
        <Point><coordinates>12.97635,55.56302,0</coordinates></Point>
        <styleUrl>#icon-22</styleUrl>
      </Placemark>
      <Placemark>
        <name><![CDATA[Bankomat - Masttorget 14]]></name>
        <description><![CDATA[Bankomat - Masttorget 14, Malmö]]></description>
        <Point><coordinates>12.97899,55.61141,0</coordinates></Point>
        <styleUrl>#icon-22</styleUrl>
      </Placemark>
      <Placemark>
        <name><![CDATA[Bankomat - Hulta torg 4]]></name>
        <description><![CDATA[Bankomat - Hulta torg 4, Borås]]></description>
        <Point><coordinates>12.9807,57.72106,0</coordinates></Point>
        <styleUrl>#icon-22</styleUrl>
      </Placemark>
      <Placemark>
        <name><![CDATA[Bankomat - Kronprinsen]]></name>
        <description><![CDATA[Bankomat - Kronprinsen, Malmö]]></description>
        <Point><coordinates>12.9836,55.5967,0</coordinates></Point>
        <styleUrl>#icon-22</styleUrl>
      </Placemark>
      <Placemark>
        <name><![CDATA[Bankomat - Malmö Stadion]]></name>
        <description><![CDATA[Bankomat - Malmö Stadion, Malmö]]></description>
        <Point><coordinates>12.99031,55.58452,0</coordinates></Point>
        <styleUrl>#icon-22</styleUrl>
      </Placemark>
      <Placemark>
        <name><![CDATA[Bankomat - Cosmopol]]></name>
        <description><![CDATA[Bankomat - Cosmopol, Malmö]]></description>
        <Point><coordinates>12.99238,55.60268,0</coordinates></Point>
        <styleUrl>#icon-22</styleUrl>
      </Placemark>
      <Placemark>
        <name><![CDATA[Bankomat - Nornegatan 3]]></name>
        <description><![CDATA[Bankomat - Nornegatan 3, Malmö]]></description>
        <Point><coordinates>12.9934,55.55208,0</coordinates></Point>
        <styleUrl>#icon-22</styleUrl>
      </Placemark>
      <Placemark>
        <name><![CDATA[Bankomat - E-Center]]></name>
        <description><![CDATA[Bankomat - E-Center, Löddeköpinge]]></description>
        <Point><coordinates>12.99391,55.76934,0</coordinates></Point>
        <styleUrl>#icon-22</styleUrl>
      </Placemark>
      <Placemark>
        <name><![CDATA[Bankomat - Vidhemsplatsen 1]]></name>
        <description><![CDATA[Bankomat - Vidhemsplatsen 1, Vedum]]></description>
        <Point><coordinates>12.99575,58.17031,0</coordinates></Point>
        <styleUrl>#icon-22</styleUrl>
      </Placemark>
      <Placemark>
        <name><![CDATA[Bankomat - Transportvägen 2]]></name>
        <description><![CDATA[Bankomat - Transportvägen 2, Löddeköpinge]]></description>
        <Point><coordinates>12.99837,55.76692,0</coordinates></Point>
        <styleUrl>#icon-22</styleUrl>
      </Placemark>
      <Placemark>
        <name><![CDATA[Bankomat - Malmö C]]></name>
        <description><![CDATA[Bankomat - Malmö C, Malmö]]></description>
        <Point><coordinates>12.99983,55.609,0</coordinates></Point>
        <styleUrl>#icon-22</styleUrl>
      </Placemark>
      <Placemark>
        <name><![CDATA[Bankomat - Centralstationen]]></name>
        <description><![CDATA[Bankomat - Centralstationen, Malmö]]></description>
        <Point><coordinates>12.99987,55.60937,0</coordinates></Point>
        <styleUrl>#icon-22</styleUrl>
      </Placemark>
      <Placemark>
        <name><![CDATA[Bankomat - Södra förstadsgatan 12]]></name>
        <description><![CDATA[Bankomat - Södra förstadsgatan 12, Malmö]]></description>
        <Point><coordinates>13.00116,55.59972,0</coordinates></Point>
        <styleUrl>#icon-22</styleUrl>
      </Placemark>
      <Placemark>
        <name><![CDATA[Bankomat - Triangeln KöpC Plan 2]]></name>
        <description><![CDATA[Bankomat - Triangeln KöpC Plan 2, Malmö]]></description>
        <Point><coordinates>13.0017,55.5949,0</coordinates></Point>
        <styleUrl>#icon-22</styleUrl>
      </Placemark>
      <Placemark>
        <name><![CDATA[Bankomat - Triangeln KöpC Plan 2]]></name>
        <description><![CDATA[Bankomat - Triangeln KöpC Plan 2, Malmö]]></description>
        <Point><coordinates>13.0017,55.5949,0</coordinates></Point>
        <styleUrl>#icon-22</styleUrl>
      </Placemark>
      <Placemark>
        <name><![CDATA[Bankomat - Triangeln KöpC Plan 2]]></name>
        <description><![CDATA[Bankomat - Triangeln KöpC Plan 2, Malmö]]></description>
        <Point><coordinates>13.0017,55.5949,0</coordinates></Point>
        <styleUrl>#icon-22</styleUrl>
      </Placemark>
      <Placemark>
        <name><![CDATA[Bankomat - Stadt Hamburgsgatan 2]]></name>
        <description><![CDATA[Bankomat - Stadt Hamburgsgatan 2, Malmö]]></description>
        <Point><coordinates>13.00228,55.60281,0</coordinates></Point>
        <styleUrl>#icon-22</styleUrl>
      </Placemark>
      <Placemark>
        <name><![CDATA[Bankomat - Stadt Hamburgsgatan 2]]></name>
        <description><![CDATA[Bankomat - Stadt Hamburgsgatan 2, Malmö]]></description>
        <Point><coordinates>13.00228,55.60281,0</coordinates></Point>
        <styleUrl>#icon-22</styleUrl>
      </Placemark>
      <Placemark>
        <name><![CDATA[Bankomat - Stadt Hamburgsgatan 2]]></name>
        <description><![CDATA[Bankomat - Stadt Hamburgsgatan 2, Malmö]]></description>
        <Point><coordinates>13.00228,55.60281,0</coordinates></Point>
        <styleUrl>#icon-22</styleUrl>
      </Placemark>
      <Placemark>
        <name><![CDATA[Bankomat - Stadt Hamburgsgatan 2]]></name>
        <description><![CDATA[Bankomat - Stadt Hamburgsgatan 2, Malmö]]></description>
        <Point><coordinates>13.00228,55.60281,0</coordinates></Point>
        <styleUrl>#icon-22</styleUrl>
      </Placemark>
      <Placemark>
        <name><![CDATA[Bankomat - Mobilia Köpcentrum, ingång F, plan 2]]></name>
        <description><![CDATA[Bankomat - Mobilia Köpcentrum, ingång F, plan 2, Malmö]]></description>
        <Point><coordinates>13.00378,55.58165,0</coordinates></Point>
        <styleUrl>#icon-22</styleUrl>
      </Placemark>
      <Placemark>
        <name><![CDATA[Bankomat - Mobilia Köpcentrum, ingång F, plan 2]]></name>
        <description><![CDATA[Bankomat - Mobilia Köpcentrum, ingång F, plan 2, Malmö]]></description>
        <Point><coordinates>13.00378,55.58165,0</coordinates></Point>
        <styleUrl>#icon-22</styleUrl>
      </Placemark>
      <Placemark>
        <name><![CDATA[Bankomat - Mobilia Köpcentrum, ingång F, plan 2]]></name>
        <description><![CDATA[Bankomat - Mobilia Köpcentrum, ingång F, plan 2, Malmö]]></description>
        <Point><coordinates>13.00378,55.58165,0</coordinates></Point>
        <styleUrl>#icon-22</styleUrl>
      </Placemark>
      <Placemark>
        <name><![CDATA[Bankomat - Mobilia Köpcentrum, ingång F, plan 2]]></name>
        <description><![CDATA[Bankomat - Mobilia Köpcentrum, ingång F, plan 2, Malmö]]></description>
        <Point><coordinates>13.00378,55.58165,0</coordinates></Point>
        <styleUrl>#icon-22</styleUrl>
      </Placemark>
      <Placemark>
        <name><![CDATA[Bankomat - Sjukhuset]]></name>
        <description><![CDATA[Bankomat - Sjukhuset, Malmö]]></description>
        <Point><coordinates>13.00483,55.58786,0</coordinates></Point>
        <styleUrl>#icon-22</styleUrl>
      </Placemark>
      <Placemark>
        <name><![CDATA[Bankomat - Södervärn]]></name>
        <description><![CDATA[Bankomat - Södervärn, Malmö]]></description>
        <Point><coordinates>13.00531,55.58961,0</coordinates></Point>
        <styleUrl>#icon-22</styleUrl>
      </Placemark>
      <Placemark>
        <name><![CDATA[Bankomat - Södervärn]]></name>
        <description><![CDATA[Bankomat - Södervärn, Malmö]]></description>
        <Point><coordinates>13.00531,55.58961,0</coordinates></Point>
        <styleUrl>#icon-22</styleUrl>
      </Placemark>
      <Placemark>
        <name><![CDATA[Bankomat - Tingshusgatan 6]]></name>
        <description><![CDATA[Bankomat - Tingshusgatan 6, Torsby]]></description>
        <Point><coordinates>13.00578,60.13562,0</coordinates></Point>
        <styleUrl>#icon-22</styleUrl>
      </Placemark>
      <Placemark>
        <name><![CDATA[Bankomat - Bergsgatan 54]]></name>
        <description><![CDATA[Bankomat - Bergsgatan 54, Malmö]]></description>
        <Point><coordinates>13.00602,55.59034,0</coordinates></Point>
        <styleUrl>#icon-22</styleUrl>
      </Placemark>
      <Placemark>
        <name><![CDATA[Bankomat - Östergatan 12]]></name>
        <description><![CDATA[Bankomat - Östergatan 12, Malmö]]></description>
        <Point><coordinates>13.00719,55.60768,0</coordinates></Point>
        <styleUrl>#icon-22</styleUrl>
      </Placemark>
      <Placemark>
        <name><![CDATA[Bankomat - Järnvägsgatan 2]]></name>
        <description><![CDATA[Bankomat - Järnvägsgatan 2, Torsby]]></description>
        <Point><coordinates>13.00762,60.13446,0</coordinates></Point>
        <styleUrl>#icon-22</styleUrl>
      </Placemark>
      <Placemark>
        <name><![CDATA[Bankomat - ICA]]></name>
        <description><![CDATA[Bankomat - ICA, Fristad]]></description>
        <Point><coordinates>13.01056,57.82561,0</coordinates></Point>
        <styleUrl>#icon-22</styleUrl>
      </Placemark>
      <Placemark>
        <name><![CDATA[Bankomat - Nydalatorget 4]]></name>
        <description><![CDATA[Bankomat - Nydalatorget 4, Malmö]]></description>
        <Point><coordinates>13.02025,55.57301,0</coordinates></Point>
        <styleUrl>#icon-22</styleUrl>
      </Placemark>
      <Placemark>
        <name><![CDATA[Bankomat - Vellinge Centrum]]></name>
        <description><![CDATA[Bankomat - Vellinge Centrum, Vellinge]]></description>
        <Point><coordinates>13.02043,55.4713,0</coordinates></Point>
        <styleUrl>#icon-22</styleUrl>
      </Placemark>
      <Placemark>
        <name><![CDATA[Bankomat - Amiralgatan 81]]></name>
        <description><![CDATA[Bankomat - Amiralgatan 81, Malmö]]></description>
        <Point><coordinates>13.02136,55.59114,0</coordinates></Point>
        <styleUrl>#icon-22</styleUrl>
      </Placemark>
      <Placemark>
        <name><![CDATA[Bankomat - Sparbanken Alingsås]]></name>
        <description><![CDATA[Bankomat - Sparbanken Alingsås, Herrljunga]]></description>
        <Point><coordinates>13.02237,58.07798,0</coordinates></Point>
        <styleUrl>#icon-22</styleUrl>
      </Placemark>
      <Placemark>
        <name><![CDATA[Bankomat - Sparbanken Alingsås]]></name>
        <description><![CDATA[Bankomat - Sparbanken Alingsås, Herrljunga]]></description>
        <Point><coordinates>13.02237,58.07798,0</coordinates></Point>
        <styleUrl>#icon-22</styleUrl>
      </Placemark>
      <Placemark>
        <name><![CDATA[Bankomat - Sallerupsvägen 3 B]]></name>
        <description><![CDATA[Bankomat - Sallerupsvägen 3 B, Malmö]]></description>
        <Point><coordinates>13.02505,55.60499,0</coordinates></Point>
        <styleUrl>#icon-22</styleUrl>
      </Placemark>
      <Placemark>
        <name><![CDATA[Bankomat - Vikingavägen 1]]></name>
        <description><![CDATA[Bankomat - Vikingavägen 1, Bjärred]]></description>
        <Point><coordinates>13.02577,55.72222,0</coordinates></Point>
        <styleUrl>#icon-22</styleUrl>
      </Placemark>
      <Placemark>
        <name><![CDATA[Bankomat - Storgatan 8]]></name>
        <description><![CDATA[Bankomat - Storgatan 8, Laholm]]></description>
        <Point><coordinates>13.04239,56.513,0</coordinates></Point>
        <styleUrl>#icon-22</styleUrl>
      </Placemark>
      <Placemark>
        <name><![CDATA[Bankomat - Stortorget 6]]></name>
        <description><![CDATA[Bankomat - Stortorget 6, Laholm]]></description>
        <Point><coordinates>13.04369,56.51389,0</coordinates></Point>
        <styleUrl>#icon-22</styleUrl>
      </Placemark>
      <Placemark>
        <name><![CDATA[Bankomat - Rosengård köpcentrum]]></name>
        <description><![CDATA[Bankomat - Rosengård köpcentrum, Malmö]]></description>
        <Point><coordinates>13.0449,55.58586,0</coordinates></Point>
        <styleUrl>#icon-22</styleUrl>
      </Placemark>