<?xml version="1.0" encoding="UTF-8"?>
<kml xmlns="http://www.opengis.net/kml/2.2">
  <Document>
    <name>Bankomat</name>
    <description/>
    <Style id="icon-22-normal">
      <IconStyle>
        <scale>1.1</scale>
        <Icon>
          <href>https://www.gstatic.com/mapspro/images/stock/22-blue-dot.png</href>
        </Icon>
        <hotSpot x="16" xunits="pixels" y="32" yunits="insetPixels"/>
      </IconStyle>
      <LabelStyle>
        <scale>0</scale>
      </LabelStyle>
    </Style>
    <Style id="icon-22-highlight">
      <IconStyle>
        <scale>1.1</scale>
        <Icon>
          <href>https://www.gstatic.com/mapspro/images/stock/22-blue-dot.png</href>
        </Icon>
        <hotSpot x="16" xunits="pixels" y="32" yunits="insetPixels"/>
      </IconStyle>
      <LabelStyle>
        <scale>1.1</scale>
      </LabelStyle>
    </Style>
    <StyleMap id="icon-22">
      <Pair>
        <key>normal</key>
        <styleUrl>#icon-22-normal</styleUrl>
      </Pair>
      <Pair>
        <key>highlight</key>
        <styleUrl>#icon-22-highlight</styleUrl>
      </Pair>
    </StyleMap>
    <Folder>
      <name>Bankomat</name>
      <Placemark>
        <name>Bankomat - Västra Klevgatan 2</name>
        <description>Bankomat - Västra Klevgatan 2, Strömstad</description>
        <styleUrl>#icon-22</styleUrl>
        <Point>
          <coordinates>
            11.1708,58.9386,0
          </coordinates>
        </Point>
      </Placemark>
      <Placemark>
        <name>Bankomat - Västra Klevgatan 2</name>
        <description>Bankomat - Västra Klevgatan 2, Strömstad</description>
        <styleUrl>#icon-22</styleUrl>
        <Point>
          <coordinates>
            11.1708,58.9386,0
          </coordinates>
        </Point>
      </Placemark>
      <Placemark>
        <name>Bankomat - Nordby västra köpcentrum</name>
        <description>Bankomat - Nordby västra köpcentrum, Strömstad</description>
        <styleUrl>#icon-22</styleUrl>
        <Point>
          <coordinates>
            11.20841,59.06387,0
          </coordinates>
        </Point>
      </Placemark>
      <Placemark>
        <name>Bankomat - SEB</name>
        <description>Bankomat - SEB, Kungshamn</description>
        <styleUrl>#icon-22</styleUrl>
        <Point>
          <coordinates>
            11.24869,58.36033,0
          </coordinates>
        </Point>
      </Placemark>
      <Placemark>
        <name>Bankomat - Nedre långgatan 14</name>
        <description>Bankomat - Nedre långgatan 14, Grebbestad</description>
        <styleUrl>#icon-22</styleUrl>
        <Point>
          <coordinates>
            11.25564,58.69178,0
          </coordinates>
        </Point>
      </Placemark>
      <Placemark>
        <name>Bankomat - Postvägen 2</name>
        <description>Bankomat - Postvägen 2, Hamburgsund</description>
        <styleUrl>#icon-22</styleUrl>
        <Point>
          <coordinates>
            11.27166,58.55196,0
          </coordinates>
        </Point>
      </Placemark>
      <Placemark>
        <name>Bankomat - Kyrkvägen 1</name>
        <description>Bankomat - Kyrkvägen 1, Fjällbacka</description>
        <styleUrl>#icon-22</styleUrl>
        <Point>
          <coordinates>
            11.28427,58.59886,0
          </coordinates>
        </Point>
      </Placemark>
      <Placemark>
        <name>Bankomat - Skolgatan 1</name>
        <description>Bankomat - Skolgatan 1, Hunnebostrand</description>
        <styleUrl>#icon-22</styleUrl>
        <Point>
          <coordinates>
            11.30415,58.4405,0
          </coordinates>
        </Point>
      </Placemark>
      <Placemark>
        <name>Bankomat - ICA</name>
        <description>Bankomat - ICA, Tanumshede</description>
        <styleUrl>#icon-22</styleUrl>
        <Point>
          <coordinates>
            11.32465,58.72467,0
          </coordinates>
        </Point>
      </Placemark>
      <Placemark>
        <name>Bankomat - Drottninggatan 42</name>
        <description>Bankomat - Drottninggatan 42, Lysekil</description>
        <styleUrl>#icon-22</styleUrl>
        <Point>
          <coordinates>
            11.43512,58.27277,0
          </coordinates>
        </Point>
      </Placemark>
      <Placemark>
        <name>Bankomat - Drottninggatan 42</name>
        <description>Bankomat - Drottninggatan 42, Lysekil</description>
        <styleUrl>#icon-22</styleUrl>
        <Point>
          <coordinates>
            11.43512,58.27277,0
          </coordinates>
        </Point>
      </Placemark>
      <Placemark>
        <name>Bankomat - Edebacken 1</name>
        <description>Bankomat - Edebacken 1, Ellös</description>
        <styleUrl>#icon-22</styleUrl>
        <Point>
          <coordinates>
            11.46722,58.18233,0
          </coordinates>
        </Point>
      </Placemark>
      <Placemark>
        <name>Bankomat - Coop</name>
        <description>Bankomat - Coop, Brastad</description>
        <styleUrl>#icon-22</styleUrl>
        <Point>
          <coordinates>
            11.48545,58.38092,0
          </coordinates>
        </Point>
      </Placemark>
      <Placemark>
        <name>Bankomat - Hamngatan 54</name>
        <description>Bankomat - Hamngatan 54, Skärhamn</description>
        <styleUrl>#icon-22</styleUrl>
        <Point>
          <coordinates>
            11.54912,57.98646,0
          </coordinates>
        </Point>
      </Placemark>
      <Placemark>
        <name>Bankomat - Ringplan 1</name>
        <description>Bankomat - Ringplan 1, Marstrand</description>
        <styleUrl>#icon-22</styleUrl>
        <Point>
          <coordinates>
            11.58868,57.88739,0
          </coordinates>
        </Point>
      </Placemark>
      <Placemark>
        <name>Bankomat - SEB</name>
        <description>Bankomat - SEB, Hönö</description>
        <styleUrl>#icon-22</styleUrl>
        <Point>
          <coordinates>
            11.6507,57.69653,0
          </coordinates>
        </Point>
      </Placemark>
      <Placemark>
        <name>Bankomat - Börshuset Öckerö Hamn</name>
        <description>Bankomat - Börshuset Öckerö Hamn, Öckerö</description>
        <styleUrl>#icon-22</styleUrl>
        <Point>
          <coordinates>
            11.65512,57.70797,0
          </coordinates>
        </Point>
      </Placemark>
      <Placemark>
        <name>Bankomat - Svenborgsvägen 1</name>
        <description>Bankomat - Svenborgsvägen 1, Kållekärr</description>
        <styleUrl>#icon-22</styleUrl>
        <Point>
          <coordinates>
            11.66037,58.02502,0
          </coordinates>
        </Point>
      </Placemark>
      <Placemark>
        <name>Bankomat - Centrumvägen 28</name>
        <description>Bankomat - Centrumvägen 28, Munkedal</description>
        <styleUrl>#icon-22</styleUrl>
        <Point>
          <coordinates>
            11.67333,58.46687,0
          </coordinates>
        </Point>
      </Placemark>
      <Placemark>
        <name>Bankomat - Hamntorget 12</name>
        <description>Bankomat - Hamntorget 12, Henån</description>
        <styleUrl>#icon-22</styleUrl>
        <Point>
          <coordinates>
            11.67917,58.23745,0
          </coordinates>
        </Point>
      </Placemark>
      <Placemark>
        <name>Bankomat - Hamntorget 12</name>
        <description>Bankomat - Hamntorget 12, Henån</description>
        <styleUrl>#icon-22</styleUrl>
        <Point>
          <coordinates>
            11.67917,58.23745,0
          </coordinates>
        </Point>
      </Placemark>
      <Placemark>
        <name>Bankomat - Hedströms väg 1</name>
        <description>Bankomat - Hedströms väg 1, Varekil</description>
        <styleUrl>#icon-22</styleUrl>
        <Point>
          <coordinates>
            11.71553,58.12576,0
          </coordinates>
        </Point>
      </Placemark>
      <Placemark>
        <name>Bankomat - Centrumhuset</name>
        <description>Bankomat - Centrumhuset, Myggenäs</description>
        <styleUrl>#icon-22</styleUrl>
        <Point>
          <coordinates>
            11.75207,58.06165,0
          </coordinates>
        </Point>
      </Placemark>
      <Placemark>
        <name>Bankomat - Gamla flygplatsvägen 44</name>
        <description>Bankomat - Gamla flygplatsvägen 44, Torslanda</description>
        <styleUrl>#icon-22</styleUrl>
        <Point>
          <coordinates>
            11.77398,57.70993,0
          </coordinates>
        </Point>
      </Placemark>
      <Placemark>
        <name>Bankomat - Gamla flygplatsvägen 4</name>
        <description>Bankomat - Gamla flygplatsvägen 4, Torslanda</description>
        <styleUrl>#icon-22</styleUrl>
        <Point>
          <coordinates>
            11.78331,57.71339,0
          </coordinates>
        </Point>
      </Placemark>
      <Placemark>
        <name>Bankomat - Torp köpcentrum</name>
        <description>Bankomat - Torp köpcentrum, Uddevalla</description>
        <styleUrl>#icon-22</styleUrl>
        <Point>
          <coordinates>
            11.80575,58.35254,0
          </coordinates>
        </Point>
      </Placemark>
      <Placemark>
        <name>Bankomat - Mellan Sandbergs Plats och kajen</name>
        <description>Bankomat - Mellan Sandbergs Plats och kajen, Stenungsund</description>
        <styleUrl>#icon-22</styleUrl>
        <Point>
          <coordinates>
            11.81707,58.06936,0
          </coordinates>
        </Point>
      </Placemark>
      <Placemark>
        <name>Bankomat - Mellan Sandbergs Plats och kajen</name>
        <description>Bankomat - Mellan Sandbergs Plats och kajen, Stenungsund</description>
        <styleUrl>#icon-22</styleUrl>
        <Point>
          <coordinates>
            11.81707,58.06936,0
          </coordinates>
        </Point>
      </Placemark>
      <Placemark>
        <name>Bankomat - Centrumhuset</name>
        <description>Bankomat - Centrumhuset, Svanesund</description>
        <styleUrl>#icon-22</styleUrl>
        <Point>
          <coordinates>
            11.82017,58.14263,0
          </coordinates>
        </Point>
      </Placemark>
      <Placemark>
        <name>Bankomat - Sveavägen 18</name>
        <description>Bankomat - Sveavägen 18, Töcksfors</description>
        <styleUrl>#icon-22</styleUrl>
        <Point>
          <coordinates>
            11.83874,59.5084,0
          </coordinates>
        </Point>
      </Placemark>
      <Placemark>
        <name>Bankomat - Västtrafiks terminal</name>
        <description>Bankomat - Västtrafiks terminal, Västra frölunda</description>
        <styleUrl>#icon-22</styleUrl>
        <Point>
          <coordinates>
            11.84311,57.6609,0
          </coordinates>
        </Point>
      </Placemark>
      <Placemark>
        <name>Bankomat - Töcksfors shoppingcenter</name>
        <description>Bankomat - Töcksfors shoppingcenter, Töcksfors</description>
        <styleUrl>#icon-22</styleUrl>
        <Point>
          <coordinates>
            11.84479,59.50645,0
          </coordinates>
        </Point>
      </Placemark>
      <Placemark>
        <name>Bankomat - Vårväderstorget 6</name>
        <description>Bankomat - Vårväderstorget 6, Göteborg</description>
        <styleUrl>#icon-22</styleUrl>
        <Point>
          <coordinates>
            11.89207,57.71283,0
          </coordinates>
        </Point>
      </Placemark>
      <Placemark>
        <name>Bankomat - Vårväderstorget 1</name>
        <description>Bankomat - Vårväderstorget 1, Göteborg</description>
        <styleUrl>#icon-22</styleUrl>
        <Point>
          <coordinates>
            11.89228,57.71278,0
          </coordinates>
        </Point>
      </Placemark>
      <Placemark>
        <name>Bankomat - Friskväderstorget 2</name>
        <description>Bankomat - Friskväderstorget 2, Göteborg</description>
        <styleUrl>#icon-22</styleUrl>
        <Point>
          <coordinates>
            11.89251,57.72374,0
          </coordinates>
        </Point>
      </Placemark>
      <Placemark>
        <name>Bankomat - Frölunda torg, nedre plan vid utgång till spårvagnar</name>
        <description>Bankomat - Frölunda torg, nedre plan vid utgång till spårvagnar, Västra frölunda</description>
        <styleUrl>#icon-22</styleUrl>
        <Point>
          <coordinates>
            11.91176,57.65229,0
          </coordinates>
        </Point>
      </Placemark>
      <Placemark>
        <name>Bankomat - Frölunda torg, nedre plan vid utgång till spårvagnar</name>
        <description>Bankomat - Frölunda torg, nedre plan vid utgång till spårvagnar, Västra frölunda</description>
        <styleUrl>#icon-22</styleUrl>
        <Point>
          <coordinates>
            11.91176,57.65229,0
          </coordinates>
        </Point>
      </Placemark>
      <Placemark>
        <name>Bankomat - Frölunda torg, nedre plan vid utgång till spårvagnar</name>
        <description>Bankomat - Frölunda torg, nedre plan vid utgång till spårvagnar, Västra frölunda</description>
        <styleUrl>#icon-22</styleUrl>
        <Point>
          <coordinates>
            11.91176,57.65229,0
          </coordinates>
        </Point>
      </Placemark>
      <Placemark>
        <name>Bankomat - Frölunda torg, nedre plan vid utgång till spårvagnar</name>
        <description>Bankomat - Frölunda torg, nedre plan vid utgång till spårvagnar, Västra frölunda</description>
        <styleUrl>#icon-22</styleUrl>
        <Point>
          <coordinates>
            11.91176,57.65229,0
          </coordinates>
        </Point>
      </Placemark>
      <Placemark>
        <name>Bankomat - Frölunda torg</name>
        <description>Bankomat - Frölunda torg, Västra frölunda</description>
        <styleUrl>#icon-22</styleUrl>
        <Point>
          <coordinates>
            11.91313,57.65249,0
          </coordinates>
        </Point>
      </Placemark>
      <Placemark>
        <name>Bankomat - Skogslyckan</name>
        <description>Bankomat - Skogslyckan, Uddevalla</description>
        <styleUrl>#icon-22</styleUrl>
        <Point>
          <coordinates>
            11.915,58.36117,0
          </coordinates>
        </Point>
      </Placemark>
      <Placemark>
        <name>Bankomat - Topasgatan 1</name>
        <description>Bankomat - Topasgatan 1, Västra frölunda</description>
        <styleUrl>#icon-22</styleUrl>
        <Point>
          <coordinates>
            11.91633,57.64605,0
          </coordinates>
        </Point>
      </Placemark>
      <Placemark>
        <name>Bankomat - Majorna</name>
        <description>Bankomat - Majorna, Göteborg</description>
        <styleUrl>#icon-22</styleUrl>
        <Point>
          <coordinates>
            11.91892,57.69438,0
          </coordinates>
        </Point>
      </Placemark>
      <Placemark>
        <name>Bankomat - Vällebergsvägen 12</name>
        <description>Bankomat - Vällebergsvägen 12, Ljungskile</description>
        <styleUrl>#icon-22</styleUrl>
        <Point>
          <coordinates>
            11.92037,58.2242,0
          </coordinates>
        </Point>
      </Placemark>
      <Placemark>
        <name>Bankomat - Kolhamnsgatan 5</name>
        <description>Bankomat - Kolhamnsgatan 5, Göteborg</description>
        <styleUrl>#icon-22</styleUrl>
        <Point>
          <coordinates>
            11.92041,57.70908,0
          </coordinates>
        </Point>
      </Placemark>
      <Placemark>
        <name>Bankomat - Mariaplan 5</name>
        <description>Bankomat - Mariaplan 5, Göteborg</description>
        <styleUrl>#icon-22</styleUrl>
        <Point>
          <coordinates>
            11.92164,57.68746,0
          </coordinates>
        </Point>
      </Placemark>
      <Placemark>
        <name>Bankomat - Volvo, B-porten</name>
        <description>Bankomat - Volvo, B-porten, Göteborg</description>
        <styleUrl>#icon-22</styleUrl>
        <Point>
          <coordinates>
            11.92289,57.71621,0
          </coordinates>
        </Point>
      </Placemark>
      <Placemark>
        <name>Bankomat - Tuve centrum</name>
        <description>Bankomat - Tuve centrum, Göteborg</description>
        <styleUrl>#icon-22</styleUrl>
        <Point>
          <coordinates>
            11.92734,57.75508,0
          </coordinates>
        </Point>
      </Placemark>
      <Placemark>
        <name>Bankomat - Markmyntsgatan 2</name>
        <description>Bankomat - Markmyntsgatan 2, Göteborg</description>
        <styleUrl>#icon-22</styleUrl>
        <Point>
          <coordinates>
            11.92826,57.67121,0
          </coordinates>
        </Point>
      </Placemark>
      <Placemark>
        <name>Bankomat - Sjukhuset</name>
        <description>Bankomat - Sjukhuset, Uddevalla</description>
        <styleUrl>#icon-22</styleUrl>
        <Point>
          <coordinates>
            11.9298,58.3561,0
          </coordinates>
        </Point>
      </Placemark>
      <Placemark>
        <name>Bankomat - Bussterminalen</name>
        <description>Bankomat - Bussterminalen, Uddevalla</description>
        <styleUrl>#icon-22</styleUrl>
        <Point>
          <coordinates>
            11.93108,58.34999,0
          </coordinates>
        </Point>
      </Placemark>
      <Placemark>
        <name>Bankomat - Torget 4</name>
        <description>Bankomat - Torget 4, Ed</description>
        <styleUrl>#icon-22</styleUrl>
        <Point>
          <coordinates>
            11.93257,58.91205,0
          </coordinates>
        </Point>
      </Placemark>
      <Placemark>
        <name>Bankomat - Norra drottninggatan 10</name>
        <description>Bankomat - Norra drottninggatan 10, Uddevalla</description>
        <styleUrl>#icon-22</styleUrl>
        <Point>
          <coordinates>
            11.9343,58.35027,0
          </coordinates>
        </Point>
      </Placemark>
      <Placemark>
        <name>Bankomat - Wieselgrensplatsen 10</name>
        <description>Bankomat - Wieselgrensplatsen 10, Göteborg</description>
        <styleUrl>#icon-22</styleUrl>
        <Point>
          <coordinates>
            11.93502,57.72134,0
          </coordinates>
        </Point>
      </Placemark>
      <Placemark>
        <name>Bankomat - Stigbergstorget 20</name>
        <description>Bankomat - Stigbergstorget 20, Göteborg</description>
        <styleUrl>#icon-22</styleUrl>
        <Point>
          <coordinates>
            11.93542,57.69917,0
          </coordinates>
        </Point>
      </Placemark>
      <Placemark>
        <name>Bankomat - Kungsgatan 12</name>
        <description>Bankomat - Kungsgatan 12, Uddevalla</description>
        <styleUrl>#icon-22</styleUrl>
        <Point>
          <coordinates>
            11.93547,58.34946,0
          </coordinates>
        </Point>
      </Placemark>
      <Placemark>
        <name>Bankomat - Kungsgatan 12</name>
        <description>Bankomat - Kungsgatan 12, Uddevalla</description>
        <styleUrl>#icon-22</styleUrl>
        <Point>
          <coordinates>
            11.93547,58.34946,0
          </coordinates>
        </Point>
      </Placemark>
      <Placemark>
        <name>Bankomat - Kungsgatan 12</name>
        <description>Bankomat - Kungsgatan 12, Uddevalla</description>
        <styleUrl>#icon-22</styleUrl>
        <Point>
          <coordinates>
            11.93547,58.34946,0
          </coordinates>
        </Point>
      </Placemark>
      <Placemark>
        <name>Bankomat - Hisingsgatan 30</name>
        <description>Bankomat - Hisingsgatan 30, Göteborg</description>
        <styleUrl>#icon-22</styleUrl>
        <Point>
          <coordinates>
            11.94494,57.71949,0
          </coordinates>
        </Point>
      </Placemark>
      <Placemark>
        <name>Bankomat - Högsbo köpcentrum</name>
        <description>Bankomat - Högsbo köpcentrum, Västra frölunda</description>
        <styleUrl>#icon-22</styleUrl>
        <Point>
          <coordinates>
            11.94562,57.6505,0
          </coordinates>
        </Point>
      </Placemark>
      <Placemark>
        <name>Bankomat - Första långgatan 26</name>
        <description>Bankomat - Första långgatan 26, Göteborg</description>
        <styleUrl>#icon-22</styleUrl>
        <Point>
          <coordinates>
            11.94645,57.69957,0
          </coordinates>
        </Point>
      </Placemark>
      <Placemark>
        <name>Bankomat - Hornbach</name>
        <description>Bankomat - Hornbach, Göteborg</description>
        <styleUrl>#icon-22</styleUrl>
        <Point>
          <coordinates>
            11.94646,57.73021,0
          </coordinates>
        </Point>
      </Placemark>
      <Placemark>
        <name>Bankomat - Backaplans köpcentrum</name>
        <description>Bankomat - Backaplans köpcentrum, Göteborg</description>
        <styleUrl>#icon-22</styleUrl>
        <Point>
          <coordinates>
            11.95145,57.72157,0
          </coordinates>
        </Point>
      </Placemark>
      <Placemark>
        <name>Bankomat - Linnegatan 30</name>
        <description>Bankomat - Linnegatan 30, Göteborg</description>
        <styleUrl>#icon-22</styleUrl>
        <Point>
          <coordinates>
            11.9515,57.6965,0
          </coordinates>
        </Point>
      </Placemark>
      <Placemark>
        <name>Bankomat - Motorgatan 1-3</name>
        <description>Bankomat - Motorgatan 1-3, Göteborg</description>
        <styleUrl>#icon-22</styleUrl>
        <Point>
          <coordinates>
            11.95258,57.72175,0
          </coordinates>
        </Point>
      </Placemark>
      <Placemark>
        <name>Bankomat - Sisjö centrum</name>
        <description>Bankomat - Sisjö centrum, Askim</description>
        <styleUrl>#icon-22</styleUrl>
        <Point>
          <coordinates>
            11.95261,57.64012,0
          </coordinates>
        </Point>
      </Placemark>
      <Placemark>
        <name>Bankomat - Hjalmar Brantingsplatsen</name>
        <description>Bankomat - Hjalmar Brantingsplatsen, Göteborg</description>
        <styleUrl>#icon-22</styleUrl>
        <Point>
          <coordinates>
            11.95384,57.72083,0
          </coordinates>
        </Point>
      </Placemark>
      <Placemark>
        <name>Bankomat - Backa2</name>
        <description>Bankomat - Backa2, Göteborg</description>
        <styleUrl>#icon-22</styleUrl>
        <Point>
          <coordinates>
            11.95448,57.72259,0
          </coordinates>
        </Point>
      </Placemark>
      <Placemark>
        <name>Bankomat - Stenpiren resecentrum</name>
        <description>Bankomat - Stenpiren resecentrum, Göteborg</description>
        <styleUrl>#icon-22</styleUrl>
        <Point>
          <coordinates>
            11.95876,57.70596,0
          </coordinates>
        </Point>
      </Placemark>
      <Placemark>
        <name>Bankomat - Cosmopol</name>
        <description>Bankomat - Cosmopol, Göteborg</description>
        <styleUrl>#icon-22</styleUrl>
        <Point>
          <coordinates>
            11.95968,57.70755,0
          </coordinates>
        </Point>
      </Placemark>
      <Placemark>
        <name>Bankomat - Cosmopol</name>
        <description>Bankomat - Cosmopol, Göteborg</description>
        <styleUrl>#icon-22</styleUrl>
        <Point>
          <coordinates>
            11.95968,57.70755,0
          </coordinates>
        </Point>
      </Placemark>
      <Placemark>
        <name>Bankomat - Kungsporten 6 B</name>
        <description>Bankomat - Kungsporten 6 B, Billdal</description>
        <styleUrl>#icon-22</styleUrl>
        <Point>
          <coordinates>
            11.96085,57.5608,0
          </coordinates>
        </Point>
      </Placemark>
      <Placemark>
        <name>Bankomat - Sahlgrenska sjukhuset</name>
        <description>Bankomat - Sahlgrenska sjukhuset, Göteborg</description>
        <styleUrl>#icon-22</styleUrl>
        <Point>
          <coordinates>
            11.96165,57.68262,0
          </coordinates>
        </Point>
      </Placemark>
      <Placemark>
        <name>Bankomat - Sahlgrenska sjukhuset</name>
        <description>Bankomat - Sahlgrenska sjukhuset, Göteborg</description>
        <styleUrl>#icon-22</styleUrl>
        <Point>
          <coordinates>
            11.96165,57.68262,0
          </coordinates>
        </Point>
      </Placemark>
      <Placemark>
        <name>Bankomat - Almedalsmagasinet</name>
        <description>Bankomat - Almedalsmagasinet, Göteborg</description>
        <styleUrl>#icon-22</styleUrl>
        <Point>
          <coordinates>
            11.96639,57.70438,0
          </coordinates>
        </Point>
      </Placemark>
      <Placemark>
        <name>Bankomat - ESS-hallen</name>
        <description>Bankomat - ESS-hallen, Särö</description>
        <styleUrl>#icon-22</styleUrl>
        <Point>
          <coordinates>
            11.96643,57.5203,0
          </coordinates>
        </Point>
      </Placemark>
      <Placemark>
        <name>Bankomat - Vasagatan 26</name>
        <description>Bankomat - Vasagatan 26, Göteborg</description>
        <styleUrl>#icon-22</styleUrl>
        <Point>
          <coordinates>
            11.9673,57.69848,0
          </coordinates>
        </Point>
      </Placemark>
      <Placemark>
        <name>Bankomat - SEB</name>
        <description>Bankomat - SEB, Göteborg</description>
        <styleUrl>#icon-22</styleUrl>
        <Point>
          <coordinates>
            11.96733,57.70837,0
          </coordinates>
        </Point>
      </Placemark>
      <Placemark>
        <name>Bankomat - SEB</name>
        <description>Bankomat - SEB, Göteborg</description>
        <styleUrl>#icon-22</styleUrl>
        <Point>
          <coordinates>
            11.96733,57.70837,0
          </coordinates>
        </Point>
      </Placemark>
      <Placemark>
        <name>Bankomat - Kongahälla shopping</name>
        <description>Bankomat - Kongahälla shopping, Kungälv</description>
        <styleUrl>#icon-22</styleUrl>
        <Point>
          <coordinates>
            11.96744,57.87418,0
          </coordinates>
        </Point>
      </Placemark>
      <Placemark>
        <name>Bankomat - Kongahälla shopping</name>
        <description>Bankomat - Kongahälla shopping, Kungälv</description>
        <styleUrl>#icon-22</styleUrl>
        <Point>
          <coordinates>
            11.96744,57.87418,0
          </coordinates>
        </Point>
      </Placemark>
      <Placemark>
        <name>Bankomat - Kungälv resecentrum</name>
        <description>Bankomat - Kungälv resecentrum, Kungälv</description>
        <styleUrl>#icon-22</styleUrl>
        <Point>
          <coordinates>
            11.96802,57.87185,0
          </coordinates>
        </Point>
      </Placemark>
      <Placemark>
        <name>Bankomat - Södra Hamngatan 37</name>
        <description>Bankomat - Södra Hamngatan 37, Göteborg</description>
        <styleUrl>#icon-22</styleUrl>
        <Point>
          <coordinates>
            11.96885,57.7065,0
          </coordinates>
        </Point>
      </Placemark>
      <Placemark>
        <name>Bankomat - Infocenter Nordstan</name>
        <description>Bankomat - Infocenter Nordstan, Göteborg</description>
        <styleUrl>#icon-22</styleUrl>
        <Point>
          <coordinates>
            11.96887,57.70898,0
          </coordinates>
        </Point>
      </Placemark>
      <Placemark>
        <name>Bankomat - Infocenter Nordstan</name>
        <description>Bankomat - Infocenter Nordstan, Göteborg</description>
        <styleUrl>#icon-22</styleUrl>
        <Point>
          <coordinates>
            11.96887,57.70898,0
          </coordinates>
        </Point>
      </Placemark>
      <Placemark>
        <name>Bankomat - Nordstan Information</name>
        <description>Bankomat - Nordstan Information, Göteborg</description>
        <styleUrl>#icon-22</styleUrl>
        <Point>
          <coordinates>
            11.96911,57.70869,0
          </coordinates>
        </Point>
      </Placemark>
      <Placemark>
        <name>Bankomat - Nordstan Information</name>
        <description>Bankomat - Nordstan Information, Göteborg</description>
        <styleUrl>#icon-22</styleUrl>
        <Point>
          <coordinates>
            11.96911,57.70869,0
          </coordinates>
        </Point>
      </Placemark>
      <Placemark>
        <name>Bankomat - Kungsportsplatsen 2</name>
        <description>Bankomat - Kungsportsplatsen 2, Göteborg</description>
        <styleUrl>#icon-22</styleUrl>
        <Point>
          <coordinates>
            11.97002,57.70418,0
          </coordinates>
        </Point>
      </Placemark>
      <Placemark>
        <name>Bankomat - Kungsportsplatsen 2</name>
        <description>Bankomat - Kungsportsplatsen 2, Göteborg</description>
        <styleUrl>#icon-22</styleUrl>
        <Point>
          <coordinates>
            11.97002,57.70418,0
          </coordinates>
        </Point>
      </Placemark>
      <Placemark>
        <name>Bankomat - Landala torg</name>
        <description>Bankomat - Landala torg, Göteborg</description>
        <styleUrl>#icon-22</styleUrl>
        <Point>
          <coordinates>
            11.97045,57.69355,0
          </coordinates>
        </Point>
      </Placemark>
      <Placemark>
        <name>Bankomat - Brunnsbotorget 5</name>
        <description>Bankomat - Brunnsbotorget 5, Hisings backa</description>
        <styleUrl>#icon-22</styleUrl>
        <Point>
          <coordinates>
            11.97104,57.72826,0
          </coordinates>
        </Point>
      </Placemark>
      <Placemark>
        <name>Bankomat - Doktor Fries torg 17</name>
        <description>Bankomat - Doktor Fries torg 17, Göteborg</description>
        <styleUrl>#icon-22</styleUrl>
        <Point>
          <coordinates>
            11.97206,57.68416,0
          </coordinates>
        </Point>
      </Placemark>
      <Placemark>
        <name>Bankomat - Göteborg C</name>
        <description>Bankomat - Göteborg C, Göteborg</description>
        <styleUrl>#icon-22</styleUrl>
        <Point>
          <coordinates>
            11.97235,57.70927,0
          </coordinates>
        </Point>
      </Placemark>
      <Placemark>
        <name>Bankomat - Göteborg C</name>
        <description>Bankomat - Göteborg C, Göteborg</description>
        <styleUrl>#icon-22</styleUrl>
        <Point>
          <coordinates>
            11.97235,57.70927,0
          </coordinates>
        </Point>
      </Placemark>
      <Placemark>
        <name>Bankomat - Göteborg C</name>
        <description>Bankomat - Göteborg C, Göteborg</description>
        <styleUrl>#icon-22</styleUrl>
        <Point>
          <coordinates>
            11.9729,57.70866,0
          </coordinates>
        </Point>
      </Placemark>
      <Placemark>
        <name>Bankomat - Göteborg C</name>
        <description>Bankomat - Göteborg C, Göteborg</description>
        <styleUrl>#icon-22</styleUrl>
        <Point>
          <coordinates>
            11.9729,57.70866,0
          </coordinates>
        </Point>
      </Placemark>
      <Placemark>
        <name>Bankomat - Göteborg C</name>
        <description>Bankomat - Göteborg C, Göteborg</description>
        <styleUrl>#icon-22</styleUrl>
        <Point>
          <coordinates>
            11.97343,57.70854,0
          </coordinates>
        </Point>
      </Placemark>
      <Placemark>
        <name>Bankomat - Göteborg C</name>
        <description>Bankomat - Göteborg C, Göteborg</description>
        <styleUrl>#icon-22</styleUrl>
        <Point>
          <coordinates>
            11.97343,57.70854,0
          </coordinates>
        </Point>
      </Placemark>
      <Placemark>
        <name>Bankomat - Vita fläcken</name>
        <description>Bankomat - Vita fläcken, Kungälv</description>
        <styleUrl>#icon-22</styleUrl>
        <Point>
          <coordinates>
            11.9736,57.87368,0
          </coordinates>
        </Point>
      </Placemark>
      <Placemark>
        <name>Bankomat - City Avenyn, plan-1</name>
        <description>Bankomat - City Avenyn, plan-1, Göteborg</description>
        <styleUrl>#icon-22</styleUrl>
        <Point>
          <coordinates>
            11.9771,57.69935,0
          </coordinates>
        </Point>
      </Placemark>
      <Placemark>
        <name>Bankomat - City Avenyn, plan-1</name>
        <description>Bankomat - City Avenyn, plan-1, Göteborg</description>
        <styleUrl>#icon-22</styleUrl>
        <Point>
          <coordinates>
            11.9771,57.69935,0
          </coordinates>
        </Point>
      </Placemark>
      <Placemark>
        <name>Bankomat - City Avenyn, plan-1</name>
        <description>Bankomat - City Avenyn, plan-1, Göteborg</description>
        <styleUrl>#icon-22</styleUrl>
        <Point>
          <coordinates>
            11.9771,57.69935,0
          </coordinates>
        </Point>
      </Placemark>
      <Placemark>
        <name>Bankomat - Selma Lagerlöfs Torg</name>
        <description>Bankomat - Selma Lagerlöfs Torg, Hisings backa</description>
        <styleUrl>#icon-22</styleUrl>
        <Point>
          <coordinates>
            11.98111,57.74959,0
          </coordinates>
        </Point>
      </Placemark>
      <Placemark>
        <name>Bankomat - Selma Lagerlöfs Torg</name>
        <description>Bankomat - Selma Lagerlöfs Torg, Hisings backa</description>
        <styleUrl>#icon-22</styleUrl>
        <Point>
          <coordinates>
            11.98111,57.74959,0
          </coordinates>
        </Point>
      </Placemark>
      <Placemark>
        <name>Bankomat - Willys</name>
        <description>Bankomat - Willys, Göteborg</description>
        <styleUrl>#icon-22</styleUrl>
        <Point>
          <coordinates>
            11.98582,57.68745,0
          </coordinates>
        </Point>
      </Placemark>
      <Placemark>
        <name>Bankomat - Svenska Mässan, ingång 5</name>
        <description>Bankomat - Svenska Mässan, ingång 5, Göteborg</description>
        <styleUrl>#icon-22</styleUrl>
        <Point>
          <coordinates>
            11.98772,57.69737,0
          </coordinates>
        </Point>
      </Placemark>
      <Placemark>
        <name>Bankomat - Kärraplatsen 7</name>
        <description>Bankomat - Kärraplatsen 7, Hisings kärra</description>
        <styleUrl>#icon-22</styleUrl>
        <Point>
          <coordinates>
            11.9892,57.7943,0
          </coordinates>
        </Point>
      </Placemark>
      <Placemark>
        <name>Bankomat - Liseberg</name>
        <description>Bankomat - Liseberg, Göteborg</description>
        <styleUrl>#icon-22</styleUrl>
        <Point>
          <coordinates>
            11.99088,57.697,0
          </coordinates>
        </Point>
      </Placemark>
      <Placemark>
        <name>Bankomat - Stigs center</name>
        <description>Bankomat - Stigs center, Hisings backa</description>
        <styleUrl>#icon-22</styleUrl>
        <Point>
          <coordinates>
            11.99401,57.7473,0
          </coordinates>
        </Point>
      </Placemark>
      <Placemark>
        <name>Bankomat - Liseberg</name>
        <description>Bankomat - Liseberg, Göteborg</description>
        <styleUrl>#icon-22</styleUrl>
        <Point>
          <coordinates>
            11.99558,57.6952,0
          </coordinates>
        </Point>
      </Placemark>
      <Placemark>
        <name>Bankomat - Liseberg</name>
        <description>Bankomat - Liseberg, Göteborg</description>
        <styleUrl>#icon-22</styleUrl>
        <Point>
          <coordinates>
            11.99558,57.6952,0
          </coordinates>
        </Point>
      </Placemark>
      <Placemark>
        <name>Bankomat - Centrumvägen 6</name>
        <description>Bankomat - Centrumvägen 6, Färgelanda</description>
        <styleUrl>#icon-22</styleUrl>
        <Point>
          <coordinates>
            11.99657,58.56757,0
          </coordinates>
        </Point>
      </Placemark>
      <Placemark>
        <name>Bankomat - Redbergsvägen 11</name>
        <description>Bankomat - Redbergsvägen 11, Göteborg</description>
        <styleUrl>#icon-22</styleUrl>
        <Point>
          <coordinates>
            11.9989,57.7145,0
          </coordinates>
        </Point>
      </Placemark>
      <Placemark>
        <name>Bankomat - Redbergsvägen 40</name>
        <description>Bankomat - Redbergsvägen 40, Göteborg</description>
        <styleUrl>#icon-22</styleUrl>
        <Point>
          <coordinates>
            12.00267,57.7155,0
          </coordinates>
        </Point>
      </Placemark>
      <Placemark>
        <name>Bankomat - Åby travbana</name>
        <description>Bankomat - Åby travbana, Mölndal</description>
        <styleUrl>#icon-22</styleUrl>
        <Point>
          <coordinates>
            12.00311,57.64945,0
          </coordinates>
        </Point>
      </Placemark>
      <Placemark>
        <name>Bankomat - Gamlestaden resecentrum</name>
        <description>Bankomat - Gamlestaden resecentrum, Göteborg</description>
        <styleUrl>#icon-22</styleUrl>
        <Point>
          <coordinates>
            12.00478,57.72778,0
          </coordinates>
        </Point>
      </Placemark>
      <Placemark>
        <name>Bankomat - Prästgårdsängen 1</name>
        <description>Bankomat - Prästgårdsängen 1, Göteborg</description>
        <styleUrl>#icon-22</styleUrl>
        <Point>
          <coordinates>
            12.00693,57.70472,0
          </coordinates>
        </Point>
      </Placemark>
      <Placemark>
        <name>Bankomat - Göteborgsvägen 95</name>
        <description>Bankomat - Göteborgsvägen 95, Mölndal</description>
        <styleUrl>#icon-22</styleUrl>
        <Point>
          <coordinates>
            12.01054,57.66922,0
          </coordinates>
        </Point>
      </Placemark>
      <Placemark>
        <name>Bankomat - Göteborgsvägen 95</name>
        <description>Bankomat - Göteborgsvägen 95, Mölndal</description>
        <styleUrl>#icon-22</styleUrl>
        <Point>
          <coordinates>
            12.01054,57.66922,0
          </coordinates>
        </Point>
      </Placemark>
      <Placemark>
        <name>Bankomat - Storgatan 32 A</name>
        <description>Bankomat - Storgatan 32 A, Mölndal</description>
        <styleUrl>#icon-22</styleUrl>
        <Point>
          <coordinates>
            12.01133,57.65512,0
          </coordinates>
        </Point>
      </Placemark>
      <Placemark>
        <name>Bankomat - Mölndals vårdcentral</name>
        <description>Bankomat - Mölndals vårdcentral, Mölndal</description>
        <styleUrl>#icon-22</styleUrl>
        <Point>
          <coordinates>
            12.0119,57.66152,0
          </coordinates>
        </Point>
      </Placemark>
      <Placemark>
        <name>Bankomat - Göteborgsvägen 217</name>
        <description>Bankomat - Göteborgsvägen 217, Bohus</description>
        <styleUrl>#icon-22</styleUrl>
        <Point>
          <coordinates>
            12.01528,57.85105,0
          </coordinates>
        </Point>
      </Placemark>
      <Placemark>
        <name>Bankomat - Knutpunkten</name>
        <description>Bankomat - Knutpunkten, Mölndal</description>
        <styleUrl>#icon-22</styleUrl>
        <Point>
          <coordinates>
            12.01738,57.65545,0
          </coordinates>
        </Point>
      </Placemark>
      <Placemark>
        <name>Bankomat - Onsala kyrkby 3</name>
        <description>Bankomat - Onsala kyrkby 3, Onsala</description>
        <styleUrl>#icon-22</styleUrl>
        <Point>
          <coordinates>
            12.01907,57.41358,0
          </coordinates>
        </Point>
      </Placemark>
      <Placemark>
        <name>Bankomat - Hjällbo centrum</name>
        <description>Bankomat - Hjällbo centrum, Angered</description>
        <styleUrl>#icon-22</styleUrl>
        <Point>
          <coordinates>
            12.02019,57.76919,0
          </coordinates>
        </Point>
      </Placemark>
      <Placemark>
        <name>Bankomat - Hjällbo centrum</name>
        <description>Bankomat - Hjällbo centrum, Angered</description>
        <styleUrl>#icon-22</styleUrl>
        <Point>
          <coordinates>
            12.02019,57.76919,0
          </coordinates>
        </Point>
      </Placemark>
      <Placemark>
        <name>Bankomat - Kortedala torg 3</name>
        <description>Bankomat - Kortedala torg 3, Göteborg</description>
        <styleUrl>#icon-22</styleUrl>
        <Point>
          <coordinates>
            12.03206,57.75178,0
          </coordinates>
        </Point>
      </Placemark>
      <Placemark>
        <name>Bankomat - Gårdsten centrum</name>
        <description>Bankomat - Gårdsten centrum, Angered</description>
        <styleUrl>#icon-22</styleUrl>
        <Point>
          <coordinates>
            12.03248,57.80358,0
          </coordinates>
        </Point>
      </Placemark>
      <Placemark>
        <name>Bankomat - Shopping park</name>
        <description>Bankomat - Shopping park, Kållered</description>
        <styleUrl>#icon-22</styleUrl>
        <Point>
          <coordinates>
            12.04456,57.60815,0
          </coordinates>
        </Point>
      </Placemark>
      <Placemark>
        <name>Bankomat - ICA Maxi</name>
        <description>Bankomat - ICA Maxi, Nödinge</description>
        <styleUrl>#icon-22</styleUrl>
        <Point>
          <coordinates>
            12.04499,57.8922,0
          </coordinates>
        </Point>
      </Placemark>
      <Placemark>
        <name>Bankomat - Östra sjukhuset</name>
        <description>Bankomat - Östra sjukhuset, Göteborg</description>
        <styleUrl>#icon-22</styleUrl>
        <Point>
          <coordinates>
            12.0495,57.7219,0
          </coordinates>
        </Point>
      </Placemark>
      <Placemark>
        <name>Bankomat - Kultivatorgatan 1</name>
        <description>Bankomat - Kultivatorgatan 1, Angered</description>
        <styleUrl>#icon-22</styleUrl>
        <Point>
          <coordinates>
            12.04974,57.79734,0
          </coordinates>
        </Point>
      </Placemark>
      <Placemark>
        <name>Bankomat - Angered Centrum</name>
        <description>Bankomat - Angered Centrum, Angered</description>
        <styleUrl>#icon-22</styleUrl>
        <Point>
          <coordinates>
            12.05072,57.79702,0
          </coordinates>
        </Point>
      </Placemark>
      <Placemark>
        <name>Bankomat - Genavägen 22</name>
        <description>Bankomat - Genavägen 22, Högsäter</description>
        <styleUrl>#icon-22</styleUrl>
        <Point>
          <coordinates>
            12.05545,58.65008,0
          </coordinates>
        </Point>
      </Placemark>
      <Placemark>
        <name>Bankomat - Bergsjön</name>
        <description>Bankomat - Bergsjön, Göteborg</description>
        <styleUrl>#icon-22</styleUrl>
        <Point>
          <coordinates>
            12.06987,57.75621,0
          </coordinates>
        </Point>
      </Placemark>
      <Placemark>
        <name>Bankomat - Kungsmässan, ingång 2</name>
        <description>Bankomat - Kungsmässan, ingång 2, Kungsbacka</description>
        <styleUrl>#icon-22</styleUrl>
        <Point>
          <coordinates>
            12.07397,57.49283,0
          </coordinates>
        </Point>
      </Placemark>
      <Placemark>
        <name>Bankomat - Kungsmässan, ingång 5</name>
        <description>Bankomat - Kungsmässan, ingång 5, Kungsbacka</description>
        <styleUrl>#icon-22</styleUrl>
        <Point>
          <coordinates>
            12.07409,57.49217,0
          </coordinates>
        </Point>
      </Placemark>
      <Placemark>
        <name>Bankomat - Nygatan 10</name>
        <description>Bankomat - Nygatan 10, Kungsbacka</description>
        <styleUrl>#icon-22</styleUrl>
        <Point>
          <coordinates>
            12.07652,57.48522,0
          </coordinates>
        </Point>
      </Placemark>
      <Placemark>
        <name>Bankomat - Göteborgsvägen 88</name>
        <description>Bankomat - Göteborgsvägen 88, Sävedalen</description>
        <styleUrl>#icon-22</styleUrl>
        <Point>
          <coordinates>
            12.07693,57.73335,0
          </coordinates>
        </Point>
      </Placemark>
      <Placemark>
        <name>Bankomat - Kungsbacka station</name>
        <description>Bankomat - Kungsbacka station, Kungsbacka</description>
        <styleUrl>#icon-22</styleUrl>
        <Point>
          <coordinates>
            12.07925,57.48925,0
          </coordinates>
        </Point>
      </Placemark>
      <Placemark>
        <name>Bankomat - Lindome centrum</name>
        <description>Bankomat - Lindome centrum, Lindome</description>
        <styleUrl>#icon-22</styleUrl>
        <Point>
          <coordinates>
            12.08878,57.57753,0
          </coordinates>
        </Point>
      </Placemark>
      <Placemark>
        <name>Bankomat - Galleria Allum</name>
        <description>Bankomat - Galleria Allum, Partille</description>
        <styleUrl>#icon-22</styleUrl>
        <Point>
          <coordinates>
            12.10573,57.7391,0
          </coordinates>
        </Point>
      </Placemark>
      <Placemark>
        <name>Bankomat - Galleria Allum</name>
        <description>Bankomat - Galleria Allum, Partille</description>
        <styleUrl>#icon-22</styleUrl>
        <Point>
          <coordinates>
            12.10573,57.7391,0
          </coordinates>
        </Point>
      </Placemark>
      <Placemark>
        <name>Bankomat - Galleria Allum</name>
        <description>Bankomat - Galleria Allum, Partille</description>
        <styleUrl>#icon-22</styleUrl>
        <Point>
          <coordinates>
            12.10573,57.7391,0
          </coordinates>
        </Point>
      </Placemark>
      <Placemark>
        <name>Bankomat - Gamla kronvägen 19 A</name>
        <description>Bankomat - Gamla kronvägen 19 A, Partille</description>
        <styleUrl>#icon-22</styleUrl>
        <Point>
          <coordinates>
            12.11029,57.74027,0
          </coordinates>
        </Point>
      </Placemark>
      <Placemark>
        <name>Bankomat - Härryda</name>
        <description>Bankomat - Härryda, Mölnlycke</description>
        <styleUrl>#icon-22</styleUrl>
        <Point>
          <coordinates>
            12.11702,57.65925,0
          </coordinates>
        </Point>
      </Placemark>
      <Placemark>
        <name>Bankomat - Härryda</name>
        <description>Bankomat - Härryda, Mölnlycke</description>
        <styleUrl>#icon-22</styleUrl>
        <Point>
          <coordinates>
            12.11702,57.65925,0
          </coordinates>
        </Point>
      </Placemark>
      <Placemark>
        <name>Bankomat - Älvängen resecenter</name>
        <description>Bankomat - Älvängen resecenter, Älvängen</description>
        <styleUrl>#icon-22</styleUrl>
        <Point>
          <coordinates>
            12.11728,57.95777,0
          </coordinates>
        </Point>
      </Placemark>
      <Placemark>
        <name>Bankomat - Göteborgsvägen 99 B</name>
        <description>Bankomat - Göteborgsvägen 99 B, Älvängen</description>
        <styleUrl>#icon-22</styleUrl>
        <Point>
          <coordinates>
            12.1229,57.95821,0
          </coordinates>
        </Point>
      </Placemark>
      <Placemark>
        <name>Bankomat - Buavägen 30</name>
        <description>Bankomat - Buavägen 30, Bua</description>
        <styleUrl>#icon-22</styleUrl>
        <Point>
          <coordinates>
            12.12596,57.23633,0
          </coordinates>
        </Point>
      </Placemark>
      <Placemark>
        <name>Bankomat - Göteborgsvägen 49</name>
        <description>Bankomat - Göteborgsvägen 49, Lilla edet</description>
        <styleUrl>#icon-22</styleUrl>
        <Point>
          <coordinates>
            12.12782,58.13717,0
          </coordinates>
        </Point>
      </Placemark>
      <Placemark>
        <name>Bankomat - Kvarnåsgatan 3</name>
        <description>Bankomat - Kvarnåsgatan 3, Årjäng</description>
        <styleUrl>#icon-22</styleUrl>
        <Point>
          <coordinates>
            12.13161,59.39241,0
          </coordinates>
        </Point>
      </Placemark>
      <Placemark>
        <name>Bankomat - Långgatan 8</name>
        <description>Bankomat - Långgatan 8, Lödöse</description>
        <styleUrl>#icon-22</styleUrl>
        <Point>
          <coordinates>
            12.15325,58.03303,0
          </coordinates>
        </Point>
      </Placemark>
      <Placemark>
        <name>Bankomat - Koppom</name>
        <description>Bankomat - Koppom, Koppom</description>
        <styleUrl>#icon-22</styleUrl>
        <Point>
          <coordinates>
            12.16211,59.71581,0
          </coordinates>
        </Point>
      </Placemark>
      <Placemark>
        <name>Bankomat - Torggatan 14</name>
        <description>Bankomat - Torggatan 14, Bäckefors</description>
        <styleUrl>#icon-22</styleUrl>
        <Point>
          <coordinates>
            12.16271,58.80602,0
          </coordinates>
        </Point>
      </Placemark>
      <Placemark>
        <name>Bankomat - Torstensviksvägen 3</name>
        <description>Bankomat - Torstensviksvägen 3, Frillesås</description>
        <styleUrl>#icon-22</styleUrl>
        <Point>
          <coordinates>
            12.17474,57.31672,0
          </coordinates>
        </Point>
      </Placemark>
      <Placemark>
        <name>Bankomat - Storgatan 13</name>
        <description>Bankomat - Storgatan 13, Bengtsfors</description>
        <styleUrl>#icon-22</styleUrl>
        <Point>
          <coordinates>
            12.22503,59.02925,0
          </coordinates>
        </Point>
      </Placemark>
      <Placemark>
        <name>Bankomat - Galleria Trädgården, nedre ingången</name>
        <description>Bankomat - Galleria Trädgården, nedre ingången, Varberg</description>
        <styleUrl>#icon-22</styleUrl>
        <Point>
          <coordinates>
            12.24733,57.10621,0
          </coordinates>
        </Point>
      </Placemark>
      <Placemark>
        <name>Bankomat - Galleria Trädgården, nedre ingången</name>
        <description>Bankomat - Galleria Trädgården, nedre ingången, Varberg</description>
        <styleUrl>#icon-22</styleUrl>
        <Point>
          <coordinates>
            12.24733,57.10621,0
          </coordinates>
        </Point>
      </Placemark>
      <Placemark>
        <name>Bankomat - Stenebyvägen 13 A</name>
        <description>Bankomat - Stenebyvägen 13 A, Billingsfors</description>
        <styleUrl>#icon-22</styleUrl>
        <Point>
          <coordinates>
            12.24944,58.98417,0
          </coordinates>
        </Point>
      </Placemark>
      <Placemark>
        <name>Bankomat - Bäckgatan 16</name>
        <description>Bankomat - Bäckgatan 16, Varberg</description>
        <styleUrl>#icon-22</styleUrl>
        <Point>
          <coordinates>
            12.25038,57.10482,0
          </coordinates>
        </Point>
      </Placemark>
      <Placemark>
        <name>Bankomat - ICA</name>
        <description>Bankomat - ICA, Varberg</description>
        <styleUrl>#icon-22</styleUrl>
        <Point>
          <coordinates>
            12.25743,57.11665,0
          </coordinates>
        </Point>
      </Placemark>
      <Placemark>
        <name>Bankomat - Lilla torget 7</name>
        <description>Bankomat - Lilla torget 7, Lerum</description>
        <styleUrl>#icon-22</styleUrl>
        <Point>
          <coordinates>
            12.26796,57.76955,0
          </coordinates>
        </Point>
      </Placemark>
      <Placemark>
        <name>Bankomat - Solkatten köpcentrum</name>
        <description>Bankomat - Solkatten köpcentrum, Lerum</description>
        <styleUrl>#icon-22</styleUrl>
        <Point>
          <coordinates>
            12.26875,57.76948,0
          </coordinates>
        </Point>
      </Placemark>
      <Placemark>
        <name>Bankomat - Håstens torg</name>
        <description>Bankomat - Håstens torg, Varberg</description>
        <styleUrl>#icon-22</styleUrl>
        <Point>
          <coordinates>
            12.27743,57.11241,0
          </coordinates>
        </Point>
      </Placemark>
      <Placemark>
        <name>Bankomat - Swedbank</name>
        <description>Bankomat - Swedbank, Trollhättan</description>
        <styleUrl>#icon-22</styleUrl>
        <Point>
          <coordinates>
            12.28584,58.2845,0
          </coordinates>
        </Point>
      </Placemark>
      <Placemark>
        <name>Bankomat - Swedbank</name>
        <description>Bankomat - Swedbank, Trollhättan</description>
        <styleUrl>#icon-22</styleUrl>
        <Point>
          <coordinates>
            12.28584,58.2845,0
          </coordinates>
        </Point>
      </Placemark>
      <Placemark>
        <name>Bankomat - Charlottenbergs shoppingcenter</name>
        <description>Bankomat - Charlottenbergs shoppingcenter, Charlottenberg</description>
        <styleUrl>#icon-22</styleUrl>
        <Point>
          <coordinates>
            12.28981,59.88189,0
          </coordinates>
        </Point>
      </Placemark>
      <Placemark>
        <name>Bankomat - Affärshuset Oden</name>
        <description>Bankomat - Affärshuset Oden, Trollhättan</description>
        <styleUrl>#icon-22</styleUrl>
        <Point>
          <coordinates>
            12.29115,58.28467,0
          </coordinates>
        </Point>
      </Placemark>
      <Placemark>
        <name>Bankomat - Affärshuset Oden</name>
        <description>Bankomat - Affärshuset Oden, Trollhättan</description>
        <styleUrl>#icon-22</styleUrl>
        <Point>
          <coordinates>
            12.29115,58.28467,0
          </coordinates>
        </Point>
      </Placemark>
      <Placemark>
        <name>Bankomat - Affärshuset Oden</name>
        <description>Bankomat - Affärshuset Oden, Trollhättan</description>
        <styleUrl>#icon-22</styleUrl>
        <Point>
          <coordinates>
            12.29115,58.28467,0
          </coordinates>
        </Point>
      </Placemark>
      <Placemark>
        <name>Bankomat - Karlstorpsvägen 100</name>
        <description>Bankomat - Karlstorpsvägen 100, Trollhättan</description>
        <styleUrl>#icon-22</styleUrl>
        <Point>
          <coordinates>
            12.29433,58.27118,0
          </coordinates>
        </Point>
      </Placemark>
      <Placemark>
        <name>Bankomat - Landvetter flygplats, utrikes</name>
        <description>Bankomat - Landvetter flygplats, utrikes, Härryda</description>
        <styleUrl>#icon-22</styleUrl>
        <Point>
          <coordinates>
            12.29521,57.66803,0
          </coordinates>
        </Point>
      </Placemark>
      <Placemark>
        <name>Bankomat - Stenebyvägen 30</name>
        <description>Bankomat - Stenebyvägen 30, Dals långed</description>
        <styleUrl>#icon-22</styleUrl>
        <Point>
          <coordinates>
            12.29644,58.92771,0
          </coordinates>
        </Point>
      </Placemark>
      <Placemark>
        <name>Bankomat - Mjörnbotorget</name>
        <description>Bankomat - Mjörnbotorget, Gråbo</description>
        <styleUrl>#icon-22</styleUrl>
        <Point>
          <coordinates>
            12.2986,57.83655,0
          </coordinates>
        </Point>
      </Placemark>
      <Placemark>
        <name>Bankomat - Torggatan 7</name>
        <description>Bankomat - Torggatan 7, Charlottenberg</description>
        <styleUrl>#icon-22</styleUrl>
        <Point>
          <coordinates>
            12.30381,59.88386,0
          </coordinates>
        </Point>
      </Placemark>
      <Placemark>
        <name>Bankomat - SIBA-huset</name>
        <description>Bankomat - SIBA-huset, Trollhättan</description>
        <styleUrl>#icon-22</styleUrl>
        <Point>
          <coordinates>
            12.30857,58.31238,0
          </coordinates>
        </Point>
      </Placemark>
      <Placemark>
        <name>Bankomat - Kärna Kors</name>
        <description>Bankomat - Kärna Kors, Vänersborg</description>
        <styleUrl>#icon-22</styleUrl>
        <Point>
          <coordinates>
            12.32248,58.3793,0
          </coordinates>
        </Point>
      </Placemark>
      <Placemark>
        <name>Bankomat - Drottninggatan 10</name>
        <description>Bankomat - Drottninggatan 10, Vänersborg</description>
        <styleUrl>#icon-22</styleUrl>
        <Point>
          <coordinates>
            12.32264,58.38176,0
          </coordinates>
        </Point>
      </Placemark>
      <Placemark>
        <name>Bankomat - Trenova Center</name>
        <description>Bankomat - Trenova Center, Vänersborg</description>
        <styleUrl>#icon-22</styleUrl>
        <Point>
          <coordinates>
            12.33229,58.37768,0
          </coordinates>
        </Point>
      </Placemark>
      <Placemark>
        <name>Bankomat - Trenova Center</name>
        <description>Bankomat - Trenova Center, Vänersborg</description>
        <styleUrl>#icon-22</styleUrl>
        <Point>
          <coordinates>
            12.33229,58.37768,0
          </coordinates>
        </Point>
      </Placemark>
      <Placemark>
        <name>Bankomat - Trenova Center</name>
        <description>Bankomat - Trenova Center, Vänersborg</description>
        <styleUrl>#icon-22</styleUrl>
        <Point>
          <coordinates>
            12.33229,58.37768,0
          </coordinates>
        </Point>
      </Placemark>
      <Placemark>
        <name>Bankomat - Viskastigen 38</name>
        <description>Bankomat - Viskastigen 38, Veddige</description>
        <styleUrl>#icon-22</styleUrl>
        <Point>
          <coordinates>
            12.33593,57.26745,0
          </coordinates>
        </Point>
      </Placemark>
      <Placemark>
        <name>Bankomat - Storgatan 15</name>
        <description>Bankomat - Storgatan 15, Brålanda</description>
        <styleUrl>#icon-22</styleUrl>
        <Point>
          <coordinates>
            12.3501,58.56303,0
          </coordinates>
        </Point>
      </Placemark>
      <Placemark>
        <name>Bankomat - Floda centrum</name>
        <description>Bankomat - Floda centrum, Floda</description>
        <styleUrl>#icon-22</styleUrl>
        <Point>
          <coordinates>
            12.36177,57.80832,0
          </coordinates>
        </Point>
      </Placemark>
      <Placemark>
        <name>Bankomat - Jössevägen 6</name>
        <description>Bankomat - Jössevägen 6, Åmotfors</description>
        <styleUrl>#icon-22</styleUrl>
        <Point>
          <coordinates>
            12.36343,59.76317,0
          </coordinates>
        </Point>
      </Placemark>
      <Placemark>
        <name>Bankomat - Storegårdsvägen 6</name>
        <description>Bankomat - Storegårdsvägen 6, Vargön</description>
        <styleUrl>#icon-22</styleUrl>
        <Point>
          <coordinates>
            12.3903,58.35572,0
          </coordinates>
        </Point>
      </Placemark>
      <Placemark>
        <name>Bankomat - Fastarpsvägen 38</name>
        <description>Bankomat - Fastarpsvägen 38, Tvååker</description>
        <styleUrl>#icon-22</styleUrl>
        <Point>
          <coordinates>
            12.39743,57.0423,0
          </coordinates>
        </Point>
      </Placemark>
      <Placemark>
        <name>Bankomat - Storvägen 38</name>
        <description>Bankomat - Storvägen 38, Åsensbruk</description>
        <styleUrl>#icon-22</styleUrl>
        <Point>
          <coordinates>
            12.42108,58.80643,0
          </coordinates>
        </Point>
      </Placemark>
      <Placemark>
        <name>Bankomat - Hyssnavägen 1</name>
        <description>Bankomat - Hyssnavägen 1, Sätila</description>
        <styleUrl>#icon-22</styleUrl>
        <Point>
          <coordinates>
            12.43372,57.54238,0
          </coordinates>
        </Point>
      </Placemark>
      <Placemark>
        <name>Bankomat - Köpmantorget 1</name>
        <description>Bankomat - Köpmantorget 1, Mellerud</description>
        <styleUrl>#icon-22</styleUrl>
        <Point>
          <coordinates>
            12.45199,58.69899,0
          </coordinates>
        </Point>
      </Placemark>
      <Placemark>
        <name>Bankomat - Varbergsvägen 438</name>
        <description>Bankomat - Varbergsvägen 438, Horred</description>
        <styleUrl>#icon-22</styleUrl>
        <Point>
          <coordinates>
            12.4753,57.35343,0
          </coordinates>
        </Point>
      </Placemark>
      <Placemark>
        <name>Bankomat - Falkenbergs sparbank</name>
        <description>Bankomat - Falkenbergs sparbank, Falkenberg</description>
        <styleUrl>#icon-22</styleUrl>
        <Point>
          <coordinates>
            12.49078,56.90378,0
          </coordinates>
        </Point>
      </Placemark>
      <Placemark>
        <name>Bankomat - Falkenbergs sparbank</name>
        <description>Bankomat - Falkenbergs sparbank, Falkenberg</description>
        <styleUrl>#icon-22</styleUrl>
        <Point>
          <coordinates>
            12.49078,56.90378,0
          </coordinates>
        </Point>
      </Placemark>
      <Placemark>
        <name>Bankomat - Kronan shopping</name>
        <description>Bankomat - Kronan shopping, Falkenberg</description>
        <styleUrl>#icon-22</styleUrl>
        <Point>
          <coordinates>
            12.49089,56.90319,0
          </coordinates>
        </Point>
      </Placemark>
      <Placemark>
        <name>Bankomat - Kronan shopping</name>
        <description>Bankomat - Kronan shopping, Falkenberg</description>
        <styleUrl>#icon-22</styleUrl>
        <Point>
          <coordinates>
            12.49089,56.90319,0
          </coordinates>
        </Point>
      </Placemark>
      <Placemark>
        <name>Bankomat - Gallerian</name>
        <description>Bankomat - Gallerian, Falkenberg</description>
        <styleUrl>#icon-22</styleUrl>
        <Point>
          <coordinates>
            12.49197,56.90552,0
          </coordinates>
        </Point>
      </Placemark>
      <Placemark>
        <name>Bankomat - Hjortsberg</name>
        <description>Bankomat - Hjortsberg, Falkenberg</description>
        <styleUrl>#icon-22</styleUrl>
        <Point>
          <coordinates>
            12.51152,56.8865,0
          </coordinates>
        </Point>
      </Placemark>
      <Placemark>
        <name>Bankomat - Sparbanken Alingsås</name>
        <description>Bankomat - Sparbanken Alingsås, Sollebrunn</description>
        <styleUrl>#icon-22</styleUrl>
        <Point>
          <coordinates>
            12.53199,58.12014,0
          </coordinates>
        </Point>
      </Placemark>
      <Placemark>
        <name>Bankomat - Sparbanken Alingsås</name>
        <description>Bankomat - Sparbanken Alingsås, Alingsås</description>
        <styleUrl>#icon-22</styleUrl>
        <Point>
          <coordinates>
            12.533,57.92866,0
          </coordinates>
        </Point>
      </Placemark>
      <Placemark>
        <name>Bankomat - Kungsgatan 25</name>
        <description>Bankomat - Kungsgatan 25, Alingsås</description>
        <styleUrl>#icon-22</styleUrl>
        <Point>
          <coordinates>
            12.53553,57.93008,0
          </coordinates>
        </Point>
      </Placemark>
      <Placemark>
        <name>Bankomat - Kungsgatan 25</name>
        <description>Bankomat - Kungsgatan 25, Alingsås</description>
        <styleUrl>#icon-22</styleUrl>
        <Point>
          <coordinates>
            12.53553,57.93008,0
          </coordinates>
        </Point>
      </Placemark>
      <Placemark>
        <name>Bankomat - Kungsgatan 25</name>
        <description>Bankomat - Kungsgatan 25, Alingsås</description>
        <styleUrl>#icon-22</styleUrl>
        <Point>
          <coordinates>
            12.53553,57.93008,0
          </coordinates>
        </Point>
      </Placemark>
      <Placemark>
        <name>Bankomat - Coop</name>
        <description>Bankomat - Coop, Svanskog</description>
        <styleUrl>#icon-22</styleUrl>
        <Point>
          <coordinates>
            12.55275,59.17904,0
          </coordinates>
        </Point>
      </Placemark>
      <Placemark>
        <name>Bankomat - Storgatan 60</name>
        <description>Bankomat - Storgatan 60, Höganäs</description>
        <styleUrl>#icon-22</styleUrl>
        <Point>
          <coordinates>
            12.5597,56.20022,0
          </coordinates>
        </Point>
      </Placemark>
      <Placemark>
        <name>Bankomat - Storgatan 60</name>
        <description>Bankomat - Storgatan 60, Höganäs</description>
        <styleUrl>#icon-22</styleUrl>
        <Point>
          <coordinates>
            12.5597,56.20022,0
          </coordinates>
        </Point>
      </Placemark>
      <Placemark>
        <name>Bankomat - Hönacka Sälgen</name>
        <description>Bankomat - Hönacka Sälgen, Glava</description>
        <styleUrl>#icon-22</styleUrl>
        <Point>
          <coordinates>
            12.56365,59.54838,0
          </coordinates>
        </Point>
      </Placemark>
      <Placemark>
        <name>Bankomat - Västra torggatan 1 A</name>
        <description>Bankomat - Västra torggatan 1 A, Arvika</description>
        <styleUrl>#icon-22</styleUrl>
        <Point>
          <coordinates>
            12.59063,59.65409,0
          </coordinates>
        </Point>
      </Placemark>
      <Placemark>
        <name>Bankomat - Västra torggatan 1 A</name>
        <description>Bankomat - Västra torggatan 1 A, Arvika</description>
        <styleUrl>#icon-22</styleUrl>
        <Point>
          <coordinates>
            12.59063,59.65409,0
          </coordinates>
        </Point>
      </Placemark>
      <Placemark>
        <name>Bankomat - Gästgivaregatan 2</name>
        <description>Bankomat - Gästgivaregatan 2, Skene</description>
        <styleUrl>#icon-22</styleUrl>
        <Point>
          <coordinates>
            12.64163,57.48943,0
          </coordinates>
        </Point>
      </Placemark>
      <Placemark>
        <name>Bankomat - Mor Kerstins torg</name>
        <description>Bankomat - Mor Kerstins torg, Kinna</description>
        <styleUrl>#icon-22</styleUrl>
        <Point>
          <coordinates>
            12.69223,57.50738,0
          </coordinates>
        </Point>
      </Placemark>
      <Placemark>
        <name>Bankomat - Boråsvägen 33</name>
        <description>Bankomat - Boråsvägen 33, Kinna</description>
        <styleUrl>#icon-22</styleUrl>
        <Point>
          <coordinates>
            12.69345,57.50735,0
          </coordinates>
        </Point>
      </Placemark>
      <Placemark>
        <name>Bankomat - Stortorget 7</name>
        <description>Bankomat - Stortorget 7, Helsingborg</description>
        <styleUrl>#icon-22</styleUrl>
        <Point>
          <coordinates>
            12.69358,56.04667,0
          </coordinates>
        </Point>
      </Placemark>
      <Placemark>
        <name>Bankomat - Swedbank</name>
        <description>Bankomat - Swedbank, Helsingborg</description>
        <styleUrl>#icon-22</styleUrl>
        <Point>
          <coordinates>
            12.69394,56.04558,0
          </coordinates>
        </Point>
      </Placemark>
      <Placemark>
        <name>Bankomat - Swedbank</name>
        <description>Bankomat - Swedbank, Helsingborg</description>
        <styleUrl>#icon-22</styleUrl>
        <Point>
          <coordinates>
            12.69394,56.04558,0
          </coordinates>
        </Point>
      </Placemark>
      <Placemark>
        <name>Bankomat - Knutpunkten</name>
        <description>Bankomat - Knutpunkten, Helsingborg</description>
        <styleUrl>#icon-22</styleUrl>
        <Point>
          <coordinates>
            12.69402,56.0445,0
          </coordinates>
        </Point>
      </Placemark>
      <Placemark>
        <name>Bankomat - Knutpunkten</name>
        <description>Bankomat - Knutpunkten, Helsingborg</description>
        <styleUrl>#icon-22</styleUrl>
        <Point>
          <coordinates>
            12.69402,56.0445,0
          </coordinates>
        </Point>
      </Placemark>
      <Placemark>
        <name>Bankomat - Knutpunkten</name>
        <description>Bankomat - Knutpunkten, Helsingborg</description>
        <styleUrl>#icon-22</styleUrl>
        <Point>
          <coordinates>
            12.69402,56.0445,0
          </coordinates>
        </Point>
      </Placemark>
      <Placemark>
        <name>Bankomat - Stattena centrum</name>
        <description>Bankomat - Stattena centrum, Helsingborg</description>
        <styleUrl>#icon-22</styleUrl>
        <Point>
          <coordinates>
            12.70062,56.0568,0
          </coordinates>
        </Point>
      </Placemark>
      <Placemark>
        <name>Bankomat - Galleria Söder</name>
        <description>Bankomat - Galleria Söder, Helsingborg</description>
        <styleUrl>#icon-22</styleUrl>
        <Point>
          <coordinates>
            12.70117,56.04039,0
          </coordinates>
        </Point>
      </Placemark>
      <Placemark>
        <name>Bankomat - Galleria Söder</name>
        <description>Bankomat - Galleria Söder, Helsingborg</description>
        <styleUrl>#icon-22</styleUrl>
        <Point>
          <coordinates>
            12.70117,56.04039,0
          </coordinates>
        </Point>
      </Placemark>
      <Placemark>
        <name>Bankomat - Coop Konsum</name>
        <description>Bankomat - Coop Konsum, Åmål</description>
        <styleUrl>#icon-22</styleUrl>
        <Point>
          <coordinates>
            12.70178,59.05131,0
          </coordinates>
        </Point>
      </Placemark>
      <Placemark>
        <name>Bankomat - Coop Konsum</name>
        <description>Bankomat - Coop Konsum, Åmål</description>
        <styleUrl>#icon-22</styleUrl>
        <Point>
          <coordinates>
            12.70178,59.05131,0
          </coordinates>
        </Point>
      </Placemark>
      <Placemark>
        <name>Bankomat - Lasarettet</name>
        <description>Bankomat - Lasarettet, Helsingborg</description>
        <styleUrl>#icon-22</styleUrl>
        <Point>
          <coordinates>
            12.70424,56.04571,0
          </coordinates>
        </Point>
      </Placemark>
      <Placemark>
        <name>Bankomat - Södra stenbocksgatan 125</name>
        <description>Bankomat - Södra stenbocksgatan 125, Helsingborg</description>
        <styleUrl>#icon-22</styleUrl>
        <Point>
          <coordinates>
            12.71127,56.04093,0
          </coordinates>
        </Point>
      </Placemark>
      <Placemark>
        <name>Bankomat - Danska vägen 13</name>
        <description>Bankomat - Danska vägen 13, Ullared</description>
        <styleUrl>#icon-22</styleUrl>
        <Point>
          <coordinates>
            12.71457,57.13528,0
          </coordinates>
        </Point>
      </Placemark>
      <Placemark>
        <name>Bankomat - Boråsvägen 3</name>
        <description>Bankomat - Boråsvägen 3, Ullared</description>
        <styleUrl>#icon-22</styleUrl>
        <Point>
          <coordinates>
            12.71876,57.13693,0
          </coordinates>
        </Point>
      </Placemark>
      <Placemark>
        <name>Bankomat - HSB-vägen 1</name>
        <description>Bankomat - HSB-vägen 1, Idre</description>
        <styleUrl>#icon-22</styleUrl>
        <Point>
          <coordinates>
            12.71996,61.85849,0
          </coordinates>
        </Point>
      </Placemark>
      <Placemark>
        <name>Bankomat - Coop</name>
        <description>Bankomat - Coop, Helsingborg</description>
        <styleUrl>#icon-22</styleUrl>
        <Point>
          <coordinates>
            12.72069,56.04444,0
          </coordinates>
        </Point>
      </Placemark>
      <Placemark>
        <name>Bankomat - Sparbanken Skaraborg</name>
        <description>Bankomat - Sparbanken Skaraborg, Nossebro</description>
        <styleUrl>#icon-22</styleUrl>
        <Point>
          <coordinates>
            12.72085,58.18789,0
          </coordinates>
        </Point>
      </Placemark>
      <Placemark>
        <name>Bankomat - Garnisonsgatan 7 A</name>
        <description>Bankomat - Garnisonsgatan 7 A, Helsingborg</description>
        <styleUrl>#icon-22</styleUrl>
        <Point>
          <coordinates>
            12.72375,56.0716,0
          </coordinates>
        </Point>
      </Placemark>
      <Placemark>
        <name>Bankomat - Brogatan 14</name>
        <description>Bankomat - Brogatan 14, Getinge</description>
        <styleUrl>#icon-22</styleUrl>
        <Point>
          <coordinates>
            12.73273,56.81928,0
          </coordinates>
        </Point>
      </Placemark>
      <Placemark>
        <name>Bankomat - Väla centrum, ingång 3</name>
        <description>Bankomat - Väla centrum, ingång 3, Ödåkra</description>
        <styleUrl>#icon-22</styleUrl>
        <Point>
          <coordinates>
            12.75673,56.09225,0
          </coordinates>
        </Point>
      </Placemark>
      <Placemark>
        <name>Bankomat - Väla centrum, ingång 3</name>
        <description>Bankomat - Väla centrum, ingång 3, Ödåkra</description>
        <styleUrl>#icon-22</styleUrl>
        <Point>
          <coordinates>
            12.75673,56.09225,0
          </coordinates>
        </Point>
      </Placemark>
      <Placemark>
        <name>Bankomat - Frösögatan 7</name>
        <description>Bankomat - Frösögatan 7, Rydebäck</description>
        <styleUrl>#icon-22</styleUrl>
        <Point>
          <coordinates>
            12.77503,55.96629,0
          </coordinates>
        </Point>
      </Placemark>
      <Placemark>
        <name>Bankomat - Alingsåsvägen 1</name>
        <description>Bankomat - Alingsåsvägen 1, Sandared</description>
        <styleUrl>#icon-22</styleUrl>
        <Point>
          <coordinates>
            12.79208,57.71018,0
          </coordinates>
        </Point>
      </Placemark>
      <Placemark>
        <name>Bankomat - ICA</name>
        <description>Bankomat - ICA, Halmstad</description>
        <styleUrl>#icon-22</styleUrl>
        <Point>
          <coordinates>
            12.80482,56.66043,0
          </coordinates>
        </Point>
      </Placemark>
      <Placemark>
        <name>Bankomat - Sparbanken Alingsås</name>
        <description>Bankomat - Sparbanken Alingsås, Vårgårda</description>
        <styleUrl>#icon-22</styleUrl>
        <Point>
          <coordinates>
            12.80793,58.03173,0
          </coordinates>
        </Point>
      </Placemark>
      <Placemark>
        <name>Bankomat - Sparbanken Alingsås</name>
        <description>Bankomat - Sparbanken Alingsås, Vårgårda</description>
        <styleUrl>#icon-22</styleUrl>
        <Point>
          <coordinates>
            12.80793,58.03173,0
          </coordinates>
        </Point>
      </Placemark>
      <Placemark>
        <name>Bankomat - Kungsgatan 21</name>
        <description>Bankomat - Kungsgatan 21, Vårgårda</description>
        <styleUrl>#icon-22</styleUrl>
        <Point>
          <coordinates>
            12.80847,58.03597,0
          </coordinates>
        </Point>
      </Placemark>
      <Placemark>
        <name>Bankomat - Mercurivägen 1A</name>
        <description>Bankomat - Mercurivägen 1A, Förslöv</description>
        <styleUrl>#icon-22</styleUrl>
        <Point>
          <coordinates>
            12.81592,56.34915,0
          </coordinates>
        </Point>
      </Placemark>
      <Placemark>
        <name>Bankomat - Brinova gallerian</name>
        <description>Bankomat - Brinova gallerian, Landskrona</description>
        <styleUrl>#icon-22</styleUrl>
        <Point>
          <coordinates>
            12.83114,55.86986,0
          </coordinates>
        </Point>
      </Placemark>
      <Placemark>
        <name>Bankomat - Brinova gallerian</name>
        <description>Bankomat - Brinova gallerian, Landskrona</description>
        <styleUrl>#icon-22</styleUrl>
        <Point>
          <coordinates>
            12.83114,55.86986,0
          </coordinates>
        </Point>
      </Placemark>
      <Placemark>
        <name>Bankomat - Brinova gallerian</name>
        <description>Bankomat - Brinova gallerian, Landskrona</description>
        <styleUrl>#icon-22</styleUrl>
        <Point>
          <coordinates>
            12.83114,55.86986,0
          </coordinates>
        </Point>
      </Placemark>
      <Placemark>
        <name>Bankomat - Brinova gallerian</name>
        <description>Bankomat - Brinova gallerian, Landskrona</description>
        <styleUrl>#icon-22</styleUrl>
        <Point>
          <coordinates>
            12.83114,55.86986,0
          </coordinates>
        </Point>
      </Placemark>
      <Placemark>
        <name>Bankomat - City Gross</name>
        <description>Bankomat - City Gross, Landskrona</description>
        <styleUrl>#icon-22</styleUrl>
        <Point>
          <coordinates>
            12.83124,55.86883,0
          </coordinates>
        </Point>
      </Placemark>
      <Placemark>
        <name>Bankomat - Eriksgatan 124</name>
        <description>Bankomat - Eriksgatan 124, Landskrona</description>
        <styleUrl>#icon-22</styleUrl>
        <Point>
          <coordinates>
            12.83284,55.87623,0
          </coordinates>
        </Point>
      </Placemark>
      <Placemark>
        <name>Bankomat - Swedbank</name>
        <description>Bankomat - Swedbank, Båstad</description>
        <styleUrl>#icon-22</styleUrl>
        <Point>
          <coordinates>
            12.83937,56.43088,0
          </coordinates>
        </Point>
      </Placemark>
      <Placemark>
        <name>Bankomat - Swedbank</name>
        <description>Bankomat - Swedbank, Båstad</description>
        <styleUrl>#icon-22</styleUrl>
        <Point>
          <coordinates>
            12.83937,56.43088,0
          </coordinates>
        </Point>
      </Placemark>
      <Placemark>
        <name>Bankomat - ICA</name>
        <description>Bankomat - ICA, Skanör</description>
        <styleUrl>#icon-22</styleUrl>
        <Point>
          <coordinates>
            12.84363,55.41201,0
          </coordinates>
        </Point>
      </Placemark>
      <Placemark>
        <name>Bankomat - Ringvägen 170</name>
        <description>Bankomat - Ringvägen 170, Landskrona</description>
        <styleUrl>#icon-22</styleUrl>
        <Point>
          <coordinates>
            12.84915,55.87083,0
          </coordinates>
        </Point>
      </Placemark>
      <Placemark>
        <name>Bankomat - Klammerdammsgatan 8</name>
        <description>Bankomat - Klammerdammsgatan 8, Halmstad</description>
        <styleUrl>#icon-22</styleUrl>
        <Point>
          <coordinates>
            12.85727,56.67513,0
          </coordinates>
        </Point>
      </Placemark>
      <Placemark>
        <name>Bankomat - Tempo</name>
        <description>Bankomat - Tempo, Viskafors</description>
        <styleUrl>#icon-22</styleUrl>
        <Point>
          <coordinates>
            12.85808,57.63455,0
          </coordinates>
        </Point>
      </Placemark>
      <Placemark>
        <name>Bankomat - Gallerian</name>
        <description>Bankomat - Gallerian, Halmstad</description>
        <styleUrl>#icon-22</styleUrl>
        <Point>
          <coordinates>
            12.8585,56.67416,0
          </coordinates>
        </Point>
      </Placemark>
      <Placemark>
        <name>Bankomat - Gallerian</name>
        <description>Bankomat - Gallerian, Halmstad</description>
        <styleUrl>#icon-22</styleUrl>
        <Point>
          <coordinates>
            12.8585,56.67416,0
          </coordinates>
        </Point>
      </Placemark>
      <Placemark>
        <name>Bankomat - Gallerian</name>
        <description>Bankomat - Gallerian, Halmstad</description>
        <styleUrl>#icon-22</styleUrl>
        <Point>
          <coordinates>
            12.8585,56.67416,0
          </coordinates>
        </Point>
      </Placemark>
      <Placemark>
        <name>Bankomat - Storgatan 26</name>
        <description>Bankomat - Storgatan 26, Ängelholm</description>
        <styleUrl>#icon-22</styleUrl>
        <Point>
          <coordinates>
            12.86252,56.24259,0
          </coordinates>
        </Point>
      </Placemark>
      <Placemark>
        <name>Bankomat - Torget 2</name>
        <description>Bankomat - Torget 2, Sysslebäck</description>
        <styleUrl>#icon-22</styleUrl>
        <Point>
          <coordinates>
            12.87194,60.73034,0
          </coordinates>
        </Point>
      </Placemark>
      <Placemark>
        <name>Bankomat - Nyhems torg</name>
        <description>Bankomat - Nyhems torg, Halmstad</description>
        <styleUrl>#icon-22</styleUrl>
        <Point>
          <coordinates>
            12.87337,56.66868,0
          </coordinates>
        </Point>
      </Placemark>
      <Placemark>
        <name>Bankomat - Coop</name>
        <description>Bankomat - Coop, Ängelholm</description>
        <styleUrl>#icon-22</styleUrl>
        <Point>
          <coordinates>
            12.87547,56.23788,0
          </coordinates>
        </Point>
      </Placemark>
      <Placemark>
        <name>Bankomat - Coop</name>
        <description>Bankomat - Coop, Ängelholm</description>
        <styleUrl>#icon-22</styleUrl>
        <Point>
          <coordinates>
            12.87547,56.23788,0
          </coordinates>
        </Point>
      </Placemark>
      <Placemark>
        <name>Bankomat - Kristian IV's väg 3</name>
        <description>Bankomat - Kristian IV's väg 3, Halmstad</description>
        <styleUrl>#icon-22</styleUrl>
        <Point>
          <coordinates>
            12.87609,56.66389,0
          </coordinates>
        </Point>
      </Placemark>
      <Placemark>
        <name>Bankomat - Munka Ljungbyvägen 5</name>
        <description>Bankomat - Munka Ljungbyvägen 5, Ängelholm</description>
        <styleUrl>#icon-22</styleUrl>
        <Point>
          <coordinates>
            12.87938,56.25458,0
          </coordinates>
        </Point>
      </Placemark>
      <Placemark>
        <name>Bankomat - Lidavägen 1</name>
        <description>Bankomat - Lidavägen 1, Överlida</description>
        <styleUrl>#icon-22</styleUrl>
        <Point>
          <coordinates>
            12.8939,57.34898,0
          </coordinates>
        </Point>
      </Placemark>
      <Placemark>
        <name>Bankomat - Hallarna</name>
        <description>Bankomat - Hallarna, Halmstad</description>
        <styleUrl>#icon-22</styleUrl>
        <Point>
          <coordinates>
            12.90946,56.65524,0
          </coordinates>
        </Point>
      </Placemark>
      <Placemark>
        <name>Bankomat - Hallarna</name>
        <description>Bankomat - Hallarna, Halmstad</description>
        <styleUrl>#icon-22</styleUrl>
        <Point>
          <coordinates>
            12.90946,56.65524,0
          </coordinates>
        </Point>
      </Placemark>
      <Placemark>
        <name>Bankomat - ICA</name>
        <description>Bankomat - ICA, Halmstad</description>
        <styleUrl>#icon-22</styleUrl>
        <Point>
          <coordinates>
            12.90979,56.67676,0
          </coordinates>
        </Point>
      </Placemark>
      <Placemark>
        <name>Bankomat - Norra Storgatan 6</name>
        <description>Bankomat - Norra Storgatan 6, Bjuv</description>
        <styleUrl>#icon-22</styleUrl>
        <Point>
          <coordinates>
            12.91608,56.08613,0
          </coordinates>
        </Point>
      </Placemark>
      <Placemark>
        <name>Bankomat - Norra Storgatan 6</name>
        <description>Bankomat - Norra Storgatan 6, Bjuv</description>
        <styleUrl>#icon-22</styleUrl>
        <Point>
          <coordinates>
            12.91608,56.08613,0
          </coordinates>
        </Point>
      </Placemark>
      <Placemark>
        <name>Bankomat - Magasinsgatan 6</name>
        <description>Bankomat - Magasinsgatan 6, Säffle</description>
        <styleUrl>#icon-22</styleUrl>
        <Point>
          <coordinates>
            12.91901,59.13484,0
          </coordinates>
        </Point>
      </Placemark>
      <Placemark>
        <name>Bankomat - Klagshamnsvägen 40</name>
        <description>Bankomat - Klagshamnsvägen 40, Bunkeflostrand</description>
        <styleUrl>#icon-22</styleUrl>
        <Point>
          <coordinates>
            12.91917,55.55533,0
          </coordinates>
        </Point>
      </Placemark>
      <Placemark>
        <name>Bankomat - Limhamn</name>
        <description>Bankomat - Limhamn, Limhamn</description>
        <styleUrl>#icon-22</styleUrl>
        <Point>
          <coordinates>
            12.93207,55.58224,0
          </coordinates>
        </Point>
      </Placemark>
      <Placemark>
        <name>Bankomat - Östra storgatan 17</name>
        <description>Bankomat - Östra storgatan 17, Säffle</description>
        <styleUrl>#icon-22</styleUrl>
        <Point>
          <coordinates>
            12.93267,59.13284,0
          </coordinates>
        </Point>
      </Placemark>
      <Placemark>
        <name>Bankomat - Linnégatan 45</name>
        <description>Bankomat - Linnégatan 45, Limhamn</description>
        <styleUrl>#icon-22</styleUrl>
        <Point>
          <coordinates>
            12.93342,55.58147,0
          </coordinates>
        </Point>
      </Placemark>
      <Placemark>
        <name>Bankomat - ICA Malmborgs Limhamn</name>
        <description>Bankomat - ICA Malmborgs Limhamn, Limhamn</description>
        <styleUrl>#icon-22</styleUrl>
        <Point>
          <coordinates>
            12.93512,55.58165,0
          </coordinates>
        </Point>
      </Placemark>
      <Placemark>
        <name>Bankomat - Borås Knallerian</name>
        <description>Bankomat - Borås Knallerian, Borås</description>
        <styleUrl>#icon-22</styleUrl>
        <Point>
          <coordinates>
            12.93805,57.73538,0
          </coordinates>
        </Point>
      </Placemark>
      <Placemark>
        <name>Bankomat - Bergslenagatan 11</name>
        <description>Bankomat - Bergslenagatan 11, Borås</description>
        <styleUrl>#icon-22</styleUrl>
        <Point>
          <coordinates>
            12.93886,57.73367,0
          </coordinates>
        </Point>
      </Placemark>
      <Placemark>
        <name>Bankomat - Pallas shopping</name>
        <description>Bankomat - Pallas shopping, Borås</description>
        <styleUrl>#icon-22</styleUrl>
        <Point>
          <coordinates>
            12.93904,57.71977,0
          </coordinates>
        </Point>
      </Placemark>
      <Placemark>
        <name>Bankomat - Pallas shopping</name>
        <description>Bankomat - Pallas shopping, Borås</description>
        <styleUrl>#icon-22</styleUrl>
        <Point>
          <coordinates>
            12.93904,57.71977,0
          </coordinates>
        </Point>
      </Placemark>
      <Placemark>
        <name>Bankomat - Pallas shopping</name>
        <description>Bankomat - Pallas shopping, Borås</description>
        <styleUrl>#icon-22</styleUrl>
        <Point>
          <coordinates>
            12.93904,57.71977,0
          </coordinates>
        </Point>
      </Placemark>
      <Placemark>
        <name>Bankomat - ICA</name>
        <description>Bankomat - ICA, Borås</description>
        <styleUrl>#icon-22</styleUrl>
        <Point>
          <coordinates>
            12.93925,57.72981,0
          </coordinates>
        </Point>
      </Placemark>
      <Placemark>
        <name>Bankomat - Österlånggatan 30</name>
        <description>Bankomat - Österlånggatan 30, Borås</description>
        <styleUrl>#icon-22</styleUrl>
        <Point>
          <coordinates>
            12.94094,57.72154,0
          </coordinates>
        </Point>
      </Placemark>
      <Placemark>
        <name>Bankomat - Allégatan 55</name>
        <description>Bankomat - Allégatan 55, Borås</description>
        <styleUrl>#icon-22</styleUrl>
        <Point>
          <coordinates>
            12.94339,57.71916,0
          </coordinates>
        </Point>
      </Placemark>
      <Placemark>
        <name>Bankomat - Allégatan 55</name>
        <description>Bankomat - Allégatan 55, Borås</description>
        <styleUrl>#icon-22</styleUrl>
        <Point>
          <coordinates>
            12.94339,57.71916,0
          </coordinates>
        </Point>
      </Placemark>
      <Placemark>
        <name>Bankomat - Sjöbo torggata 4</name>
        <description>Bankomat - Sjöbo torggata 4, Borås</description>
        <styleUrl>#icon-22</styleUrl>
        <Point>
          <coordinates>
            12.94422,57.74975,0
          </coordinates>
        </Point>
      </Placemark>
      <Placemark>
        <name>Bankomat - Swedbank</name>
        <description>Bankomat - Swedbank, Åstorp</description>
        <styleUrl>#icon-22</styleUrl>
        <Point>
          <coordinates>
            12.94754,56.13476,0
          </coordinates>
        </Point>
      </Placemark>
      <Placemark>
        <name>Bankomat - Skolgatan 6</name>
        <description>Bankomat - Skolgatan 6, Åstorp</description>
        <styleUrl>#icon-22</styleUrl>
        <Point>
          <coordinates>
            12.94766,56.13462,0
          </coordinates>
        </Point>
      </Placemark>
      <Placemark>
        <name>Bankomat - Sparbanken Skaraborg</name>
        <description>Bankomat - Sparbanken Skaraborg, Vara</description>
        <styleUrl>#icon-22</styleUrl>
        <Point>
          <coordinates>
            12.95256,58.26222,0
          </coordinates>
        </Point>
      </Placemark>
      <Placemark>
        <name>Bankomat - Mellby Center</name>
        <description>Bankomat - Mellby Center, Mellbystrand</description>
        <styleUrl>#icon-22</styleUrl>
        <Point>
          <coordinates>
            12.957,56.50302,0
          </coordinates>
        </Point>
      </Placemark>
      <Placemark>
        <name>Bankomat - Mellby Center</name>
        <description>Bankomat - Mellby Center, Mellbystrand</description>
        <styleUrl>#icon-22</styleUrl>
        <Point>
          <coordinates>
            12.957,56.50302,0
          </coordinates>
        </Point>
      </Placemark>
      <Placemark>
        <name>Bankomat - Brämhultsvägen 32</name>
        <description>Bankomat - Brämhultsvägen 32, Borås</description>
        <styleUrl>#icon-22</styleUrl>
        <Point>
          <coordinates>
            12.95814,57.72247,0
          </coordinates>
        </Point>
      </Placemark>
      <Placemark>
        <name>Bankomat - Trandaredsgatan 43</name>
        <description>Bankomat - Trandaredsgatan 43, Borås</description>
        <styleUrl>#icon-22</styleUrl>
        <Point>
          <coordinates>
            12.9625,57.70917,0
          </coordinates>
        </Point>
      </Placemark>
      <Placemark>
        <name>Bankomat - Toppengallerian</name>
        <description>Bankomat - Toppengallerian, Höllviken</description>
        <styleUrl>#icon-22</styleUrl>
        <Point>
          <coordinates>
            12.96375,55.42562,0
          </coordinates>
        </Point>
      </Placemark>
      <Placemark>
        <name>Bankomat - Toppengallerian</name>
        <description>Bankomat - Toppengallerian, Höllviken</description>
        <styleUrl>#icon-22</styleUrl>
        <Point>
          <coordinates>
            12.96375,55.42562,0
          </coordinates>
        </Point>
      </Placemark>
      <Placemark>
        <name>Bankomat - Toppengallerian</name>
        <description>Bankomat - Toppengallerian, Höllviken</description>
        <styleUrl>#icon-22</styleUrl>
        <Point>
          <coordinates>
            12.96375,55.42562,0
          </coordinates>
        </Point>
      </Placemark>
      <Placemark>
        <name>Bankomat - Köpenhamnsvägen 49</name>
        <description>Bankomat - Köpenhamnsvägen 49, Malmö</description>
        <styleUrl>#icon-22</styleUrl>
        <Point>
          <coordinates>
            12.968,55.59412,0
          </coordinates>
        </Point>
      </Placemark>
      <Placemark>
        <name>Bankomat - ICA</name>
        <description>Bankomat - ICA, Munka-ljungby</description>
        <styleUrl>#icon-22</styleUrl>
        <Point>
          <coordinates>
            12.96873,56.25948,0
          </coordinates>
        </Point>
      </Placemark>
      <Placemark>
        <name>Bankomat - Storgatan 14</name>
        <description>Bankomat - Storgatan 14, Ekeby</description>
        <styleUrl>#icon-22</styleUrl>
        <Point>
          <coordinates>
            12.97277,56.00075,0
          </coordinates>
        </Point>
      </Placemark>
      <Placemark>
        <name>Bankomat - Emporia, plan 2</name>
        <description>Bankomat - Emporia, plan 2, Malmö</description>
        <styleUrl>#icon-22</styleUrl>
        <Point>
          <coordinates>
            12.97332,55.56522,0
          </coordinates>
        </Point>
      </Placemark>
      <Placemark>
        <name>Bankomat - Ågatan 27</name>
        <description>Bankomat - Ågatan 27, Oskarström</description>
        <styleUrl>#icon-22</styleUrl>
        <Point>
          <coordinates>
            12.97493,56.80168,0
          </coordinates>
        </Point>
      </Placemark>
      <Placemark>
        <name>Bankomat - Malmö arena</name>
        <description>Bankomat - Malmö arena, Malmö</description>
        <styleUrl>#icon-22</styleUrl>
        <Point>
          <coordinates>
            12.97635,55.56302,0
          </coordinates>
        </Point>
      </Placemark>
      <Placemark>
        <name>Bankomat - Masttorget 14</name>
        <description>Bankomat - Masttorget 14, Malmö</description>
        <styleUrl>#icon-22</styleUrl>
        <Point>
          <coordinates>
            12.97899,55.61141,0
          </coordinates>
        </Point>
      </Placemark>
      <Placemark>
        <name>Bankomat - Hulta torg 4</name>
        <description>Bankomat - Hulta torg 4, Borås</description>
        <styleUrl>#icon-22</styleUrl>
        <Point>
          <coordinates>
            12.9807,57.72106,0
          </coordinates>
        </Point>
      </Placemark>
      <Placemark>
        <name>Bankomat - Kronprinsen</name>
        <description>Bankomat - Kronprinsen, Malmö</description>
        <styleUrl>#icon-22</styleUrl>
        <Point>
          <coordinates>
            12.9836,55.5967,0
          </coordinates>
        </Point>
      </Placemark>
      <Placemark>
        <name>Bankomat - Malmö Stadion</name>
        <description>Bankomat - Malmö Stadion, Malmö</description>
        <styleUrl>#icon-22</styleUrl>
        <Point>
          <coordinates>
            12.99031,55.58452,0
          </coordinates>
        </Point>
      </Placemark>
      <Placemark>
        <name>Bankomat - Cosmopol</name>
        <description>Bankomat - Cosmopol, Malmö</description>
        <styleUrl>#icon-22</styleUrl>
        <Point>
          <coordinates>
            12.99238,55.60268,0
          </coordinates>
        </Point>
      </Placemark>
      <Placemark>
        <name>Bankomat - Nornegatan 3</name>
        <description>Bankomat - Nornegatan 3, Malmö</description>
        <styleUrl>#icon-22</styleUrl>
        <Point>
          <coordinates>
            12.9934,55.55208,0
          </coordinates>
        </Point>
      </Placemark>
      <Placemark>
        <name>Bankomat - E-Center</name>
        <description>Bankomat - E-Center, Löddeköpinge</description>
        <styleUrl>#icon-22</styleUrl>
        <Point>
          <coordinates>
            12.99391,55.76934,0
          </coordinates>
        </Point>
      </Placemark>
      <Placemark>
        <name>Bankomat - Vidhemsplatsen 1</name>
        <description>Bankomat - Vidhemsplatsen 1, Vedum</description>
        <styleUrl>#icon-22</styleUrl>
        <Point>
          <coordinates>
            12.99575,58.17031,0
          </coordinates>
        </Point>
      </Placemark>
      <Placemark>
        <name>Bankomat - Transportvägen 2</name>
        <description>Bankomat - Transportvägen 2, Löddeköpinge</description>
        <styleUrl>#icon-22</styleUrl>
        <Point>
          <coordinates>
            12.99837,55.76692,0
          </coordinates>
        </Point>
      </Placemark>
      <Placemark>
        <name>Bankomat - Malmö C</name>
        <description>Bankomat - Malmö C, Malmö</description>
        <styleUrl>#icon-22</styleUrl>
        <Point>
          <coordinates>
            12.99983,55.609,0
          </coordinates>
        </Point>
      </Placemark>
      <Placemark>
        <name>Bankomat - Centralstationen</name>
        <description>Bankomat - Centralstationen, Malmö</description>
        <styleUrl>#icon-22</styleUrl>
        <Point>
          <coordinates>
            12.99987,55.60937,0
          </coordinates>
        </Point>
      </Placemark>
      <Placemark>
        <name>Bankomat - Södra förstadsgatan 12</name>
        <description>Bankomat - Södra förstadsgatan 12, Malmö</description>
        <styleUrl>#icon-22</styleUrl>
        <Point>
          <coordinates>
            13.00116,55.59972,0
          </coordinates>
        </Point>
      </Placemark>
      <Placemark>
        <name>Bankomat - Triangeln KöpC Plan 2</name>
        <description>Bankomat - Triangeln KöpC Plan 2, Malmö</description>
        <styleUrl>#icon-22</styleUrl>
        <Point>
          <coordinates>
            13.0017,55.5949,0
          </coordinates>
        </Point>
      </Placemark>
      <Placemark>
        <name>Bankomat - Triangeln KöpC Plan 2</name>
        <description>Bankomat - Triangeln KöpC Plan 2, Malmö</description>
        <styleUrl>#icon-22</styleUrl>
        <Point>
          <coordinates>
            13.0017,55.5949,0
          </coordinates>
        </Point>
      </Placemark>
      <Placemark>
        <name>Bankomat - Triangeln KöpC Plan 2</name>
        <description>Bankomat - Triangeln KöpC Plan 2, Malmö</description>
        <styleUrl>#icon-22</styleUrl>
        <Point>
          <coordinates>
            13.0017,55.5949,0
          </coordinates>
        </Point>
      </Placemark>
      <Placemark>
        <name>Bankomat - Stadt Hamburgsgatan 2</name>
        <description>Bankomat - Stadt Hamburgsgatan 2, Malmö</description>
        <styleUrl>#icon-22</styleUrl>
        <Point>
          <coordinates>
            13.00228,55.60281,0
          </coordinates>
        </Point>
      </Placemark>
      <Placemark>
        <name>Bankomat - Stadt Hamburgsgatan 2</name>
        <description>Bankomat - Stadt Hamburgsgatan 2, Malmö</description>
        <styleUrl>#icon-22</styleUrl>
        <Point>
          <coordinates>
            13.00228,55.60281,0
          </coordinates>
        </Point>
      </Placemark>
      <Placemark>
        <name>Bankomat - Stadt Hamburgsgatan 2</name>
        <description>Bankomat - Stadt Hamburgsgatan 2, Malmö</description>
        <styleUrl>#icon-22</styleUrl>
        <Point>
          <coordinates>
            13.00228,55.60281,0
          </coordinates>
        </Point>
      </Placemark>
      <Placemark>
        <name>Bankomat - Stadt Hamburgsgatan 2</name>
        <description>Bankomat - Stadt Hamburgsgatan 2, Malmö</description>
        <styleUrl>#icon-22</styleUrl>
        <Point>
          <coordinates>
            13.00228,55.60281,0
          </coordinates>
        </Point>
      </Placemark>