<?xml version="1.0" encoding="UTF-8"?>
<kml xmlns="http://www.opengis.net/kml/2.2">
  <Document>
    <name>Bolist</name>
    <description/>
    <Style id="icon-22-normal">
      <IconStyle>
        <scale>1.1</scale>
        <Icon>
          <href>https://www.gstatic.com/mapspro/images/stock/22-blue-dot.png</href>
        </Icon>
        <hotSpot x="16" xunits="pixels" y="32" yunits="insetPixels"/>
      </IconStyle>
      <LabelStyle>
        <scale>0</scale>
      </LabelStyle>
    </Style>
    <Style id="icon-22-highlight">
      <IconStyle>
        <scale>1.1</scale>
        <Icon>
          <href>https://www.gstatic.com/mapspro/images/stock/22-blue-dot.png</href>
        </Icon>
        <hotSpot x="16" xunits="pixels" y="32" yunits="insetPixels"/>
      </IconStyle>
      <LabelStyle>
        <scale>1.1</scale>
      </LabelStyle>
    </Style>
    <StyleMap id="icon-22">
      <Pair>
        <key>normal</key>
        <styleUrl>#icon-22-normal</styleUrl>
      </Pair>
      <Pair>
        <key>highlight</key>
        <styleUrl>#icon-22-highlight</styleUrl>
      </Pair>
    </StyleMap>
    <Folder>
      <name><![CDATA[Bolist]]></name>
      <Placemark>
        <name><![CDATA[BOLIST Hälle Byggvaror]]></name>
        <description>BOLIST Hälle Byggvaror, Strömstad</description>
        <styleUrl>#icon-22</styleUrl>
        <Point><coordinates>11.207091,58.940806,0</coordinates></Point>
      </Placemark>
      <Placemark>
        <name><![CDATA[BOLIST G.R.G.Svensson Byggnads]]></name>
        <description>BOLIST G.R.G.Svensson Byggnads, Grundsund</description>
        <styleUrl>#icon-22</styleUrl>
        <Point><coordinates>11.43475,58.213223,0</coordinates></Point>
      </Placemark>
      <Placemark>
        <name><![CDATA[BOLIST Lysekils Trä]]></name>
        <description>BOLIST Lysekils Trä, Lysekil</description>
        <styleUrl>#icon-22</styleUrl>
        <Point><coordinates>11.472127,58.285712,0</coordinates></Point>
      </Placemark>
      <Placemark>
        <name><![CDATA[BOLIST Olinders]]></name>
        <description>BOLIST Olinders, Hönö</description>
        <styleUrl>#icon-22</styleUrl>
        <Point><coordinates>11.65098,57.683734,0</coordinates></Point>
      </Placemark>
      <Placemark>
        <name><![CDATA[BOLIST Harås Byggvaror]]></name>
        <description>BOLIST Harås Byggvaror, Stora höga</description>
        <styleUrl>#icon-22</styleUrl>
        <Point><coordinates>11.839133,58.021383,0</coordinates></Point>
      </Placemark>
      <Placemark>
        <name><![CDATA[BOLIST Mek - Service]]></name>
        <description>BOLIST Mek - Service, Ed</description>
        <styleUrl>#icon-22</styleUrl>
        <Point><coordinates>11.949732,58.904863,0</coordinates></Point>
      </Placemark>
      <Placemark>
        <name><![CDATA[BOLIST Färgelanda]]></name>
        <description>BOLIST Färgelanda, Färgelanda</description>
        <styleUrl>#icon-22</styleUrl>
        <Point><coordinates>11.994216,58.561387,0</coordinates></Point>
      </Placemark>
      <Placemark>
        <name><![CDATA[BOLIST Järnhandel]]></name>
        <description>BOLIST Järnhandel, Lilla edet</description>
        <styleUrl>#icon-22</styleUrl>
        <Point><coordinates>12.128943,58.142379,0</coordinates></Point>
      </Placemark>
      <Placemark>
        <name><![CDATA[BOLIST Landvetter]]></name>
        <description>BOLIST Landvetter, Landvetter</description>
        <styleUrl>#icon-22</styleUrl>
        <Point><coordinates>12.238886,57.685189,0</coordinates></Point>
      </Placemark>
      <Placemark>
        <name><![CDATA[BOLIST Lindveden]]></name>
        <description>BOLIST Lindveden, Trollhättan</description>
        <styleUrl>#icon-22</styleUrl>
        <Point><coordinates>12.23931,58.239644,0</coordinates></Point>
      </Placemark>
      <Placemark>
        <name><![CDATA[BOLIST Axel P]]></name>
        <description>BOLIST Axel P, Bengtsfors</description>
        <styleUrl>#icon-22</styleUrl>
        <Point><coordinates>12.245159,59.024346,0</coordinates></Point>
      </Placemark>
      <Placemark>
        <name><![CDATA[Bolist Lerums järnhandel]]></name>
        <description>Bolist Lerums järnhandel, Lerum</description>
        <styleUrl>#icon-22</styleUrl>
        <Point><coordinates>12.25784,57.764064,0</coordinates></Point>
      </Placemark>
      <Placemark>
        <name><![CDATA[BOLIST J Gustavssons Byggmaterial]]></name>
        <description>BOLIST J Gustavssons Byggmaterial, Tvååker</description>
        <styleUrl>#icon-22</styleUrl>
        <Point><coordinates>12.4029,57.033439,0</coordinates></Point>
      </Placemark>
      <Placemark>
        <name><![CDATA[BOLIST Forssa Järn & Byggvaror]]></name>
        <description>BOLIST Forssa Järn & Byggvaror, Bollebygd</description>
        <styleUrl>#icon-22</styleUrl>
        <Point><coordinates>12.535814,57.657233,0</coordinates></Point>
      </Placemark>
      <Placemark>
        <name><![CDATA[BOLIST Forshalls Bygghandel]]></name>
        <description>BOLIST Forshalls Bygghandel, Grästorp</description>
        <styleUrl>#icon-22</styleUrl>
        <Point><coordinates>12.649887,58.337641,0</coordinates></Point>
      </Placemark>
      <Placemark>
        <name><![CDATA[BOLIST Grästorps Trävaruaffär]]></name>
        <description>BOLIST Grästorps Trävaruaffär, Grästorp</description>
        <styleUrl>#icon-22</styleUrl>
        <Point><coordinates>12.685862,58.336339,0</coordinates></Point>
      </Placemark>
      <Placemark>
        <name><![CDATA[BOLIST Slöinge Trä]]></name>
        <description>BOLIST Slöinge Trä, Slöinge</description>
        <styleUrl>#icon-22</styleUrl>
        <Point><coordinates>12.702165,56.851422,0</coordinates></Point>
      </Placemark>
      <Placemark>
        <name><![CDATA[BOLIST Idre Bygg & Järn]]></name>
        <description>BOLIST Idre Bygg & Järn, Idre</description>
        <styleUrl>#icon-22</styleUrl>
        <Point><coordinates>12.761951,61.850725,0</coordinates></Point>
      </Placemark>
      <Placemark>
        <name><![CDATA[BOLIST Fleninge]]></name>
        <description>BOLIST Fleninge, Fleninge</description>
        <styleUrl>#icon-22</styleUrl>
        <Point><coordinates>12.78906,56.10839,0</coordinates></Point>
      </Placemark>
      <Placemark>
        <name><![CDATA[BOLIST Backabo Byggvaror]]></name>
        <description>BOLIST Backabo Byggvaror, Sandared</description>
        <styleUrl>#icon-22</styleUrl>
        <Point><coordinates>12.8097,57.73206,0</coordinates></Point>
      </Placemark>
      <Placemark>
        <name><![CDATA[BOLIST JLB Bygghandel]]></name>
        <description>BOLIST JLB Bygghandel, Säffle</description>
        <styleUrl>#icon-22</styleUrl>
        <Point><coordinates>12.814338,59.106518,0</coordinates></Point>
      </Placemark>
      <Placemark>
        <name><![CDATA[BOLIST Vallåkra Lantmannaaffär]]></name>
        <description>BOLIST Vallåkra Lantmannaaffär, Vallåkra</description>
        <styleUrl>#icon-22</styleUrl>
        <Point><coordinates>12.858017,55.964469,0</coordinates></Point>
      </Placemark>
      <Placemark>
        <name><![CDATA[BOLIST Borås Järnhandel]]></name>
        <description>BOLIST Borås Järnhandel, Borås</description>
        <styleUrl>#icon-22</styleUrl>
        <Point><coordinates>12.923131,57.708143,0</coordinates></Point>
      </Placemark>
      <Placemark>
        <name><![CDATA[BOLIST Skottorps Bygghandel]]></name>
        <description>BOLIST Skottorps Bygghandel, Laholm</description>
        <styleUrl>#icon-22</styleUrl>
        <Point><coordinates>12.948963,56.455377,0</coordinates></Point>
      </Placemark>
      <Placemark>
        <name><![CDATA[BOLIST Munka Lantmän]]></name>
        <description>BOLIST Munka Lantmän, Munka-ljungby</description>
        <styleUrl>#icon-22</styleUrl>
        <Point><coordinates>12.97527,56.259802,0</coordinates></Point>
      </Placemark>
      <Placemark>
        <name><![CDATA[BOLIST Fristad]]></name>
        <description>BOLIST Fristad, Fristad</description>
        <styleUrl>#icon-22</styleUrl>
        <Point><coordinates>12.996908,57.823686,0</coordinates></Point>
      </Placemark>
      <Placemark>
        <name><![CDATA[BOLIST Likenäs]]></name>
        <description>BOLIST Likenäs, Likenäs</description>
        <styleUrl>#icon-22</styleUrl>
        <Point><coordinates>13.03561,60.612872,0</coordinates></Point>
      </Placemark>
      <Placemark>
        <name><![CDATA[BOLIST Östra Ljungby Lantmän]]></name>
        <description>BOLIST Östra Ljungby Lantmän, Östra ljungby</description>
        <styleUrl>#icon-22</styleUrl>
        <Point><coordinates>13.06323,56.1877,0</coordinates></Point>
      </Placemark>
      <Placemark>
        <name><![CDATA[BOLIST Torups Byggshop]]></name>
        <description>BOLIST Torups Byggshop, Torup</description>
        <styleUrl>#icon-22</styleUrl>
        <Point><coordinates>13.067339,56.96132,0</coordinates></Point>
      </Placemark>
      <Placemark>
        <name><![CDATA[BOLIST Lomma]]></name>
        <description>BOLIST Lomma, Lomma</description>
        <styleUrl>#icon-22</styleUrl>
        <Point><coordinates>13.068437,55.67203,0</coordinates></Point>
      </Placemark>
      <Placemark>
        <name><![CDATA[BOLIST Sunne Byggshop]]></name>
        <description>BOLIST Sunne Byggshop, Sunne</description>
        <styleUrl>#icon-22</styleUrl>
        <Point><coordinates>13.151523,59.845739,0</coordinates></Point>
      </Placemark>
      <Placemark>
        <name><![CDATA[BOLIST Svedala]]></name>
        <description>BOLIST Svedala, Svedala</description>
        <styleUrl>#icon-22</styleUrl>
        <Point><coordinates>13.235398,55.515436,0</coordinates></Point>
      </Placemark>
      <Placemark>
        <name><![CDATA[BOLIST Örkelljunga Lantmannaaffär]]></name>
        <description>BOLIST Örkelljunga Lantmannaaffär, Örkelljunga</description>
        <styleUrl>#icon-22</styleUrl>
        <Point><coordinates>13.268219,56.344063,0</coordinates></Point>
      </Placemark>
      <Placemark>
        <name><![CDATA[BOLIST Sälens Bygg & Järn]]></name>
        <description>BOLIST Sälens Bygg & Järn, Sälen</description>
        <styleUrl>#icon-22</styleUrl>
        <Point><coordinates>13.278532,61.129058,0</coordinates></Point>
      </Placemark>
      <Placemark>
        <name><![CDATA[BOLIST Limmared]]></name>
        <description>BOLIST Limmared, Limmared</description>
        <styleUrl>#icon-22</styleUrl>
        <Point><coordinates>13.352337,57.534902,0</coordinates></Point>
      </Placemark>
      <Placemark>
        <name><![CDATA[BOLIST Stehag]]></name>
        <description>BOLIST Stehag, Stehag</description>
        <styleUrl>#icon-22</styleUrl>
        <Point><coordinates>13.399871,55.902393,0</coordinates></Point>
      </Placemark>
      <Placemark>
        <name><![CDATA[BOLIST Järpen]]></name>
        <description>BOLIST Järpen, Järpen</description>
        <styleUrl>#icon-22</styleUrl>
        <Point><coordinates>13.44071,63.35664,0</coordinates></Point>
      </Placemark>
      <Placemark>
        <name><![CDATA[BOLIST Olsäter]]></name>
        <description>BOLIST Olsäter, Deje</description>
        <styleUrl>#icon-22</styleUrl>
        <Point><coordinates>13.494866,59.720479,0</coordinates></Point>
      </Placemark>
      <Placemark>
        <name><![CDATA[BOLIST Ekshärads Bygg & Järn]]></name>
        <description>BOLIST Ekshärads Bygg & Järn, Ekshärad</description>
        <styleUrl>#icon-22</styleUrl>
        <Point><coordinates>13.496639,60.168876,0</coordinates></Point>
      </Placemark>
      <Placemark>
        <name><![CDATA[Kullenbergs järn]]></name>
        <description>Kullenbergs järn, Skurup</description>
        <styleUrl>#icon-22</styleUrl>
        <Point><coordinates>13.499229,55.479754,0</coordinates></Point>
      </Placemark>
      <Placemark>
        <name><![CDATA[BOLIST Jensens Byggland]]></name>
        <description>BOLIST Jensens Byggland, Löberöd</description>
        <styleUrl>#icon-22</styleUrl>
        <Point><coordinates>13.503056,55.774575,0</coordinates></Point>
      </Placemark>
      <Placemark>
        <name><![CDATA[BOLIST Skivarp]]></name>
        <description>BOLIST Skivarp, Skivarp</description>
        <styleUrl>#icon-22</styleUrl>
        <Point><coordinates>13.569393,55.420706,0</coordinates></Point>
      </Placemark>
      <Placemark>
        <name><![CDATA[BOLIST Reftele Lantmän]]></name>
        <description>BOLIST Reftele Lantmän, Reftele</description>
        <styleUrl>#icon-22</styleUrl>
        <Point><coordinates>13.59167,57.17592,0</coordinates></Point>
      </Placemark>
      <Placemark>
        <name><![CDATA[BOLIST Svenssons järnhandel]]></name>
        <description>BOLIST Svenssons järnhandel, Hörby</description>
        <styleUrl>#icon-22</styleUrl>
        <Point><coordinates>13.662511,55.851676,0</coordinates></Point>
      </Placemark>
      <Placemark>
        <name><![CDATA[BOLIST Hörby Lantmän]]></name>
        <description>BOLIST Hörby Lantmän, Hörby</description>
        <styleUrl>#icon-22</styleUrl>
        <Point><coordinates>13.670996,55.847216,0</coordinates></Point>
      </Placemark>
      <Placemark>
        <name><![CDATA[BOLIST Torgnys Trä]]></name>
        <description>BOLIST Torgnys Trä, Karlstad</description>
        <styleUrl>#icon-22</styleUrl>
        <Point><coordinates>13.690338,59.421811,0</coordinates></Point>
      </Placemark>
      <Placemark>
        <name><![CDATA[BOLIST Malungs Bygg & Järn]]></name>
        <description>BOLIST Malungs Bygg & Järn, Malung</description>
        <styleUrl>#icon-22</styleUrl>
        <Point><coordinates>13.728313,60.682844,0</coordinates></Point>
      </Placemark>
      <Placemark>
        <name><![CDATA[BOLIST Linderöds Träindustri]]></name>
        <description>BOLIST Linderöds Träindustri, Linderöd</description>
        <styleUrl>#icon-22</styleUrl>
        <Point><coordinates>13.814569,55.933989,0</coordinates></Point>
      </Placemark>
      <Placemark>
        <name><![CDATA[BOLIST Esperöds Byggshop]]></name>
        <description>BOLIST Esperöds Byggshop, Äsperöd</description>
        <styleUrl>#icon-22</styleUrl>
        <Point><coordinates>13.919774,55.608304,0</coordinates></Point>
      </Placemark>
      <Placemark>
        <name><![CDATA[BOLIST Önnestad]]></name>
        <description>BOLIST Önnestad, Önnestad</description>
        <styleUrl>#icon-22</styleUrl>
        <Point><coordinates>14.027574,56.06187,0</coordinates></Point>
      </Placemark>
      <Placemark>
        <name><![CDATA[BOLIST Älvdalen]]></name>
        <description>BOLIST Älvdalen, Älvdalen</description>
        <styleUrl>#icon-22</styleUrl>
        <Point><coordinates>14.030671,61.231175,0</coordinates></Point>
      </Placemark>
      <Placemark>
        <name><![CDATA[BOLIST Hallen]]></name>
        <description>BOLIST Hallen, Hallen</description>
        <styleUrl>#icon-22</styleUrl>
        <Point><coordinates>14.064233,63.188153,0</coordinates></Point>
      </Placemark>
      <Placemark>
        <name><![CDATA[BOLIST Broby]]></name>
        <description>BOLIST Broby, Broby</description>
        <styleUrl>#icon-22</styleUrl>
        <Point><coordinates>14.077617,56.266098,0</coordinates></Point>
      </Placemark>
      <Placemark>
        <name><![CDATA[BOLIST Taberg]]></name>
        <description>BOLIST Taberg, Taberg</description>
        <styleUrl>#icon-22</styleUrl>
        <Point><coordinates>14.09158,57.67507,0</coordinates></Point>
      </Placemark>
      <Placemark>
        <name><![CDATA[BOLIST Löderups Lokalförening]]></name>
        <description>BOLIST Löderups Lokalförening, Löderup</description>
        <styleUrl>#icon-22</styleUrl>
        <Point><coordinates>14.112138,55.438739,0</coordinates></Point>
      </Placemark>
      <Placemark>
        <name><![CDATA[BOLIST Olsson & Co]]></name>
        <description>BOLIST Olsson & Co, Gärsnäs</description>
        <styleUrl>#icon-22</styleUrl>
        <Point><coordinates>14.178607,55.546481,0</coordinates></Point>
      </Placemark>
      <Placemark>
        <name><![CDATA[BOLIST Vansbro Byggshopp]]></name>
        <description>BOLIST Vansbro Byggshopp, Vansbro</description>
        <styleUrl>#icon-22</styleUrl>
        <Point><coordinates>14.232185,60.510617,0</coordinates></Point>
      </Placemark>
      <Placemark>
        <name><![CDATA[BOLIST Rydaholms Järnhandel]]></name>
        <description>BOLIST Rydaholms Järnhandel, Rydaholm</description>
        <styleUrl>#icon-22</styleUrl>
        <Point><coordinates>14.311087,56.986009,0</coordinates></Point>
      </Placemark>
      <Placemark>
        <name><![CDATA[BOLIST Järn & Fritid Simrishamn]]></name>
        <description>BOLIST Järn & Fritid Simrishamn, Simrishamn</description>
        <styleUrl>#icon-22</styleUrl>
        <Point><coordinates>14.335247,55.554225,0</coordinates></Point>
      </Placemark>
      <Placemark>
        <name><![CDATA[BOLIST Ny-Be Handels]]></name>
        <description>BOLIST Ny-Be Handels, Eneryda</description>
        <styleUrl>#icon-22</styleUrl>
        <Point><coordinates>14.345037,56.708189,0</coordinates></Point>
      </Placemark>
      <Placemark>
        <name><![CDATA[BOLIST Svenstavik]]></name>
        <description>BOLIST Svenstavik, Svenstavik</description>
        <styleUrl>#icon-22</styleUrl>
        <Point><coordinates>14.438911,62.768991,0</coordinates></Point>
      </Placemark>
      <Placemark>
        <name><![CDATA[BOLIST Degerfors Järn & Färg]]></name>
        <description>BOLIST Degerfors Järn & Färg, Degerfors</description>
        <styleUrl>#icon-22</styleUrl>
        <Point><coordinates>14.44076,59.2549,0</coordinates></Point>
      </Placemark>
      <Placemark>
        <name><![CDATA[BOLIST Krokom]]></name>
        <description>BOLIST Krokom, Krokom</description>
        <styleUrl>#icon-22</styleUrl>
        <Point><coordinates>14.472145,63.325025,0</coordinates></Point>
      </Placemark>
      <Placemark>
        <name><![CDATA[BOLIST Forserums Järnhandel]]></name>
        <description>BOLIST Forserums Järnhandel, Forserum</description>
        <styleUrl>#icon-22</styleUrl>
        <Point><coordinates>14.476496,57.699288,0</coordinates></Point>
      </Placemark>
      <Placemark>
        <name><![CDATA[BOLIST Bromölla Trävaror]]></name>
        <description>BOLIST Bromölla Trävaror, Bromölla</description>
        <styleUrl>#icon-22</styleUrl>
        <Point><coordinates>14.486576,56.066298,0</coordinates></Point>
      </Placemark>
      <Placemark>
        <name><![CDATA[BOLIST Hällefors Bygg & Järn]]></name>
        <description>BOLIST Hällefors Bygg & Järn, Hällefors</description>
        <styleUrl>#icon-22</styleUrl>
        <Point><coordinates>14.515289,59.781497,0</coordinates></Point>
      </Placemark>
      <Placemark>
        <name><![CDATA[BOLIST HKB Jämshög]]></name>
        <description>BOLIST HKB Jämshög, Jämshög</description>
        <styleUrl>#icon-22</styleUrl>
        <Point><coordinates>14.530664,56.238636,0</coordinates></Point>
      </Placemark>
      <Placemark>
        <name><![CDATA[BOLIST Grimslöv]]></name>
        <description>BOLIST Grimslöv, Grimslöv</description>
        <styleUrl>#icon-22</styleUrl>
        <Point><coordinates>14.551459,56.744259,0</coordinates></Point>
      </Placemark>
      <Placemark>
        <name><![CDATA[BOLIST Lammhults]]></name>
        <description>BOLIST Lammhults, Lammhult</description>
        <styleUrl>#icon-22</styleUrl>
        <Point><coordinates>14.578806,57.172941,0</coordinates></Point>
      </Placemark>
      <Placemark>
        <name><![CDATA[BOLIST Ödeshög Bygg & Järn]]></name>
        <description>BOLIST Ödeshög Bygg & Järn, Ödeshög</description>
        <styleUrl>#icon-22</styleUrl>
        <Point><coordinates>14.647431,58.233383,0</coordinates></Point>
      </Placemark>
      <Placemark>
        <name><![CDATA[BOLIST Harry Perssons Byggnadsvaror]]></name>
        <description>BOLIST Harry Perssons Byggnadsvaror, Sölvesborg</description>
        <styleUrl>#icon-22</styleUrl>
        <Point><coordinates>14.688236,56.039142,0</coordinates></Point>
      </Placemark>
      <Placemark>
        <name><![CDATA[BOLIST Växjö]]></name>
        <description>BOLIST Växjö, Växjö</description>
        <styleUrl>#icon-22</styleUrl>
        <Point><coordinates>14.734643,56.880642,0</coordinates></Point>
      </Placemark>
      <Placemark>
        <name><![CDATA[BOLIST Brunflo]]></name>
        <description>BOLIST Brunflo, Brunflo</description>
        <styleUrl>#icon-22</styleUrl>
        <Point><coordinates>14.829386,63.078134,0</coordinates></Point>
      </Placemark>
      <Placemark>
        <name><![CDATA[BOLIST Fjugesta]]></name>
        <description>BOLIST Fjugesta, Fjugesta</description>
        <styleUrl>#icon-22</styleUrl>
        <Point><coordinates>14.870691,59.172578,0</coordinates></Point>
      </Placemark>
      <Placemark>
        <name><![CDATA[BOLIST Leksands Bygg & Järn]]></name>
        <description>BOLIST Leksands Bygg & Järn, Leksand</description>
        <styleUrl>#icon-22</styleUrl>
        <Point><coordinates>15.024076,60.72073,0</coordinates></Point>
      </Placemark>
      <Placemark>
        <name><![CDATA[BOLIST Nora]]></name>
        <description>BOLIST Nora, Nora</description>
        <styleUrl>#icon-22</styleUrl>
        <Point><coordinates>15.035786,59.523094,0</coordinates></Point>
      </Placemark>
      <Placemark>
        <name><![CDATA[BOLIST Belganet]]></name>
        <description>BOLIST Belganet, Hallabro</description>
        <styleUrl>#icon-22</styleUrl>
        <Point><coordinates>15.035882,56.3871,0</coordinates></Point>
      </Placemark>
      <Placemark>
        <name><![CDATA[BOLIST Braås]]></name>
        <description>BOLIST Braås, Braås</description>
        <styleUrl>#icon-22</styleUrl>
        <Point><coordinates>15.059719,57.074622,0</coordinates></Point>
      </Placemark>
      <Placemark>
        <name><![CDATA[BOLIST Lindesberg]]></name>
        <description>BOLIST Lindesberg, Lindesberg</description>
        <styleUrl>#icon-22</styleUrl>
        <Point><coordinates>15.20011,59.601608,0</coordinates></Point>
      </Placemark>
      <Placemark>
        <name><![CDATA[BOLIST Borlänge]]></name>
        <description>BOLIST Borlänge, Borlänge</description>
        <styleUrl>#icon-22</styleUrl>
        <Point><coordinates>15.273485,60.548534,0</coordinates></Point>
      </Placemark>
      <Placemark>
        <name><![CDATA[BOLIST Eskilstunaboden Österbymo]]></name>
        <description>BOLIST Eskilstunaboden Österbymo, Ydre</description>
        <styleUrl>#icon-22</styleUrl>
        <Point><coordinates>15.274026,57.824182,0</coordinates></Point>
      </Placemark>
      <Placemark>
        <name><![CDATA[BOLIST Emmaboda]]></name>
        <description>BOLIST Emmaboda, Emmaboda</description>
        <styleUrl>#icon-22</styleUrl>
        <Point><coordinates>15.540686,56.623691,0</coordinates></Point>
      </Placemark>
      <Placemark>
        <name><![CDATA[BOLIST Lösvirkeshus Strömsund]]></name>
        <description>BOLIST Lösvirkeshus Strömsund, Strömsund</description>
        <styleUrl>#icon-22</styleUrl>
        <Point><coordinates>15.57318,63.845827,0</coordinates></Point>
      </Placemark>
      <Placemark>
        <name><![CDATA[BOLIST Virserums Järn & Byggprodukter]]></name>
        <description>BOLIST Virserums Järn & Byggprodukter, Virserum</description>
        <styleUrl>#icon-22</styleUrl>
        <Point><coordinates>15.592292,57.319802,0</coordinates></Point>
      </Placemark>
      <Placemark>
        <name><![CDATA[BOLIST Stugun]]></name>
        <description>BOLIST Stugun, Stugun</description>
        <styleUrl>#icon-22</styleUrl>
        <Point><coordinates>15.599003,63.167439,0</coordinates></Point>
      </Placemark>
      <Placemark>
        <name><![CDATA[BOLIST Allert Järn & Bygg]]></name>
        <description>BOLIST Allert Järn & Bygg, Kisa</description>
        <styleUrl>#icon-22</styleUrl>
        <Point><coordinates>15.649757,57.985707,0</coordinates></Point>
      </Placemark>
      <Placemark>
        <name><![CDATA[BOLIST Hultsfreds Järnvaruaffär]]></name>
        <description>BOLIST Hultsfreds Järnvaruaffär, Hultsfred</description>
        <styleUrl>#icon-22</styleUrl>
        <Point><coordinates>15.843003,57.495381,0</coordinates></Point>
      </Placemark>
      <Placemark>
        <name><![CDATA[BOLIST Svärdsjö]]></name>
        <description>BOLIST Svärdsjö, Svärdsjö</description>
        <styleUrl>#icon-22</styleUrl>
        <Point><coordinates>15.900057,60.736928,0</coordinates></Point>
      </Placemark>
      <Placemark>
        <name><![CDATA[BOLIST Norbergs Bygghandel]]></name>
        <description>BOLIST Norbergs Bygghandel, Norberg</description>
        <styleUrl>#icon-22</styleUrl>
        <Point><coordinates>15.937926,60.075397,0</coordinates></Point>
      </Placemark>
      <Placemark>
        <name><![CDATA[BOLIST Sandholms Färg & Golv]]></name>
        <description>BOLIST Sandholms Färg & Golv, Högsby</description>
        <styleUrl>#icon-22</styleUrl>
        <Point><coordinates>16.021,57.175,0</coordinates></Point>
      </Placemark>
      <Placemark>
        <name><![CDATA[BOLIST Ljungaverk]]></name>
        <description>BOLIST Ljungaverk, Ljungaverk</description>
        <styleUrl>#icon-22</styleUrl>
        <Point><coordinates>16.051849,62.489995,0</coordinates></Point>
      </Placemark>
      <Placemark>
        <name><![CDATA[BOLIST Kavelbrosågen]]></name>
        <description>BOLIST Kavelbrosågen, Kavelbro</description>
        <styleUrl>#icon-22</styleUrl>
        <Point><coordinates>16.05498,56.60542,0</coordinates></Point>
      </Placemark>
      <Placemark>
        <name><![CDATA[BOLIST Ljusdal]]></name>
        <description>BOLIST Ljusdal, Ljusdal</description>
        <styleUrl>#icon-22</styleUrl>
        <Point><coordinates>16.117004,61.820626,0</coordinates></Point>
      </Placemark>
      <Placemark>
        <name><![CDATA[BOLIST Järnhuset Järvsö]]></name>
        <description>BOLIST Järnhuset Järvsö, Järvsö</description>
        <styleUrl>#icon-22</styleUrl>
        <Point><coordinates>16.170703,61.7188,0</coordinates></Point>
      </Placemark>
      <Placemark>
        <name><![CDATA[BOLIST Hammarstrand]]></name>
        <description>BOLIST Hammarstrand, Hammarstrand</description>
        <styleUrl>#icon-22</styleUrl>
        <Point><coordinates>16.353242,63.109717,0</coordinates></Point>
      </Placemark>
      <Placemark>
        <name><![CDATA[BOLIST Kolmården]]></name>
        <description>BOLIST Kolmården, Kolmården</description>
        <styleUrl>#icon-22</styleUrl>
        <Point><coordinates>16.36313,58.670859,0</coordinates></Point>
      </Placemark>
      <Placemark>
        <name><![CDATA[BOLIST Leifs verktyg & Järnhandel]]></name>
        <description>BOLIST Leifs verktyg & Järnhandel, Gamleby</description>
        <styleUrl>#icon-22</styleUrl>
        <Point><coordinates>16.408035,57.899997,0</coordinates></Point>
      </Placemark>
      <Placemark>
        <name><![CDATA[BOLIST Lindbro]]></name>
        <description>BOLIST Lindbro, Sköldinge</description>
        <styleUrl>#icon-22</styleUrl>
        <Point><coordinates>16.411317,59.052153,0</coordinates></Point>
      </Placemark>
      <Placemark>
        <name><![CDATA[BOLIST Mönsterås]]></name>
        <description>BOLIST Mönsterås, Mönsterås</description>
        <styleUrl>#icon-22</styleUrl>
        <Point><coordinates>16.433603,57.027042,0</coordinates></Point>
      </Placemark>
      <Placemark>
        <name><![CDATA[BOLIST Västanhede]]></name>
        <description>BOLIST Västanhede, Horndal</description>
        <styleUrl>#icon-22</styleUrl>
        <Point><coordinates>16.437897,60.240467,0</coordinates></Point>
      </Placemark>
      <Placemark>
        <name><![CDATA[BOLIST Ramsele]]></name>
        <description>BOLIST Ramsele, Ramsele</description>
        <styleUrl>#icon-22</styleUrl>
        <Point><coordinates>16.48333,63.55,0</coordinates></Point>
      </Placemark>
      <Placemark>
        <name><![CDATA[BOLIST Magnussons Byggvaror]]></name>
        <description>BOLIST Magnussons Byggvaror, Valdemarsvik</description>
        <styleUrl>#icon-22</styleUrl>
        <Point><coordinates>16.578554,58.215763,0</coordinates></Point>
      </Placemark>
      <Placemark>
        <name><![CDATA[BOLIST Catrinelunds Hyvleri & Byggvaror]]></name>
        <description>BOLIST Catrinelunds Hyvleri & Byggvaror, Sala</description>
        <styleUrl>#icon-22</styleUrl>
        <Point><coordinates>16.617533,59.955361,0</coordinates></Point>
      </Placemark>
      <Placemark>
        <name><![CDATA[BOLIST Bettna Såg]]></name>
        <description>BOLIST Bettna Såg, Bettna</description>
        <styleUrl>#icon-22</styleUrl>
        <Point><coordinates>16.650296,58.911245,0</coordinates></Point>
      </Placemark>
      <Placemark>
        <name><![CDATA[BOLIST Jonssons Trä]]></name>
        <description>BOLIST Jonssons Trä, Borgholm</description>
        <styleUrl>#icon-22</styleUrl>
        <Point><coordinates>16.66321,56.869864,0</coordinates></Point>
      </Placemark>
      <Placemark>
        <name><![CDATA[BOLIST Anders Trä Loftahammar]]></name>
        <description>BOLIST Anders Trä Loftahammar, Loftahammar</description>
        <styleUrl>#icon-22</styleUrl>
        <Point><coordinates>16.672632,57.902166,0</coordinates></Point>
      </Placemark>
      <Placemark>
        <name><![CDATA[BOLIST Vilhelmina]]></name>
        <description>BOLIST Vilhelmina, Vilhelmina</description>
        <styleUrl>#icon-22</styleUrl>
        <Point><coordinates>16.674788,64.618593,0</coordinates></Point>
      </Placemark>
      <Placemark>
        <name><![CDATA[BOLIST Löttorp]]></name>
        <description>BOLIST Löttorp, Löttorp</description>
        <styleUrl>#icon-22</styleUrl>
        <Point><coordinates>17.000902,57.168233,0</coordinates></Point>
      </Placemark>
      <Placemark>
        <name><![CDATA[BOLIST Långsele]]></name>
        <description>BOLIST Långsele, Långsele</description>
        <styleUrl>#icon-22</styleUrl>
        <Point><coordinates>17.064414,63.177697,0</coordinates></Point>
      </Placemark>
      <Placemark>
        <name><![CDATA[BOLIST Bergom Såg]]></name>
        <description>BOLIST Bergom Såg, Matfors</description>
        <styleUrl>#icon-22</styleUrl>
        <Point><coordinates>17.081888,62.325123,0</coordinates></Point>
      </Placemark>
      <Placemark>
        <name><![CDATA[BOLIST Oxelösund]]></name>
        <description>BOLIST Oxelösund, Oxelösund</description>
        <styleUrl>#icon-22</styleUrl>
        <Point><coordinates>17.107505,58.667709,0</coordinates></Point>
      </Placemark>
      <Placemark>
        <name><![CDATA[BOLIST Östervåla]]></name>
        <description>BOLIST Östervåla, Östervåla</description>
        <styleUrl>#icon-22</styleUrl>
        <Point><coordinates>17.18724,60.18523,0</coordinates></Point>
      </Placemark>
      <Placemark>
        <name><![CDATA[BOLIST Järnboden Mariefred]]></name>
        <description>BOLIST Järnboden Mariefred, Mariefred</description>
        <styleUrl>#icon-22</styleUrl>
        <Point><coordinates>17.221726,59.259309,0</coordinates></Point>
      </Placemark>
      <Placemark>
        <name><![CDATA[BOLIST Kvissleby]]></name>
        <description>BOLIST Kvissleby, Kvissleby</description>
        <styleUrl>#icon-22</styleUrl>
        <Point><coordinates>17.35144,62.295006,0</coordinates></Point>
      </Placemark>
      <Placemark>
        <name><![CDATA[BOLIST Nyqvist Byggvaruhandel]]></name>
        <description>BOLIST Nyqvist Byggvaruhandel, Sörberge</description>
        <styleUrl>#icon-22</styleUrl>
        <Point><coordinates>17.379037,62.513602,0</coordinates></Point>
      </Placemark>
      <Placemark>
        <name><![CDATA[BOLIST Älvkarleby]]></name>
        <description>BOLIST Älvkarleby, Älvkarleby</description>
        <styleUrl>#icon-22</styleUrl>
        <Point><coordinates>17.462159,60.561744,0</coordinates></Point>
      </Placemark>
      <Placemark>
        <name><![CDATA[Bolist Lidéns]]></name>
        <description>Bolist Lidéns, Sorsele</description>
        <styleUrl>#icon-22</styleUrl>
        <Point><coordinates>17.525623,65.538038,0</coordinates></Point>
      </Placemark>
      <Placemark>
        <name><![CDATA[BOLIST Trosa]]></name>
        <description>BOLIST Trosa, Trosa</description>
        <styleUrl>#icon-22</styleUrl>
        <Point><coordinates>17.551453,58.905339,0</coordinates></Point>
      </Placemark>
      <Placemark>
        <name><![CDATA[BOLIST Sävja Byggvaror]]></name>
        <description>BOLIST Sävja Byggvaror, Uppsala</description>
        <styleUrl>#icon-22</styleUrl>
        <Point><coordinates>17.69967,59.82412,0</coordinates></Point>
      </Placemark>
      <Placemark>
        <name><![CDATA[BOLIST Nylands Järnhandel]]></name>
        <description>BOLIST Nylands Järnhandel, Nyland</description>
        <styleUrl>#icon-22</styleUrl>
        <Point><coordinates>17.763687,63.007218,0</coordinates></Point>
      </Placemark>
      <Placemark>
        <name><![CDATA[BOLIST Järn & Färghandel Tumba]]></name>
        <description>BOLIST Järn & Färghandel Tumba, Tumba</description>
        <styleUrl>#icon-22</styleUrl>
        <Point><coordinates>17.823711,59.191164,0</coordinates></Point>
      </Placemark>
      <Placemark>
        <name><![CDATA[BOLIST Österbybruk]]></name>
        <description>BOLIST Österbybruk, Österbybruk</description>
        <styleUrl>#icon-22</styleUrl>
        <Point><coordinates>17.896395,60.199621,0</coordinates></Point>
      </Placemark>
      <Placemark>
        <name><![CDATA[BOLIST Kungsholmens Järnhandel]]></name>
        <description>BOLIST Kungsholmens Järnhandel, Stockholm</description>
        <styleUrl>#icon-22</styleUrl>
        <Point><coordinates>18.034047,59.334151,0</coordinates></Point>
      </Placemark>
      <Placemark>
        <name><![CDATA[BOLIST Söders Järnhandel]]></name>
        <description>BOLIST Söders Järnhandel, Stockholm</description>
        <styleUrl>#icon-22</styleUrl>
        <Point><coordinates>18.053094,59.317578,0</coordinates></Point>
      </Placemark>
      <Placemark>
        <name><![CDATA[BOLIST Wirströms Järn & Färg]]></name>
        <description>BOLIST Wirströms Järn & Färg, Stockholm</description>
        <styleUrl>#icon-22</styleUrl>
        <Point><coordinates>18.07445,59.314216,0</coordinates></Point>
      </Placemark>
      <Placemark>
        <name><![CDATA[BOLIST Alunda]]></name>
        <description>BOLIST Alunda, Alunda</description>
        <styleUrl>#icon-22</styleUrl>
        <Point><coordinates>18.083858,60.060367,0</coordinates></Point>
      </Placemark>
      <Placemark>
        <name><![CDATA[BOLIST Karlaplans Järnaffär]]></name>
        <description>BOLIST Karlaplans Järnaffär, Stockholm</description>
        <styleUrl>#icon-22</styleUrl>
        <Point><coordinates>18.089149,59.338474,0</coordinates></Point>
      </Placemark>
      <Placemark>
        <name><![CDATA[BOLIST Bredbyn]]></name>
        <description>BOLIST Bredbyn, Bredbyn</description>
        <styleUrl>#icon-22</styleUrl>
        <Point><coordinates>18.138258,63.439425,0</coordinates></Point>
      </Placemark>
      <Placemark>
        <name><![CDATA[BOLIST Lidingö Järn & Färghandel]]></name>
        <description>BOLIST Lidingö Järn & Färghandel, Lidingö</description>
        <styleUrl>#icon-22</styleUrl>
        <Point><coordinates>18.150558,59.367933,0</coordinates></Point>
      </Placemark>
      <Placemark>
        <name><![CDATA[BOLIST J&B Saltis]]></name>
        <description>BOLIST J&B Saltis, Saltsjöbaden</description>
        <styleUrl>#icon-22</styleUrl>
        <Point><coordinates>18.273931,59.285208,0</coordinates></Point>
      </Placemark>
      <Placemark>
        <name><![CDATA[BOLIST Bertil Norrby]]></name>
        <description>BOLIST Bertil Norrby, Burgsvik</description>
        <styleUrl>#icon-22</styleUrl>
        <Point><coordinates>18.275115,57.03004,0</coordinates></Point>
      </Placemark>
      <Placemark>
        <name><![CDATA[BOLIST Österby Brädgård]]></name>
        <description>BOLIST Österby Brädgård, Visby</description>
        <styleUrl>#icon-22</styleUrl>
        <Point><coordinates>18.347208,57.632798,0</coordinates></Point>
      </Placemark>
      <Placemark>
        <name><![CDATA[BOLIST Byggman Gotland]]></name>
        <description>BOLIST Byggman Gotland, Hemse</description>
        <styleUrl>#icon-22</styleUrl>
        <Point><coordinates>18.37992,57.237121,0</coordinates></Point>
      </Placemark>
      <Placemark>
        <name><![CDATA[BOLIST Edebo]]></name>
        <description>BOLIST Edebo, Skebobruk</description>
        <styleUrl>#icon-22</styleUrl>
        <Point><coordinates>18.59028,59.981085,0</coordinates></Point>
      </Placemark>
      <Placemark>
        <name><![CDATA[BOLIST Nordemans]]></name>
        <description>BOLIST Nordemans, Örnsköldsvik</description>
        <styleUrl>#icon-22</styleUrl>
        <Point><coordinates>18.709247,63.308834,0</coordinates></Point>
      </Placemark>
      <Placemark>
        <name><![CDATA[BOLIST Malå]]></name>
        <description>BOLIST Malå, Malå</description>
        <styleUrl>#icon-22</styleUrl>
        <Point><coordinates>18.742772,65.181994,0</coordinates></Point>
      </Placemark>
      <Placemark>
        <name><![CDATA[BOLIST Elmsta Färg & Järnhandel]]></name>
        <description>BOLIST Elmsta Färg & Järnhandel, Väddö</description>
        <styleUrl>#icon-22</styleUrl>
        <Point><coordinates>18.81112,59.97259,0</coordinates></Point>
      </Placemark>
      <Placemark>
        <name><![CDATA[BOLIST Rådmansö]]></name>
        <description>BOLIST Rådmansö, Gräddö</description>
        <styleUrl>#icon-22</styleUrl>
        <Point><coordinates>19.073333,59.741111,0</coordinates></Point>
      </Placemark>
      <Placemark>
        <name><![CDATA[BOLIST Bjurholm]]></name>
        <description>BOLIST Bjurholm, Bjurholm</description>
        <styleUrl>#icon-22</styleUrl>
        <Point><coordinates>19.217264,63.930896,0</coordinates></Point>
      </Placemark>
      <Placemark>
        <name><![CDATA[BOLIST Utterströms]]></name>
        <description>BOLIST Utterströms, Nordmaling</description>
        <styleUrl>#icon-22</styleUrl>
        <Point><coordinates>19.500029,63.569099,0</coordinates></Point>
      </Placemark>
      <Placemark>
        <name><![CDATA[BOLIST Vännäs]]></name>
        <description>BOLIST Vännäs, Vännäs</description>
        <styleUrl>#icon-22</styleUrl>
        <Point><coordinates>19.750768,63.912166,0</coordinates></Point>
      </Placemark>
      <Placemark>
        <name><![CDATA[BOLIST Bagge Bygg]]></name>
        <description>BOLIST Bagge Bygg, Jokkmokk</description>
        <styleUrl>#icon-22</styleUrl>
        <Point><coordinates>19.846645,66.602558,0</coordinates></Point>
      </Placemark>
      <Placemark>
        <name><![CDATA[BOLIST Kiruna]]></name>
        <description>BOLIST Kiruna, Kiruna</description>
        <styleUrl>#icon-22</styleUrl>
        <Point><coordinates>20.251183,67.845265,0</coordinates></Point>
      </Placemark>
      <Placemark>
        <name><![CDATA[BOLIST Gällivare]]></name>
        <description>BOLIST Gällivare, Gällivare</description>
        <styleUrl>#icon-22</styleUrl>
        <Point><coordinates>20.658733,67.149646,0</coordinates></Point>
      </Placemark>
      <Placemark>
        <name><![CDATA[BOLIST Skellefteå]]></name>
        <description>BOLIST Skellefteå, Skellefteå</description>
        <styleUrl>#icon-22</styleUrl>
        <Point><coordinates>20.968766,64.736477,0</coordinates></Point>
      </Placemark>
      <Placemark>
        <name><![CDATA[BOLIST Lövånger Järn & Maskin]]></name>
        <description>BOLIST Lövånger Järn & Maskin, Lövånger</description>
        <styleUrl>#icon-22</styleUrl>
        <Point><coordinates>21.312446,64.369793,0</coordinates></Point>
      </Placemark>
      <Placemark>
        <name><![CDATA[Bolist Larsons Järn]]></name>
        <description>Bolist Larsons Järn, Överkalix</description>
        <styleUrl>#icon-22</styleUrl>
        <Point><coordinates>22.844884,66.32672,0</coordinates></Point>
      </Placemark>
      <Placemark>
        <name><![CDATA[BOLIST Kalix Bygg & Plåt]]></name>
        <description>BOLIST Kalix Bygg & Plåt, Kalix</description>
        <styleUrl>#icon-22</styleUrl>
        <Point><coordinates>23.141006,65.861942,0</coordinates></Point>
      </Placemark>
      <Placemark>
        <name><![CDATA[BOLIST Kalix Parallellgatan]]></name>
        <description>BOLIST Kalix Parallellgatan, Kalix</description>
        <styleUrl>#icon-22</styleUrl>
        <Point><coordinates>23.145022,65.854535,0</coordinates></Point>
      </Placemark>
      <Placemark>
        <name><![CDATA[BOLIST Övertorneå]]></name>
        <description>BOLIST Övertorneå, Övertorneå</description>
        <styleUrl>#icon-22</styleUrl>
        <Point><coordinates>23.659802,66.388798,0</coordinates></Point>
      </Placemark>
      <Placemark>
        <name><![CDATA[BOLIST Haparanda]]></name>
        <description>BOLIST Haparanda, Haparanda</description>
        <styleUrl>#icon-22</styleUrl>
        <Point><coordinates>24.123125,65.840883,0</coordinates></Point>
      </Placemark>
    </Folder>
  </Document>
</kml>