<?xml version="1.0" encoding="UTF-8"?>
<kml xmlns="http://www.opengis.net/kml/2.2">
  <Document>
    <name><![CDATA[Bolist]]></name>
    <description/>
    <Style id="icon-22-normal"><IconStyle><scale>1.1</scale><Icon><href>https://www.gstatic.com/mapspro/images/stock/22-blue-dot.png</href></Icon><hotSpot x="16" xunits="pixels" y="32" yunits="insetPixels"/></IconStyle><LabelStyle><scale>0</scale></LabelStyle></Style>
    <Style id="icon-22-highlight"><IconStyle><scale>1.1</scale><Icon><href>https://www.gstatic.com/mapspro/images/stock/22-blue-dot.png</href></Icon><hotSpot x="16" xunits="pixels" y="32" yunits="insetPixels"/></IconStyle><LabelStyle><scale>1.1</scale></LabelStyle></Style>
    <StyleMap id="icon-22"><Pair><key>normal</key><styleUrl>#icon-22-normal</styleUrl></Pair><Pair><key>highlight</key><styleUrl>#icon-22-highlight</styleUrl></Pair></StyleMap>
    <Folder>
      <name><![CDATA[Bolist]]></name>
      <Placemark>
        <name><![CDATA[BOLIST Hälle Byggvaror]]></name>
        <description><![CDATA[BOLIST Hälle Byggvaror, Strömstad, Sverige]]></description>
        <Point><coordinates>11.207091,58.940806,0</coordinates></Point>
        <styleUrl>#icon-22</styleUrl>
      </Placemark>
      <Placemark>
        <name><![CDATA[BOLIST G.R.G.Svensson Byggnads]]></name>
        <description><![CDATA[BOLIST G.R.G.Svensson Byggnads, Grundsund, Sverige]]></description>
        <Point><coordinates>11.43475,58.213223,0</coordinates></Point>
        <styleUrl>#icon-22</styleUrl>
      </Placemark>
      <Placemark>
        <name><![CDATA[BOLIST Lysekils Trä]]></name>
        <description><![CDATA[BOLIST Lysekils Trä, Lysekil, Sverige]]></description>
        <Point><coordinates>11.472127,58.285712,0</coordinates></Point>
        <styleUrl>#icon-22</styleUrl>
      </Placemark>
      <Placemark>
        <name><![CDATA[BOLIST Olinders]]></name>
        <description><![CDATA[BOLIST Olinders, Hönö, Sverige]]></description>
        <Point><coordinates>11.65098,57.683734,0</coordinates></Point>
        <styleUrl>#icon-22</styleUrl>
      </Placemark>
      <Placemark>
        <name><![CDATA[BOLIST Harås Byggvaror]]></name>
        <description><![CDATA[BOLIST Harås Byggvaror, Stora höga, Sverige]]></description>
        <Point><coordinates>11.839133,58.021383,0</coordinates></Point>
        <styleUrl>#icon-22</styleUrl>
      </Placemark>
      <Placemark>
        <name><![CDATA[BOLIST Mek - Service]]></name>
        <description><![CDATA[BOLIST Mek - Service, Ed, Sverige]]></description>
        <Point><coordinates>11.949732,58.904863,0</coordinates></Point>
        <styleUrl>#icon-22</styleUrl>
      </Placemark>
      <Placemark>
        <name><![CDATA[BOLIST Färgelanda]]></name>
        <description><![CDATA[BOLIST Färgelanda, Färgelanda, Sverige]]></description>
        <Point><coordinates>11.994216,58.561387,0</coordinates></Point>
        <styleUrl>#icon-22</styleUrl>
      </Placemark>
      <Placemark>
        <name><![CDATA[BOLIST Järnhandel]]></name>
        <description><![CDATA[BOLIST Järnhandel, Lilla edet, Sverige]]></description>
        <Point><coordinates>12.128943,58.142379,0</coordinates></Point>
        <styleUrl>#icon-22</styleUrl>
      </Placemark>
      <Placemark>
        <name><![CDATA[BOLIST Landvetter]]></name>
        <description><![CDATA[BOLIST Landvetter, Landvetter, Sverige]]></description>
        <Point><coordinates>12.238886,57.685189,0</coordinates></Point>
        <styleUrl>#icon-22</styleUrl>
      </Placemark>
      <Placemark>
        <name><![CDATA[BOLIST Lindveden]]></name>
        <description><![CDATA[BOLIST Lindveden, Trollhättan, Sverige]]></description>
        <Point><coordinates>12.23931,58.239644,0</coordinates></Point>
        <styleUrl>#icon-22</styleUrl>
      </Placemark>
      <Placemark>
        <name><![CDATA[BOLIST Axel P]]></name>
        <description><![CDATA[BOLIST Axel P, Bengtsfors, Sverige]]></description>
        <Point><coordinates>12.245159,59.024346,0</coordinates></Point>
        <styleUrl>#icon-22</styleUrl>
      </Placemark>
      <Placemark>
        <name><![CDATA[Bolist Lerums järnhandel]]></name>
        <description><![CDATA[Bolist Lerums järnhandel, Lerum, Sverige]]></description>
        <Point><coordinates>12.25784,57.764064,0</coordinates></Point>
        <styleUrl>#icon-22</styleUrl>
      </Placemark>
      <Placemark>
        <name><![CDATA[BOLIST J Gustavssons Byggmaterial]]></name>
        <description><![CDATA[BOLIST J Gustavssons Byggmaterial, Tvååker, Sverige]]></description>
        <Point><coordinates>12.4029,57.033439,0</coordinates></Point>
        <styleUrl>#icon-22</styleUrl>
      </Placemark>
      <Placemark>
        <name><![CDATA[BOLIST Forssa Järn & Byggvaror]]></name>
        <description><![CDATA[BOLIST Forssa Järn & Byggvaror, Bollebygd, Sverige]]></description>
        <Point><coordinates>12.535814,57.657233,0</coordinates></Point>
        <styleUrl>#icon-22</styleUrl>
      </Placemark>
      <Placemark>
        <name><![CDATA[BOLIST Forshalls Bygghandel]]></name>
        <description><![CDATA[BOLIST Forshalls Bygghandel, Grästorp, Sverige]]></description>
        <Point><coordinates>12.649887,58.337641,0</coordinates></Point>
        <styleUrl>#icon-22</styleUrl>
      </Placemark>
      <Placemark>
        <name><![CDATA[BOLIST Grästorps Trävaruaffär]]></name>
        <description><![CDATA[BOLIST Grästorps Trävaruaffär, Grästorp, Sverige]]></description>
        <Point><coordinates>12.685862,58.336339,0</coordinates></Point>
        <styleUrl>#icon-22</styleUrl>
      </Placemark>
      <Placemark>
        <name><![CDATA[BOLIST Slöinge Trä]]></name>
        <description><![CDATA[BOLIST Slöinge Trä, Slöinge, Sverige]]></description>
        <Point><coordinates>12.702165,56.851422,0</coordinates></Point>
        <styleUrl>#icon-22</styleUrl>
      </Placemark>
      <Placemark>
        <name><![CDATA[BOLIST Idre Bygg & Järn]]></name>
        <description><![CDATA[BOLIST Idre Bygg & Järn, Idre, Sverige]]></description>
        <Point><coordinates>12.761951,61.850725,0</coordinates></Point>
        <styleUrl>#icon-22</styleUrl>
      </Placemark>
      <Placemark>
        <name><![CDATA[BOLIST Fleninge]]></name>
        <description><![CDATA[BOLIST Fleninge, Fleninge, Sverige]]></description>
        <Point><coordinates>12.78906,56.10839,0</coordinates></Point>
        <styleUrl>#icon-22</styleUrl>
      </Placemark>
      <Placemark>
        <name><![CDATA[BOLIST Backabo Byggvaror]]></name>
        <description><![CDATA[BOLIST Backabo Byggvaror, Sandared, Sverige]]></description>
        <Point><coordinates>12.8097,57.73206,0</coordinates></Point>
        <styleUrl>#icon-22</styleUrl>
      </Placemark>
      <Placemark>
        <name><![CDATA[BOLIST JLB Bygghandel]]></name>
        <description><![CDATA[BOLIST JLB Bygghandel, Säffle, Sverige]]></description>
        <Point><coordinates>12.814338,59.106518,0</coordinates></Point>
        <styleUrl>#icon-22</styleUrl>
      </Placemark>
      <Placemark>
        <name><![CDATA[BOLIST Vallåkra Lantmannaaffär]]></name>
        <description><![CDATA[BOLIST Vallåkra Lantmannaaffär, Vallåkra, Sverige]]></description>
        <Point><coordinates>12.858017,55.964469,0</coordinates></Point>
        <styleUrl>#icon-22</styleUrl>
      </Placemark>
      <Placemark>
        <name><![CDATA[BOLIST Borås Järnhandel]]></name>
        <description><![CDATA[BOLIST Borås Järnhandel, Borås, Sverige]]></description>
        <Point><coordinates>12.923131,57.708143,0</coordinates></Point>
        <styleUrl>#icon-22</styleUrl>
      </Placemark>
      <Placemark>
        <name><![CDATA[BOLIST Skottorps Bygghandel]]></name>
        <description><![CDATA[BOLIST Skottorps Bygghandel, Laholm, Sverige]]></description>
        <Point><coordinates>12.948963,56.455377,0</coordinates></Point>
        <styleUrl>#icon-22</styleUrl>
      </Placemark>
      <Placemark>
        <name><![CDATA[BOLIST Munka Lantmän]]></name>
        <description><![CDATA[BOLIST Munka Lantmän, Munka-ljungby, Sverige]]></description>
        <Point><coordinates>12.97527,56.259802,0</coordinates></Point>
        <styleUrl>#icon-22</styleUrl>
      </Placemark>
      <Placemark>
        <name><![CDATA[BOLIST Fristad]]></name>
        <description><![CDATA[BOLIST Fristad, Fristad, Sverige]]></description>
        <Point><coordinates>12.996908,57.823686,0</coordinates></Point>
        <styleUrl>#icon-22</styleUrl>
      </Placemark>
      <Placemark>
        <name><![CDATA[BOLIST Likenäs]]></name>
        <description><![CDATA[BOLIST Likenäs, Likenäs, Sverige]]></description>
        <Point><coordinates>13.03561,60.612872,0</coordinates></Point>
        <styleUrl>#icon-22</styleUrl>
      </Placemark>
      <Placemark>
        <name><![CDATA[BOLIST Östra Ljungby Lantmän]]></name>
        <description><![CDATA[BOLIST Östra Ljungby Lantmän, Östra ljungby, Sverige]]></description>
        <Point><coordinates>13.06323,56.1877,0</coordinates></Point>
        <styleUrl>#icon-22</styleUrl>
      </Placemark>
      <Placemark>
        <name><![CDATA[BOLIST Torups Byggshop]]></name>
        <description><![CDATA[BOLIST Torups Byggshop, Torup, Sverige]]></description>
        <Point><coordinates>13.067339,56.96132,0</coordinates></Point>
        <styleUrl>#icon-22</styleUrl>
      </Placemark>
      <Placemark>
        <name><![CDATA[BOLIST Lomma]]></name>
        <description><![CDATA[BOLIST Lomma, Lomma, Sverige]]></description>
        <Point><coordinates>13.068437,55.67203,0</coordinates></Point>
        <styleUrl>#icon-22</styleUrl>
      </Placemark>
      <Placemark>
        <name><![CDATA[BOLIST Sunne Byggshop]]></name>
        <description><![CDATA[BOLIST Sunne Byggshop, Sunne, Sverige]]></description>
        <Point><coordinates>13.151523,59.845739,0</coordinates></Point>
        <styleUrl>#icon-22</styleUrl>
      </Placemark>
      <Placemark>
        <name><![CDATA[BOLIST Svedala]]></name>
        <description><![CDATA[BOLIST Svedala, Svedala, Sverige]]></description>
        <Point><coordinates>13.235398,55.515436,0</coordinates></Point>
        <styleUrl>#icon-22</styleUrl>
      </Placemark>
      <Placemark>
        <name><![CDATA[BOLIST Örkelljunga Lantmannaaffär]]></name>
        <description><![CDATA[BOLIST Örkelljunga Lantmannaaffär, Örkelljunga, Sverige]]></description>
        <Point><coordinates>13.268219,56.344063,0</coordinates></Point>
        <styleUrl>#icon-22</styleUrl>
      </Placemark>
      <Placemark>
        <name><![CDATA[BOLIST Sälens Bygg & Järn]]></name>
        <description><![CDATA[BOLIST Sälens Bygg & Järn, Sälen, Sverige]]></description>
        <Point><coordinates>13.278532,61.129058,0</coordinates></Point>
        <styleUrl>#icon-22</styleUrl>
      </Placemark>
      <Placemark>
        <name><![CDATA[BOLIST Limmared]]></name>
        <description><![CDATA[BOLIST Limmared, Limmared, Sverige]]></description>
        <Point><coordinates>13.352337,57.534902,0</coordinates></Point>
        <styleUrl>#icon-22</styleUrl>
      </Placemark>
      <Placemark>
        <name><![CDATA[BOLIST Stehag]]></name>
        <description><![CDATA[BOLIST Stehag, Stehag, Sverige]]></description>
        <Point><coordinates>13.399871,55.902393,0</coordinates></Point>
        <styleUrl>#icon-22</styleUrl>
      </Placemark>
      <Placemark>
        <name><![CDATA[BOLIST Järpen]]></name>
        <description><![CDATA[BOLIST Järpen, Järpen, Sverige]]></description>
        <Point><coordinates>13.44071,63.35664,0</coordinates></Point>
        <styleUrl>#icon-22</styleUrl>
      </Placemark>
      <Placemark>
        <name><![CDATA[BOLIST Olsäter]]></name>
        <description><![CDATA[BOLIST Olsäter, Deje, Sverige]]></description>
        <Point><coordinates>13.494866,59.720479,0</coordinates></Point>
        <styleUrl>#icon-22</styleUrl>
      </Placemark>
      <Placemark>
        <name><![CDATA[BOLIST Ekshärads Bygg & Järn]]></name>
        <description><![CDATA[BOLIST Ekshärads Bygg & Järn, Ekshärad, Sverige]]></description>
        <Point><coordinates>13.496639,60.168876,0</coordinates></Point>
        <styleUrl>#icon-22</styleUrl>
      </Placemark>
      <Placemark>
        <name><![CDATA[Kullenbergs järn]]></name>
        <description><![CDATA[Kullenbergs järn, Skurup, Sverige]]></description>
        <Point><coordinates>13.499229,55.479754,0</coordinates></Point>
        <styleUrl>#icon-22</styleUrl>
      </Placemark>
      <Placemark>
        <name><![CDATA[BOLIST Jensens Byggland]]></name>
        <description><![CDATA[BOLIST Jensens Byggland, Löberöd, Sverige]]></description>
        <Point><coordinates>13.503056,55.774575,0</coordinates></Point>
        <styleUrl>#icon-22</styleUrl>
      </Placemark>
      <Placemark>
        <name><![CDATA[BOLIST Skivarp]]></name>
        <description><![CDATA[BOLIST Skivarp, Skivarp, Sverige]]></description>
        <Point><coordinates>13.569393,55.420706,0</coordinates></Point>
        <styleUrl>#icon-22</styleUrl>
      </Placemark>
      <Placemark>
        <name><![CDATA[BOLIST Reftele Lantmän]]></name>
        <description><![CDATA[BOLIST Reftele Lantmän, Reftele, Sverige]]></description>
        <Point><coordinates>13.59167,57.17592,0</coordinates></Point>
        <styleUrl>#icon-22</styleUrl>
      </Placemark>
      <Placemark>
        <name><![CDATA[BOLIST Svenssons järnhandel]]></name>
        <description><![CDATA[BOLIST Svenssons järnhandel, Hörby, Sverige]]></description>
        <Point><coordinates>13.662511,55.851676,0</coordinates></Point>
        <styleUrl>#icon-22</styleUrl>
      </Placemark>
      <Placemark>
        <name><![CDATA[BOLIST Hörby Lantmän]]></name>
        <description><![CDATA[BOLIST Hörby Lantmän, Hörby, Sverige]]></description>
        <Point><coordinates>13.670996,55.847216,0</coordinates></Point>
        <styleUrl>#icon-22</styleUrl>
      </Placemark>
      <Placemark>
        <name><![CDATA[BOLIST Torgnys Trä]]></name>
        <description><![CDATA[BOLIST Torgnys Trä, Karlstad, Sverige]]></description>
        <Point><coordinates>13.690338,59.421811,0</coordinates></Point>
        <styleUrl>#icon-22</styleUrl>
      </Placemark>
      <Placemark>
        <name><![CDATA[BOLIST Malungs Bygg & Järn]]></name>
        <description><![CDATA[BOLIST Malungs Bygg & Järn, Malung, Sverige]]></description>
        <Point><coordinates>13.728313,60.682844,0</coordinates></Point>
        <styleUrl>#icon-22</styleUrl>
      </Placemark>
      <Placemark>
        <name><![CDATA[BOLIST Linderöds Träindustri]]></name>
        <description><![CDATA[BOLIST Linderöds Träindustri, Linderöd, Sverige]]></description>
        <Point><coordinates>13.814569,55.933989,0</coordinates></Point>
        <styleUrl>#icon-22</styleUrl>
      </Placemark>
      <Placemark>
        <name><![CDATA[BOLIST Esperöds Byggshop]]></name>
        <description><![CDATA[BOLIST Esperöds Byggshop, Äsperöd, Sverige]]></description>
        <Point><coordinates>13.919774,55.608304,0</coordinates></Point>
        <styleUrl>#icon-22</styleUrl>
      </Placemark>
      <Placemark>
        <name><![CDATA[BOLIST Önnestad]]></name>
        <description><![CDATA[BOLIST Önnestad, Önnestad, Sverige]]></description>
        <Point><coordinates>14.027574,56.06187,0</coordinates></Point>
        <styleUrl>#icon-22</styleUrl>
      </Placemark>
      <Placemark>
        <name><![CDATA[BOLIST Älvdalen]]></name>
        <description><![CDATA[BOLIST Älvdalen, Älvdalen, Sverige]]></description>
        <Point><coordinates>14.030671,61.231175,0</coordinates></Point>
        <styleUrl>#icon-22</styleUrl>
      </Placemark>
      <Placemark>
        <name><![CDATA[BOLIST Hallen]]></name>
        <description><![CDATA[BOLIST Hallen, Hallen, Sverige]]></description>
        <Point><coordinates>14.064233,63.188153,0</coordinates></Point>
        <styleUrl>#icon-22</styleUrl>
      </Placemark>
      <Placemark>
        <name><![CDATA[BOLIST Broby]]></name>
        <description><![CDATA[BOLIST Broby, Broby, Sverige]]></description>
        <Point><coordinates>14.077617,56.266098,0</coordinates></Point>
        <styleUrl>#icon-22</styleUrl>
      </Placemark>
      <Placemark>
        <name><![CDATA[BOLIST Taberg]]></name>
        <description><![CDATA[BOLIST Taberg, Taberg, Sverige]]></description>
        <Point><coordinates>14.09158,57.67507,0</coordinates></Point>
        <styleUrl>#icon-22</styleUrl>
      </Placemark>
      <Placemark>
        <name><![CDATA[BOLIST Löderups Lokalförening]]></name>
        <description><![CDATA[BOLIST Löderups Lokalförening, Löderup, Sverige]]></description>
        <Point><coordinates>14.112138,55.438739,0</coordinates></Point>
        <styleUrl>#icon-22</styleUrl>
      </Placemark>
      <Placemark>
        <name><![CDATA[BOLIST Olsson & Co]]></name>
        <description><![CDATA[BOLIST Olsson & Co, Gärsnäs, Sverige]]></description>
        <Point><coordinates>14.178607,55.546481,0</coordinates></Point>
        <styleUrl>#icon-22</styleUrl>
      </Placemark>
      <Placemark>
        <name><![CDATA[BOLIST Vansbro Byggshopp]]></name>
        <description><![CDATA[BOLIST Vansbro Byggshopp, Vansbro, Sverige]]></description>
        <Point><coordinates>14.232185,60.510617,0</coordinates></Point>
        <styleUrl>#icon-22</styleUrl>
      </Placemark>
      <Placemark>
        <name><![CDATA[BOLIST Rydaholms Järnhandel]]></name>
        <description><![CDATA[BOLIST Rydaholms Järnhandel, Rydaholm, Sverige]]></description>
        <Point><coordinates>14.311087,56.986009,0</coordinates></Point>
        <styleUrl>#icon-22</styleUrl>
      </Placemark>
      <Placemark>
        <name><![CDATA[BOLIST Järn & Fritid Simrishamn]]></name>
        <description><![CDATA[BOLIST Järn & Fritid Simrishamn, Simrishamn, Sverige]]></description>
        <Point><coordinates>14.335247,55.554225,0</coordinates></Point>
        <styleUrl>#icon-22</styleUrl>
      </Placemark>
      <Placemark>
        <name><![CDATA[BOLIST Ny-Be Handels]]></name>
        <description><![CDATA[BOLIST Ny-Be Handels, Eneryda, Sverige]]></description>
        <Point><coordinates>14.345037,56.708189,0</coordinates></Point>
        <styleUrl>#icon-22</styleUrl>
      </Placemark>
      <Placemark>
        <name><![CDATA[BOLIST Svenstavik]]></name>
        <description><![CDATA[BOLIST Svenstavik, Svenstavik, Sverige]]></description>
        <Point><coordinates>14.438911,62.768991,0</coordinates></Point>
        <styleUrl>#icon-22</styleUrl>
      </Placemark>
      <Placemark>
        <name><![CDATA[BOLIST Degerfors Järn & Färg]]></name>
        <description><![CDATA[BOLIST Degerfors Järn & Färg, Degerfors, Sverige]]></description>
        <Point><coordinates>14.44076,59.2549,0</coordinates></Point>
        <styleUrl>#icon-22</styleUrl>
      </Placemark>
      <Placemark>
        <name><![CDATA[BOLIST Krokom]]></name>
        <description><![CDATA[BOLIST Krokom, Krokom, Sverige]]></description>
        <Point><coordinates>14.472145,63.325025,0</coordinates></Point>
        <styleUrl>#icon-22</styleUrl>
      </Placemark>
      <Placemark>
        <name><![CDATA[BOLIST Forserums Järnhandel]]></name>
        <description><![CDATA[BOLIST Forserums Järnhandel, Forserum, Sverige]]></description>
        <Point><coordinates>14.476496,57.699288,0</coordinates></Point>
        <styleUrl>#icon-22</styleUrl>
      </Placemark>
      <Placemark>
        <name><![CDATA[BOLIST Bromölla Trävaror]]></name>
        <description><![CDATA[BOLIST Bromölla Trävaror, Bromölla, Sverige]]></description>
        <Point><coordinates>14.486576,56.066298,0</coordinates></Point>
        <styleUrl>#icon-22</styleUrl>
      </Placemark>
      <Placemark>
        <name><![CDATA[BOLIST Hällefors Bygg & Järn]]></name>
        <description><![CDATA[BOLIST Hällefors Bygg & Järn, Hällefors, Sverige]]></description>
        <Point><coordinates>14.515289,59.781497,0</coordinates></Point>
        <styleUrl>#icon-22</styleUrl>
      </Placemark>
      <Placemark>
        <name><![CDATA[BOLIST HKB Jämshög]]></name>
        <description><![CDATA[BOLIST HKB Jämshög, Jämshög, Sverige]]></description>
        <Point><coordinates>14.530664,56.238636,0</coordinates></Point>
        <styleUrl>#icon-22</styleUrl>
      </Placemark>
      <Placemark>
        <name><![CDATA[BOLIST Grimslöv]]></name>
        <description><![CDATA[BOLIST Grimslöv, Grimslöv, Sverige]]></description>
        <Point><coordinates>14.551459,56.744259,0</coordinates></Point>
        <styleUrl>#icon-22</styleUrl>
      </Placemark>
      <Placemark>
        <name><![CDATA[BOLIST Lammhults]]></name>
        <description><![CDATA[BOLIST Lammhults, Lammhult, Sverige]]></description>
        <Point><coordinates>14.578806,57.172941,0</coordinates></Point>
        <styleUrl>#icon-22</styleUrl>
      </Placemark>
      <Placemark>
        <name><![CDATA[BOLIST Ödeshög Bygg & Järn]]></name>
        <description><![CDATA[BOLIST Ödeshög Bygg & Järn, Ödeshög, Sverige]]></description>
        <Point><coordinates>14.647431,58.233383,0</coordinates></Point>
        <styleUrl>#icon-22</styleUrl>
      </Placemark>
      <Placemark>
        <name><![CDATA[BOLIST Harry Perssons Byggnadsvaror]]></name>
        <description><![CDATA[BOLIST Harry Perssons Byggnadsvaror, Sölvesborg, Sverige]]></description>
        <Point><coordinates>14.688236,56.039142,0</coordinates></Point>
        <styleUrl>#icon-22</styleUrl>
      </Placemark>
      <Placemark>
        <name><![CDATA[BOLIST Växjö]]></name>
        <description><![CDATA[BOLIST Växjö, Växjö, Sverige]]></description>
        <Point><coordinates>14.734643,56.880642,0</coordinates></Point>
        <styleUrl>#icon-22</styleUrl>
      </Placemark>
      <Placemark>
        <name><![CDATA[BOLIST Brunflo]]></name>
        <description><![CDATA[BOLIST Brunflo, Brunflo, Sverige]]></description>
        <Point><coordinates>14.829386,63.078134,0</coordinates></Point>
        <styleUrl>#icon-22</styleUrl>
      </Placemark>
      <Placemark>
        <name><![CDATA[BOLIST Fjugesta]]></name>
        <description><![CDATA[BOLIST Fjugesta, Fjugesta, Sverige]]></description>
        <Point><coordinates>14.870691,59.172578,0</coordinates></Point>
        <styleUrl>#icon-22</styleUrl>
      </Placemark>
      <Placemark>
        <name><![CDATA[BOLIST Leksands Bygg & Järn]]></name>
        <description><![CDATA[BOLIST Leksands Bygg & Järn, Leksand, Sverige]]></description>
        <Point><coordinates>15.024076,60.72073,0</coordinates></Point>
        <styleUrl>#icon-22</styleUrl>
      </Placemark>
      <Placemark>
        <name><![CDATA[BOLIST Nora]]></name>
        <description><![CDATA[BOLIST Nora, Nora, Sverige]]></description>
        <Point><coordinates>15.035786,59.523094,0</coordinates></Point>
        <styleUrl>#icon-22</styleUrl>
      </Placemark>
      <Placemark>
        <name><![CDATA[BOLIST Belganet]]></name>
        <description><![CDATA[BOLIST Belganet, Hallabro, Sverige]]></description>
        <Point><coordinates>15.035882,56.3871,0</coordinates></Point>
        <styleUrl>#icon-22</styleUrl>
      </Placemark>
      <Placemark>
        <name><![CDATA[BOLIST Braås]]></name>
        <description><![CDATA[BOLIST Braås, Braås, Sverige]]></description>
        <Point><coordinates>15.059719,57.074622,0</coordinates></Point>
        <styleUrl>#icon-22</styleUrl>
      </Placemark>
      <Placemark>
        <name><![CDATA[BOLIST Lindesberg]]></name>
        <description><![CDATA[BOLIST Lindesberg, Lindesberg, Sverige]]></description>
        <Point><coordinates>15.20011,59.601608,0</coordinates></Point>
        <styleUrl>#icon-22</styleUrl>
      </Placemark>
      <Placemark>
        <name><![CDATA[BOLIST Borlänge]]></name>
        <description><![CDATA[BOLIST Borlänge, Borlänge, Sverige]]></description>
        <Point><coordinates>15.273485,60.548534,0</coordinates></Point>
        <styleUrl>#icon-22</styleUrl>
      </Placemark>
      <Placemark>
        <name><![CDATA[BOLIST Eskilstunaboden Österbymo]]></name>
        <description><![CDATA[BOLIST Eskilstunaboden Österbymo, Ydre, Sverige]]></description>
        <Point><coordinates>15.274026,57.824182,0</coordinates></Point>
        <styleUrl>#icon-22</styleUrl>
      </Placemark>
      <Placemark>
        <name><![CDATA[BOLIST Emmaboda]]></name>
        <description><![CDATA[BOLIST Emmaboda, Emmaboda, Sverige]]></description>
        <Point><coordinates>15.540686,56.623691,0</coordinates></Point>
        <styleUrl>#icon-22</styleUrl>
      </Placemark>
      <Placemark>
        <name><![CDATA[BOLIST Lösvirkeshus Strömsund]]></name>
        <description><![CDATA[BOLIST Lösvirkeshus Strömsund, Strömsund, Sverige]]></description>
        <Point><coordinates>15.57318,63.845827,0</coordinates></Point>
        <styleUrl>#icon-22</styleUrl>
      </Placemark>
      <Placemark>
        <name><![CDATA[BOLIST Virserums Järn & Byggprodukter]]></name>
        <description><![CDATA[BOLIST Virserums Järn & Byggprodukter, Virserum, Sverige]]></description>
        <Point><coordinates>15.592292,57.319802,0</coordinates></Point>
        <styleUrl>#icon-22</styleUrl>
      </Placemark>
      <Placemark>
        <name><![CDATA[BOLIST Stugun]]></name>
        <description><![CDATA[BOLIST Stugun, Stugun, Sverige]]></description>
        <Point><coordinates>15.599003,63.167439,0</coordinates></Point>
        <styleUrl>#icon-22</styleUrl>
      </Placemark>
      <Placemark>
        <name><![CDATA[BOLIST Allert Järn & Bygg]]></name>
        <description><![CDATA[BOLIST Allert Järn & Bygg, Kisa, Sverige]]></description>
        <Point><coordinates>15.649757,57.985707,0</coordinates></Point>
        <styleUrl>#icon-22</styleUrl>
      </Placemark>
      <Placemark>
        <name><![CDATA[BOLIST Hultsfreds Järnvaruaffär]]></name>
        <description><![CDATA[BOLIST Hultsfreds Järnvaruaffär, Hultsfred, Sverige]]></description>
        <Point><coordinates>15.843003,57.495381,0</coordinates></Point>
        <styleUrl>#icon-22</styleUrl>
      </Placemark>
      <Placemark>
        <name><![CDATA[BOLIST Svärdsjö]]></name>
        <description><![CDATA[BOLIST Svärdsjö, Svärdsjö, Sverige]]></description>
        <Point><coordinates>15.900057,60.736928,0</coordinates></Point>
        <styleUrl>#icon-22</styleUrl>
      </Placemark>
      <Placemark>
        <name><![CDATA[BOLIST Norbergs Bygghandel]]></name>
        <description><![CDATA[BOLIST Norbergs Bygghandel, Norberg, Sverige]]></description>
        <Point><coordinates>15.937926,60.075397,0</coordinates></Point>
        <styleUrl>#icon-22</styleUrl>
      </Placemark>
      <Placemark>
        <name><![CDATA[BOLIST Sandholms Färg & Golv]]></name>
        <description><![CDATA[BOLIST Sandholms Färg & Golv, Högsby, Sverige]]></description>
        <Point><coordinates>16.021,57.175,0</coordinates></Point>
        <styleUrl>#icon-22</styleUrl>
      </Placemark>
      <Placemark>
        <name><![CDATA[BOLIST Ljungaverk]]></name>
        <description><![CDATA[BOLIST Ljungaverk, Ljungaverk, Sverige]]></description>
        <Point><coordinates>16.051849,62.489995,0</coordinates></Point>
        <styleUrl>#icon-22</styleUrl>
      </Placemark>
      <Placemark>
        <name><![CDATA[BOLIST Kavelbrosågen]]></name>
        <description><![CDATA[BOLIST Kavelbrosågen, Kavelbro, Sverige]]></description>
        <Point><coordinates>16.05498,56.60542,0</coordinates></Point>
        <styleUrl>#icon-22</styleUrl>
      </Placemark>
      <Placemark>
        <name><![CDATA[BOLIST Ljusdal]]></name>
        <description><![CDATA[BOLIST Ljusdal, Ljusdal, Sverige]]></description>
        <Point><coordinates>16.117004,61.820626,0</coordinates></Point>
        <styleUrl>#icon-22</styleUrl>
      </Placemark>
      <Placemark>
        <name><![CDATA[BOLIST Järnhuset Järvsö]]></name>
        <description><![CDATA[BOLIST Järnhuset Järvsö, Järvsö, Sverige]]></description>
        <Point><coordinates>16.170703,61.7188,0</coordinates></Point>
        <styleUrl>#icon-22</styleUrl>
      </Placemark>
      <Placemark>
        <name><![CDATA[BOLIST Hammarstrand]]></name>
        <description><![CDATA[BOLIST Hammarstrand, Hammarstrand, Sverige]]></description>
        <Point><coordinates>16.353242,63.109717,0</coordinates></Point>
        <styleUrl>#icon-22</styleUrl>
      </Placemark>
      <Placemark>
        <name><![CDATA[BOLIST Kolmården]]></name>
        <description><![CDATA[BOLIST Kolmården, Kolmården, Sverige]]></description>
        <Point><coordinates>16.36313,58.670859,0</coordinates></Point>
        <styleUrl>#icon-22</styleUrl>
      </Placemark>
      <Placemark>
        <name><![CDATA[BOLIST Leifs verktyg & Järnhandel]]></name>
        <description><![CDATA[BOLIST Leifs verktyg & Järnhandel, Gamleby, Sverige]]></description>
        <Point><coordinates>16.408035,57.899997,0</coordinates></Point>
        <styleUrl>#icon-22</styleUrl>
      </Placemark>
      <Placemark>
        <name><![CDATA[BOLIST Lindbro]]></name>
        <description><![CDATA[BOLIST Lindbro, Sköldinge, Sverige]]></description>
        <Point><coordinates>16.411317,59.052153,0</coordinates></Point>
        <styleUrl>#icon-22</styleUrl>
      </Placemark>
      <Placemark>
        <name><![CDATA[BOLIST Mönsterås]]></name>
        <description><![CDATA[BOLIST Mönsterås, Mönsterås, Sverige]]></description>
        <Point><coordinates>16.433603,57.027042,0</coordinates></Point>
        <styleUrl>#icon-22</styleUrl>
      </Placemark>
      <Placemark>
        <name><![CDATA[BOLIST Västanhede]]></name>
        <description><![CDATA[BOLIST Västanhede, Horndal, Sverige]]></description>
        <Point><coordinates>16.437897,60.240467,0</coordinates></Point>
        <styleUrl>#icon-22</styleUrl>
      </Placemark>
      <Placemark>
        <name><![CDATA[BOLIST Ramsele]]></name>
        <description><![CDATA[BOLIST Ramsele, Ramsele, Sverige]]></description>
        <Point><coordinates>16.48333,63.55,0</coordinates></Point>
        <styleUrl>#icon-22</styleUrl>
      </Placemark>
      <Placemark>
        <name><![CDATA[BOLIST Magnussons Byggvaror]]></name>
        <description><![CDATA[BOLIST Magnussons Byggvaror, Valdemarsvik, Sverige]]></description>
        <Point><coordinates>16.578554,58.215763,0</coordinates></Point>
        <styleUrl>#icon-22</styleUrl>
      </Placemark>
      <Placemark>
        <name><![CDATA[BOLIST Catrinelunds Hyvleri & Byggvaror]]></name>
        <description><![CDATA[BOLIST Catrinelunds Hyvleri & Byggvaror, Sala, Sverige]]></description>
        <Point><coordinates>16.617533,59.955361,0</coordinates></Point>
        <styleUrl>#icon-22</styleUrl>
      </Placemark>
      <Placemark>
        <name><![CDATA[BOLIST Bettna Såg]]></name>
        <description><![CDATA[BOLIST Bettna Såg, Bettna, Sverige]]></description>
        <Point><coordinates>16.650296,58.911245,0</coordinates></Point>
        <styleUrl>#icon-22</styleUrl>
      </Placemark>
      <Placemark>
        <name><![CDATA[BOLIST Jonssons Trä]]></name>
        <description><![CDATA[BOLIST Jonssons Trä, Borgholm, Sverige]]></description>
        <Point><coordinates>16.66321,56.869864,0</coordinates></Point>
        <styleUrl>#icon-22</styleUrl>
      </Placemark>
      <Placemark>
        <name><![CDATA[BOLIST Anders Trä Loftahammar]]></name>
        <description><![CDATA[BOLIST Anders Trä Loftahammar, Loftahammar, Sverige]]></description>
        <Point><coordinates>16.672632,57.902166,0</coordinates></Point>
        <styleUrl>#icon-22</styleUrl>
      </Placemark>
      <Placemark>
        <name><![CDATA[BOLIST Vilhelmina]]></name>
        <description><![CDATA[BOLIST Vilhelmina, Vilhelmina, Sverige]]></description>
        <Point><coordinates>16.674788,64.618593,0</coordinates></Point>
        <styleUrl>#icon-22</styleUrl>
      </Placemark>
      <Placemark>
        <name><![CDATA[BOLIST Löttorp]]></name>
        <description><![CDATA[BOLIST Löttorp, Löttorp, Sverige]]></description>
        <Point><coordinates>17.000902,57.168233,0</coordinates></Point>
        <styleUrl>#icon-22</styleUrl>
      </Placemark>
      <Placemark>
        <name><![CDATA[BOLIST Långsele]]></name>
        <description><![CDATA[BOLIST Långsele, Långsele, Sverige]]></description>
        <Point><coordinates>17.064414,63.177697,0</coordinates></Point>
        <styleUrl>#icon-22</styleUrl>
      </Placemark>
      <Placemark>
        <name><![CDATA[BOLIST Bergom Såg]]></name>
        <description><![CDATA[BOLIST Bergom Såg, Matfors, Sverige]]></description>
        <Point><coordinates>17.081888,62.325123,0</coordinates></Point>
        <styleUrl>#icon-22</styleUrl>
      </Placemark>
      <Placemark>
        <name><![CDATA[BOLIST Oxelösund]]></name>
        <description><![CDATA[BOLIST Oxelösund, Oxelösund, Sverige]]></description>
        <Point><coordinates>17.107505,58.667709,0</coordinates></Point>
        <styleUrl>#icon-22</styleUrl>
      </Placemark>
      <Placemark>
        <name><![CDATA[BOLIST Östervåla]]></name>
        <description><![CDATA[BOLIST Östervåla, Östervåla, Sverige]]></description>
        <Point><coordinates>17.18724,60.18523,0</coordinates></Point>
        <styleUrl>#icon-22</styleUrl>
      </Placemark>
      <Placemark>
        <name><![CDATA[BOLIST Järnboden Mariefred]]></name>
        <description><![CDATA[BOLIST Järnboden Mariefred, Mariefred, Sverige]]></description>
        <Point><coordinates>17.221726,59.259309,0</coordinates></Point>
        <styleUrl>#icon-22</styleUrl>
      </Placemark>
      <Placemark>
        <name><![CDATA[BOLIST Kvissleby]]></name>
        <description><![CDATA[BOLIST Kvissleby, Kvissleby, Sverige]]></description>
        <Point><coordinates>17.35144,62.295006,0</coordinates></Point>
        <styleUrl>#icon-22</styleUrl>
      </Placemark>
      <Placemark>
        <name><![CDATA[BOLIST Nyqvist Byggvaruhandel]]></name>
        <description><![CDATA[BOLIST Nyqvist Byggvaruhandel, Sörberge, Sverige]]></description>
        <Point><coordinates>17.379037,62.513602,0</coordinates></Point>
        <styleUrl>#icon-22</styleUrl>
      </Placemark>
      <Placemark>
        <name><![CDATA[BOLIST Älvkarleby]]></name>
        <description><![CDATA[BOLIST Älvkarleby, Älvkarleby, Sverige]]></description>
        <Point><coordinates>17.462159,60.561744,0</coordinates></Point>
        <styleUrl>#icon-22</styleUrl>
      </Placemark>
      <Placemark>
        <name><![CDATA[Bolist Lidéns]]></name>
        <description><![CDATA[Bolist Lidéns, Sorsele, Sverige]]></description>
        <Point><coordinates>17.525623,65.538038,0</coordinates></Point>
        <styleUrl>#icon-22</styleUrl>
      </Placemark>
      <Placemark>
        <name><![CDATA[BOLIST Trosa]]></name>
        <description><![CDATA[BOLIST Trosa, Trosa, Sverige]]></description>
        <Point><coordinates>17.551453,58.905339,0</coordinates></Point>
        <styleUrl>#icon-22</styleUrl>
      </Placemark>
      <Placemark>
        <name><![CDATA[BOLIST Sävja Byggvaror]]></name>
        <description><![CDATA[BOLIST Sävja Byggvaror, Uppsala, Sverige]]></description>
        <Point><coordinates>17.69967,59.82412,0</coordinates></Point>
        <styleUrl>#icon-22</styleUrl>
      </Placemark>
      <Placemark>
        <name><![CDATA[BOLIST Nylands Järnhandel]]></name>
        <description><![CDATA[BOLIST Nylands Järnhandel, Nyland, Sverige]]></description>
        <Point><coordinates>17.763687,63.007218,0</coordinates></Point>
        <styleUrl>#icon-22</styleUrl>
      </Placemark>
      <Placemark>
        <name><![CDATA[BOLIST Järn & Färghandel Tumba]]></name>
        <description><![CDATA[BOLIST Järn & Färghandel Tumba, Tumba, Sverige]]></description>
        <Point><coordinates>17.823711,59.191164,0</coordinates></Point>
        <styleUrl>#icon-22</styleUrl>
      </Placemark>
      <Placemark>
        <name><![CDATA[BOLIST Österbybruk]]></name>
        <description><![CDATA[BOLIST Österbybruk, Österbybruk, Sverige]]></description>
        <Point><coordinates>17.896395,60.199621,0</coordinates></Point>
        <styleUrl>#icon-22</styleUrl>
      </Placemark>
      <Placemark>
        <name><![CDATA[BOLIST Kungsholmens Järnhandel]]></name>
        <description><![CDATA[BOLIST Kungsholmens Järnhandel, Stockholm, Sverige]]></description>
        <Point><coordinates>18.034047,59.334151,0</coordinates></Point>
        <styleUrl>#icon-22</styleUrl>
      </Placemark>
      <Placemark>
        <name><![CDATA[BOLIST Söders Järnhandel]]></name>
        <description><![CDATA[BOLIST Söders Järnhandel, Stockholm, Sverige]]></description>
        <Point><coordinates>18.053094,59.317578,0</coordinates></Point>
        <styleUrl>#icon-22</styleUrl>
      </Placemark>
      <Placemark>
        <name><![CDATA[BOLIST Wirströms Järn & Färg]]></name>
        <description><![CDATA[BOLIST Wirströms Järn & Färg, Stockholm, Sverige]]></description>
        <Point><coordinates>18.07445,59.314216,0</coordinates></Point>
        <styleUrl>#icon-22</styleUrl>
      </Placemark>
      <Placemark>
        <name><![CDATA[BOLIST Alunda]]></name>
        <description><![CDATA[BOLIST Alunda, Alunda, Sverige]]></description>
        <Point><coordinates>18.083858,60.060367,0</coordinates></Point>
        <styleUrl>#icon-22</styleUrl>
      </Placemark>
      <Placemark>
        <name><![CDATA[BOLIST Karlaplans Järnaffär]]></name>
        <description><![CDATA[BOLIST Karlaplans Järnaffär, Stockholm, Sverige]]></description>
        <Point><coordinates>18.089149,59.338474,0</coordinates></Point>
        <styleUrl>#icon-22</styleUrl>
      </Placemark>
      <Placemark>
        <name><![CDATA[BOLIST Bredbyn]]></name>
        <description><![CDATA[BOLIST Bredbyn, Bredbyn, Sverige]]></description>
        <Point><coordinates>18.138258,63.439425,0</coordinates></Point>
        <styleUrl>#icon-22</styleUrl>
      </Placemark>
      <Placemark>
        <name><![CDATA[BOLIST Lidingö Järn & Färghandel]]></name>
        <description><![CDATA[BOLIST Lidingö Järn & Färghandel, Lidingö, Sverige]]></description>
        <Point><coordinates>18.150558,59.367933,0</coordinates></Point>
        <styleUrl>#icon-22</styleUrl>
      </Placemark>
      <Placemark>
        <name><![CDATA[BOLIST J&B Saltis]]></name>
        <description><![CDATA[BOLIST J&B Saltis, Saltsjöbaden, Sverige]]></description>
        <Point><coordinates>18.273931,59.285208,0</coordinates></Point>
        <styleUrl>#icon-22</styleUrl>
      </Placemark>
      <Placemark>
        <name><![CDATA[BOLIST Bertil Norrby]]></name>
        <description><![CDATA[BOLIST Bertil Norrby, Burgsvik, Sverige]]></description>
        <Point><coordinates>18.275115,57.03004,0</coordinates></Point>
        <styleUrl>#icon-22</styleUrl>
      </Placemark>
      <Placemark>
        <name><![CDATA[BOLIST Österby Brädgård]]></name>
        <description><![CDATA[BOLIST Österby Brädgård, Visby, Sverige]]></description>
        <Point><coordinates>18.347208,57.632798,0</coordinates></Point>
        <styleUrl>#icon-22</styleUrl>
      </Placemark>
      <Placemark>
        <name><![CDATA[BOLIST Byggman Gotland]]></name>
        <description><![CDATA[BOLIST Byggman Gotland, Hemse, Sverige]]></description>
        <Point><coordinates>18.37992,57.237121,0</coordinates></Point>
        <styleUrl>#icon-22</styleUrl>
      </Placemark>
      <Placemark>
        <name><![CDATA[BOLIST Edebo]]></name>
        <description><![CDATA[BOLIST Edebo, Skebobruk, Sverige]]></description>
        <Point><coordinates>18.59028,59.981085,0</coordinates></Point>
        <styleUrl>#icon-22</styleUrl>
      </Placemark>
      <Placemark>
        <name><![CDATA[BOLIST Nordemans]]></name>
        <description><![CDATA[BOLIST Nordemans, Örnsköldsvik, Sverige]]></description>
        <Point><coordinates>18.709247,63.308834,0</coordinates></Point>
        <styleUrl>#icon-22</styleUrl>
      </Placemark>
      <Placemark>
        <name><![CDATA[BOLIST Malå]]></name>
        <description><![CDATA[BOLIST Malå, Malå, Sverige]]></description>
        <Point><coordinates>18.742772,65.181994,0</coordinates></Point>
        <styleUrl>#icon-22</styleUrl>
      </Placemark>
      <Placemark>
        <name><![CDATA[BOLIST Elmsta Färg & Järnhandel]]></name>
        <description><![CDATA[BOLIST Elmsta Färg & Järnhandel, Väddö, Sverige]]></description>
        <Point><coordinates>18.81112,59.97259,0</coordinates></Point>
        <styleUrl>#icon-22</styleUrl>
      </Placemark>
      <Placemark>
        <name><![CDATA[BOLIST Rådmansö]]></name>
        <description><![CDATA[BOLIST Rådmansö, Gräddö, Sverige]]></description>
        <Point><coordinates>19.073333,59.741111,0</coordinates></Point>
        <styleUrl>#icon-22</styleUrl>
      </Placemark>
      <Placemark>
        <name><![CDATA[BOLIST Bjurholm]]></name>
        <description><![CDATA[BOLIST Bjurholm, Bjurholm, Sverige]]></description>
        <Point><coordinates>19.217264,63.930896,0</coordinates></Point>
        <styleUrl>#icon-22</styleUrl>
      </Placemark>
      <Placemark>
        <name><![CDATA[BOLIST Utterströms]]></name>
        <description><![CDATA[BOLIST Utterströms, Nordmaling, Sverige]]></description>
        <Point><coordinates>19.500029,63.569099,0</coordinates></Point>
        <styleUrl>#icon-22</styleUrl>
      </Placemark>
      <Placemark>
        <name><![CDATA[BOLIST Vännäs]]></name>
        <description><![CDATA[BOLIST Vännäs, Vännäs, Sverige]]></description>
        <Point><coordinates>19.750768,63.912166,0</coordinates></Point>
        <styleUrl>#icon-22</styleUrl>
      </Placemark>
      <Placemark>
        <name><![CDATA[BOLIST Bagge Bygg]]></name>
        <description><![CDATA[BOLIST Bagge Bygg, Jokkmokk, Sverige]]></description>
        <Point><coordinates>19.846645,66.602558,0</coordinates></Point>
        <styleUrl>#icon-22</styleUrl>
      </Placemark>
      <Placemark>
        <name><![CDATA[BOLIST Kiruna]]></name>
        <description><![CDATA[BOLIST Kiruna, Kiruna, Sverige]]></description>
        <Point><coordinates>20.251183,67.845265,0</coordinates></Point>
        <styleUrl>#icon-22</styleUrl>
      </Placemark>
      <Placemark>
        <name><![CDATA[BOLIST Gällivare]]></name>
        <description><![CDATA[BOLIST Gällivare, Gällivare, Sverige]]></description>
        <Point><coordinates>20.658733,67.149646,0</coordinates></Point>
        <styleUrl>#icon-22</styleUrl>
      </Placemark>
      <Placemark>
        <name><![CDATA[BOLIST Skellefteå]]></name>
        <description><![CDATA[BOLIST Skellefteå, Skellefteå, Sverige]]></description>
        <Point><coordinates>20.968766,64.736477,0</coordinates></Point>
        <styleUrl>#icon-22</styleUrl>
      </Placemark>
      <Placemark>
        <name><![CDATA[BOLIST Lövånger Järn & Maskin]]></name>
        <description><![CDATA[BOLIST Lövånger Järn & Maskin, Lövånger, Sverige]]></description>
        <Point><coordinates>21.312446,64.369793,0</coordinates></Point>
        <styleUrl>#icon-22</styleUrl>
      </Placemark>
      <Placemark>
        <name><![CDATA[Bolist Larsons Järn]]></name>
        <description><![CDATA[Bolist Larsons Järn, Överkalix, Sverige]]></description>
        <Point><coordinates>22.844884,66.32672,0</coordinates></Point>
        <styleUrl>#icon-22</styleUrl>
      </Placemark>
      <Placemark>
        <name><![CDATA[BOLIST Kalix Bygg & Plåt]]></name>
        <description><![CDATA[BOLIST Kalix Bygg & Plåt, Kalix, Sverige]]></description>
        <Point><coordinates>23.141006,65.861942,0</coordinates></Point>
        <styleUrl>#icon-22</styleUrl>
      </Placemark>
      <Placemark>
        <name><![CDATA[BOLIST Kalix Parallellgatan]]></name>
        <description><![CDATA[BOLIST Kalix Parallellgatan, Kalix, Sverige]]></description>
        <Point><coordinates>23.145022,65.854535,0</coordinates></Point>
        <styleUrl>#icon-22</styleUrl>
      </Placemark>
      <Placemark>
        <name><![CDATA[BOLIST Övertorneå]]></name>
        <description><![CDATA[BOLIST Övertorneå, Övertorneå, Sverige]]></description>
        <Point><coordinates>23.659802,66.388798,0</coordinates></Point>
        <styleUrl>#icon-22</styleUrl>
      </Placemark>
      <Placemark>
        <name><![CDATA[BOLIST Haparanda]]></name>
        <description><![CDATA[BOLIST Haparanda, Haparanda, Sverige]]></description>
        <Point><coordinates>24.123125,65.840883,0</coordinates></Point>
        <styleUrl>#icon-22</styleUrl>
      </Placemark>
    </Folder>
  </Document>
</kml>