<?xml version="1.0" encoding="UTF-8"?>
<kml xmlns="http://www.opengis.net/kml/2.2">
  <Document>
    <name><![CDATA[Cubus]]></name>
    <description/>
    <Style id="icon-22-normal"><IconStyle><scale>1.1</scale><Icon><href>https://www.gstatic.com/mapspro/images/stock/22-blue-dot.png</href></Icon><hotSpot x="16" xunits="pixels" y="32" yunits="insetPixels"/></IconStyle><LabelStyle><scale>0</scale></LabelStyle></Style>
    <Style id="icon-22-highlight"><IconStyle><scale>1.1</scale><Icon><href>https://www.gstatic.com/mapspro/images/stock/22-blue-dot.png</href></Icon><hotSpot x="16" xunits="pixels" y="32" yunits="insetPixels"/></IconStyle><LabelStyle><scale>1.1</scale></LabelStyle></Style>
    <StyleMap id="icon-22"><Pair><key>normal</key><styleUrl>#icon-22-normal</styleUrl></Pair><Pair><key>highlight</key><styleUrl>#icon-22-highlight</styleUrl></Pair></StyleMap>
    <Folder>
      <name><![CDATA[Cubus]]></name>
      <Placemark>
        <name><![CDATA[Florø]]></name>
        <description><![CDATA[Florø, Florø]]></description>
        <Point><coordinates>5.037931,61.600843,0</coordinates></Point>
        <styleUrl>#icon-22</styleUrl>
      </Placemark>
      <Placemark>
        <name><![CDATA[Sotra - Bergen]]></name>
        <description><![CDATA[Sotra - Bergen, Bergen]]></description>
        <Point><coordinates>5.126929,60.357696,0</coordinates></Point>
        <styleUrl>#icon-22</styleUrl>
      </Placemark>
      <Placemark>
        <name><![CDATA[Bømlo]]></name>
        <description><![CDATA[Bømlo, Bømlo]]></description>
        <Point><coordinates>5.132526,59.770779,0</coordinates></Point>
        <styleUrl>#icon-22</styleUrl>
      </Placemark>
      <Placemark>
        <name><![CDATA[Måløy]]></name>
        <description><![CDATA[Måløy, Måløy]]></description>
        <Point><coordinates>5.14469,61.926939,0</coordinates></Point>
        <styleUrl>#icon-22</styleUrl>
      </Placemark>
      <Placemark>
        <name><![CDATA[Åkrehamn]]></name>
        <description><![CDATA[Åkrehamn, Åkrehamn]]></description>
        <Point><coordinates>5.192457,59.264215,0</coordinates></Point>
        <styleUrl>#icon-22</styleUrl>
      </Placemark>
      <Placemark>
        <name><![CDATA[Kleppestø - Bergen]]></name>
        <description><![CDATA[Kleppestø - Bergen, Bergen]]></description>
        <Point><coordinates>5.226849,60.409076,0</coordinates></Point>
        <styleUrl>#icon-22</styleUrl>
      </Placemark>
      <Placemark>
        <name><![CDATA[Vestkanten - Bergen]]></name>
        <description><![CDATA[Vestkanten - Bergen, Bergen]]></description>
        <Point><coordinates>5.233333,60.366667,0</coordinates></Point>
        <styleUrl>#icon-22</styleUrl>
      </Placemark>
      <Placemark>
        <name><![CDATA[Markedet - Haugesund]]></name>
        <description><![CDATA[Markedet - Haugesund, Haugesund]]></description>
        <Point><coordinates>5.273388,59.4113,0</coordinates></Point>
        <styleUrl>#icon-22</styleUrl>
      </Placemark>
      <Placemark>
        <name><![CDATA[Knarvik - Bergen]]></name>
        <description><![CDATA[Knarvik - Bergen, Bergen]]></description>
        <Point><coordinates>5.285967,60.547643,0</coordinates></Point>
        <styleUrl>#icon-22</styleUrl>
      </Placemark>
      <Placemark>
        <name><![CDATA[Laksevåg - Bergen]]></name>
        <description><![CDATA[Laksevåg - Bergen, Bergen]]></description>
        <Point><coordinates>5.287007,60.389514,0</coordinates></Point>
        <styleUrl>#icon-22</styleUrl>
      </Placemark>
      <Placemark>
        <name><![CDATA[Oasen - Bergen]]></name>
        <description><![CDATA[Oasen - Bergen, Bergen]]></description>
        <Point><coordinates>5.290167,60.349607,0</coordinates></Point>
        <styleUrl>#icon-22</styleUrl>
      </Placemark>
      <Placemark>
        <name><![CDATA[Horisont Åsane - Bergen]]></name>
        <description><![CDATA[Horisont Åsane - Bergen, Bergen]]></description>
        <Point><coordinates>5.32321,60.469412,0</coordinates></Point>
        <styleUrl>#icon-22</styleUrl>
      </Placemark>
      <Placemark>
        <name><![CDATA[Sundt - Bergen]]></name>
        <description><![CDATA[Sundt - Bergen, Bergen]]></description>
        <Point><coordinates>5.323941,60.392311,0</coordinates></Point>
        <styleUrl>#icon-22</styleUrl>
      </Placemark>
      <Placemark>
        <name><![CDATA[Åsane Storsenter - Bergen]]></name>
        <description><![CDATA[Åsane Storsenter - Bergen, Bergen]]></description>
        <Point><coordinates>5.324653,60.468824,0</coordinates></Point>
        <styleUrl>#icon-22</styleUrl>
      </Placemark>
      <Placemark>
        <name><![CDATA[Torgallmenningen - Bergen]]></name>
        <description><![CDATA[Torgallmenningen - Bergen, Bergen]]></description>
        <Point><coordinates>5.325368,60.392995,0</coordinates></Point>
        <styleUrl>#icon-22</styleUrl>
      </Placemark>
      <Placemark>
        <name><![CDATA[Lagunen - Bergen]]></name>
        <description><![CDATA[Lagunen - Bergen, Bergen]]></description>
        <Point><coordinates>5.328386,60.297384,0</coordinates></Point>
        <styleUrl>#icon-22</styleUrl>
      </Placemark>
      <Placemark>
        <name><![CDATA[Amanda - Haugesund]]></name>
        <description><![CDATA[Amanda - Haugesund, Haugesund]]></description>
        <Point><coordinates>5.33134,59.396284,0</coordinates></Point>
        <styleUrl>#icon-22</styleUrl>
      </Placemark>
      <Placemark>
        <name><![CDATA[Bergen Storsenter]]></name>
        <description><![CDATA[Bergen Storsenter, Bergen]]></description>
        <Point><coordinates>5.333172,60.390575,0</coordinates></Point>
        <styleUrl>#icon-22</styleUrl>
      </Placemark>
      <Placemark>
        <name><![CDATA[Amfi Os - Bergen]]></name>
        <description><![CDATA[Amfi Os - Bergen, Bergen]]></description>
        <Point><coordinates>5.456271,60.202431,0</coordinates></Point>
        <styleUrl>#icon-22</styleUrl>
      </Placemark>
      <Placemark>
        <name><![CDATA[Øyrane Torg - Bergen]]></name>
        <description><![CDATA[Øyrane Torg - Bergen, Bergen]]></description>
        <Point><coordinates>5.465028,60.421317,0</coordinates></Point>
        <styleUrl>#icon-22</styleUrl>
      </Placemark>
      <Placemark>
        <name><![CDATA[Stord]]></name>
        <description><![CDATA[Stord, Stord]]></description>
        <Point><coordinates>5.499533,59.77896,0</coordinates></Point>
        <styleUrl>#icon-22</styleUrl>
      </Placemark>
      <Placemark>
        <name><![CDATA[Jærhagen]]></name>
        <description><![CDATA[Jærhagen, Jærhagen]]></description>
        <Point><coordinates>5.626237,58.779492,0</coordinates></Point>
        <styleUrl>#icon-22</styleUrl>
      </Placemark>
      <Placemark>
        <name><![CDATA[Fosnavåg]]></name>
        <description><![CDATA[Fosnavåg, Fosnavåg]]></description>
        <Point><coordinates>5.634596,62.341458,0</coordinates></Point>
        <styleUrl>#icon-22</styleUrl>
      </Placemark>
      <Placemark>
        <name><![CDATA[Bryne]]></name>
        <description><![CDATA[Bryne, Bryne]]></description>
        <Point><coordinates>5.639826,58.73544,0</coordinates></Point>
        <styleUrl>#icon-22</styleUrl>
      </Placemark>
      <Placemark>
        <name><![CDATA[Tasta - Stavanger]]></name>
        <description><![CDATA[Tasta - Stavanger, Stavanger]]></description>
        <Point><coordinates>5.673813,58.982924,0</coordinates></Point>
        <styleUrl>#icon-22</styleUrl>
      </Placemark>
      <Placemark>
        <name><![CDATA[Madla]]></name>
        <description><![CDATA[Madla, Hafrsfjord]]></description>
        <Point><coordinates>5.68064,58.95212,0</coordinates></Point>
        <styleUrl>#icon-22</styleUrl>
      </Placemark>
      <Placemark>
        <name><![CDATA[Kvadrat - Sandnes]]></name>
        <description><![CDATA[Kvadrat - Sandnes, Sandnes]]></description>
        <Point><coordinates>5.72158,58.876096,0</coordinates></Point>
        <styleUrl>#icon-22</styleUrl>
      </Placemark>
      <Placemark>
        <name><![CDATA[Arkaden - Stavanger]]></name>
        <description><![CDATA[Arkaden - Stavanger, Stavanger]]></description>
        <Point><coordinates>5.736134,58.970747,0</coordinates></Point>
        <styleUrl>#icon-22</styleUrl>
      </Placemark>
      <Placemark>
        <name><![CDATA[Vågen - Sandnes]]></name>
        <description><![CDATA[Vågen - Sandnes, Sandnes]]></description>
        <Point><coordinates>5.738124,58.851165,0</coordinates></Point>
        <styleUrl>#icon-22</styleUrl>
      </Placemark>
      <Placemark>
        <name><![CDATA[Husnes]]></name>
        <description><![CDATA[Husnes, Husnes]]></description>
        <Point><coordinates>5.756034,59.862105,0</coordinates></Point>
        <styleUrl>#icon-22</styleUrl>
      </Placemark>
      <Placemark>
        <name><![CDATA[Førde]]></name>
        <description><![CDATA[Førde, Førde]]></description>
        <Point><coordinates>5.848778,61.45264,0</coordinates></Point>
        <styleUrl>#icon-22</styleUrl>
      </Placemark>
      <Placemark>
        <name><![CDATA[Ålgård]]></name>
        <description><![CDATA[Ålgård, Ålgård]]></description>
        <Point><coordinates>5.850232,58.767081,0</coordinates></Point>
        <styleUrl>#icon-22</styleUrl>
      </Placemark>
      <Placemark>
        <name><![CDATA[Ulsteinvik]]></name>
        <description><![CDATA[Ulsteinvik, Ulsteinvik]]></description>
        <Point><coordinates>5.854989,62.339759,0</coordinates></Point>
        <styleUrl>#icon-22</styleUrl>
      </Placemark>
      <Placemark>
        <name><![CDATA[Nordfjordeid]]></name>
        <description><![CDATA[Nordfjordeid, Nordfjordeid]]></description>
        <Point><coordinates>5.984134,61.90834,0</coordinates></Point>
        <styleUrl>#icon-22</styleUrl>
      </Placemark>
      <Placemark>
        <name><![CDATA[Egersund]]></name>
        <description><![CDATA[Egersund, Egersund]]></description>
        <Point><coordinates>6.004178,58.453064,0</coordinates></Point>
        <styleUrl>#icon-22</styleUrl>
      </Placemark>
      <Placemark>
        <name><![CDATA[Jørpeland]]></name>
        <description><![CDATA[Jørpeland, Jørpeland]]></description>
        <Point><coordinates>6.039356,59.020634,0</coordinates></Point>
        <styleUrl>#icon-22</styleUrl>
      </Placemark>
      <Placemark>
        <name><![CDATA[Volda]]></name>
        <description><![CDATA[Volda, Volda]]></description>
        <Point><coordinates>6.067282,62.144945,0</coordinates></Point>
        <styleUrl>#icon-22</styleUrl>
      </Placemark>
      <Placemark>
        <name><![CDATA[Ørsta]]></name>
        <description><![CDATA[Ørsta, Ørsta]]></description>
        <Point><coordinates>6.123901,62.199464,0</coordinates></Point>
        <styleUrl>#icon-22</styleUrl>
      </Placemark>
      <Placemark>
        <name><![CDATA[Norheimsund]]></name>
        <description><![CDATA[Norheimsund, Norheimsund]]></description>
        <Point><coordinates>6.145361,60.372757,0</coordinates></Point>
        <styleUrl>#icon-22</styleUrl>
      </Placemark>
      <Placemark>
        <name><![CDATA[Ålesund]]></name>
        <description><![CDATA[Ålesund, Ålesund]]></description>
        <Point><coordinates>6.157816,62.472861,0</coordinates></Point>
        <styleUrl>#icon-22</styleUrl>
      </Placemark>
      <Placemark>
        <name><![CDATA[Moa - Ålesund]]></name>
        <description><![CDATA[Moa - Ålesund, Ålesund]]></description>
        <Point><coordinates>6.34969,62.466282,0</coordinates></Point>
        <styleUrl>#icon-22</styleUrl>
      </Placemark>
      <Placemark>
        <name><![CDATA[Voss]]></name>
        <description><![CDATA[Voss, Voss]]></description>
        <Point><coordinates>6.434212,60.629475,0</coordinates></Point>
        <styleUrl>#icon-22</styleUrl>
      </Placemark>
      <Placemark>
        <name><![CDATA[Odda]]></name>
        <description><![CDATA[Odda, Odda]]></description>
        <Point><coordinates>6.545616,60.069064,0</coordinates></Point>
        <styleUrl>#icon-22</styleUrl>
      </Placemark>
      <Placemark>
        <name><![CDATA[Flekkefjord]]></name>
        <description><![CDATA[Flekkefjord, Flekkefjord]]></description>
        <Point><coordinates>6.666492,58.29447,0</coordinates></Point>
        <styleUrl>#icon-22</styleUrl>
      </Placemark>
      <Placemark>
        <name><![CDATA[Stryn]]></name>
        <description><![CDATA[Stryn, Stryn]]></description>
        <Point><coordinates>6.719208,61.903342,0</coordinates></Point>
        <styleUrl>#icon-22</styleUrl>
      </Placemark>
      <Placemark>
        <name><![CDATA[Farsund]]></name>
        <description><![CDATA[Farsund, Farsund]]></description>
        <Point><coordinates>6.80351,58.095967,0</coordinates></Point>
        <styleUrl>#icon-22</styleUrl>
      </Placemark>
      <Placemark>
        <name><![CDATA[Vestnes]]></name>
        <description><![CDATA[Vestnes, Vestnes]]></description>
        <Point><coordinates>7.088384,62.626436,0</coordinates></Point>
        <styleUrl>#icon-22</styleUrl>
      </Placemark>
      <Placemark>
        <name><![CDATA[Lyngdal]]></name>
        <description><![CDATA[Lyngdal, Lyngdal]]></description>
        <Point><coordinates>7.101696,58.156363,0</coordinates></Point>
        <styleUrl>#icon-22</styleUrl>
      </Placemark>
      <Placemark>
        <name><![CDATA[Sogndal]]></name>
        <description><![CDATA[Sogndal, Sogndal]]></description>
        <Point><coordinates>7.102038,61.23203,0</coordinates></Point>
        <styleUrl>#icon-22</styleUrl>
      </Placemark>
      <Placemark>
        <name><![CDATA[Roseby - Molde]]></name>
        <description><![CDATA[Roseby - Molde, Molde]]></description>
        <Point><coordinates>7.178279,62.739251,0</coordinates></Point>
        <styleUrl>#icon-22</styleUrl>
      </Placemark>
      <Placemark>
        <name><![CDATA[Mandal]]></name>
        <description><![CDATA[Mandal, Mandal]]></description>
        <Point><coordinates>7.461263,58.028992,0</coordinates></Point>
        <styleUrl>#icon-22</styleUrl>
      </Placemark>
      <Placemark>
        <name><![CDATA[Åndalsnes]]></name>
        <description><![CDATA[Åndalsnes, Åndalsnes]]></description>
        <Point><coordinates>7.68722,62.567446,0</coordinates></Point>
        <styleUrl>#icon-22</styleUrl>
      </Placemark>
      <Placemark>
        <name><![CDATA[Futura - Kristiansund]]></name>
        <description><![CDATA[Futura - Kristiansund, Kristiansund]]></description>
        <Point><coordinates>7.728079,63.110335,0</coordinates></Point>
        <styleUrl>#icon-22</styleUrl>
      </Placemark>
      <Placemark>
        <name><![CDATA[Kristiansund N]]></name>
        <description><![CDATA[Kristiansund N, Kristiansund]]></description>
        <Point><coordinates>7.728079,63.110335,0</coordinates></Point>
        <styleUrl>#icon-22</styleUrl>
      </Placemark>
      <Placemark>
        <name><![CDATA[Evje]]></name>
        <description><![CDATA[Evje, Evje]]></description>
        <Point><coordinates>7.807359,58.587138,0</coordinates></Point>
        <styleUrl>#icon-22</styleUrl>
      </Placemark>
      <Placemark>
        <name><![CDATA[Vågsbygd - Kristiansand]]></name>
        <description><![CDATA[Vågsbygd - Kristiansand, Kristiansand]]></description>
        <Point><coordinates>7.953911,58.12456,0</coordinates></Point>
        <styleUrl>#icon-22</styleUrl>
      </Placemark>
      <Placemark>
        <name><![CDATA[Vennesla]]></name>
        <description><![CDATA[Vennesla, Vennesla]]></description>
        <Point><coordinates>7.97107,58.270811,0</coordinates></Point>
        <styleUrl>#icon-22</styleUrl>
      </Placemark>
      <Placemark>
        <name><![CDATA[Markensgate - Kristiansand]]></name>
        <description><![CDATA[Markensgate - Kristiansand, Kristiansand]]></description>
        <Point><coordinates>7.993084,58.145536,0</coordinates></Point>
        <styleUrl>#icon-22</styleUrl>
      </Placemark>
      <Placemark>
        <name><![CDATA[Sandens - Kristiansand]]></name>
        <description><![CDATA[Sandens - Kristiansand, Kristiansand]]></description>
        <Point><coordinates>7.99476,58.144742,0</coordinates></Point>
        <styleUrl>#icon-22</styleUrl>
      </Placemark>
      <Placemark>
        <name><![CDATA[Sørlandssenteret - Kristiansand]]></name>
        <description><![CDATA[Sørlandssenteret - Kristiansand, Kristiansand]]></description>
        <Point><coordinates>8.129542,58.179917,0</coordinates></Point>
        <styleUrl>#icon-22</styleUrl>
      </Placemark>
      <Placemark>
        <name><![CDATA[Lillesand]]></name>
        <description><![CDATA[Lillesand, Lillesand]]></description>
        <Point><coordinates>8.396668,58.2623,0</coordinates></Point>
        <styleUrl>#icon-22</styleUrl>
      </Placemark>
      <Placemark>
        <name><![CDATA[Sunndalsøra]]></name>
        <description><![CDATA[Sunndalsøra, Sunndalsøra]]></description>
        <Point><coordinates>8.565603,62.672646,0</coordinates></Point>
        <styleUrl>#icon-22</styleUrl>
      </Placemark>
      <Placemark>
        <name><![CDATA[Rjukan]]></name>
        <description><![CDATA[Rjukan, Rjukan]]></description>
        <Point><coordinates>8.591266,59.879158,0</coordinates></Point>
        <styleUrl>#icon-22</styleUrl>
      </Placemark>
      <Placemark>
        <name><![CDATA[Grimstad]]></name>
        <description><![CDATA[Grimstad, Grimstad]]></description>
        <Point><coordinates>8.593188,58.338023,0</coordinates></Point>
        <styleUrl>#icon-22</styleUrl>
      </Placemark>
      <Placemark>
        <name><![CDATA[Surna]]></name>
        <description><![CDATA[Surna, Surnadal]]></description>
        <Point><coordinates>8.711717,62.969422,0</coordinates></Point>
        <styleUrl>#icon-22</styleUrl>
      </Placemark>
      <Placemark>
        <name><![CDATA[Harebakken - Arendal]]></name>
        <description><![CDATA[Harebakken - Arendal, Arendal]]></description>
        <Point><coordinates>8.74688,58.474404,0</coordinates></Point>
        <styleUrl>#icon-22</styleUrl>
      </Placemark>
      <Placemark>
        <name><![CDATA[Alti Arendal]]></name>
        <description><![CDATA[Alti Arendal, Arendal]]></description>
        <Point><coordinates>8.764157,58.459786,0</coordinates></Point>
        <styleUrl>#icon-22</styleUrl>
      </Placemark>
      <Placemark>
        <name><![CDATA[Gol]]></name>
        <description><![CDATA[Gol, Gol]]></description>
        <Point><coordinates>8.939202,60.702015,0</coordinates></Point>
        <styleUrl>#icon-22</styleUrl>
      </Placemark>
      <Placemark>
        <name><![CDATA[Hitra]]></name>
        <description><![CDATA[Hitra, Hitra]]></description>
        <Point><coordinates>8.977168,63.601486,0</coordinates></Point>
        <styleUrl>#icon-22</styleUrl>
      </Placemark>
      <Placemark>
        <name><![CDATA[Bø]]></name>
        <description><![CDATA[Bø, Bø]]></description>
        <Point><coordinates>9.065095,59.413868,0</coordinates></Point>
        <styleUrl>#icon-22</styleUrl>
      </Placemark>
      <Placemark>
        <name><![CDATA[Kyrksæterøra - Trondheim]]></name>
        <description><![CDATA[Kyrksæterøra - Trondheim, Trondheim]]></description>
        <Point><coordinates>9.084184,63.293507,0</coordinates></Point>
        <styleUrl>#icon-22</styleUrl>
      </Placemark>
      <Placemark>
        <name><![CDATA[Notodden]]></name>
        <description><![CDATA[Notodden, Notodden]]></description>
        <Point><coordinates>9.221665,59.566253,0</coordinates></Point>
        <styleUrl>#icon-22</styleUrl>
      </Placemark>
      <Placemark>
        <name><![CDATA[Fagernes]]></name>
        <description><![CDATA[Fagernes, Fagernes]]></description>
        <Point><coordinates>9.231857,60.985645,0</coordinates></Point>
        <styleUrl>#icon-22</styleUrl>
      </Placemark>
      <Placemark>
        <name><![CDATA[Sannidal]]></name>
        <description><![CDATA[Sannidal, Sannidal]]></description>
        <Point><coordinates>9.285371,58.895193,0</coordinates></Point>
        <styleUrl>#icon-22</styleUrl>
      </Placemark>
      <Placemark>
        <name><![CDATA[Flå]]></name>
        <description><![CDATA[Flå, Flå]]></description>
        <Point><coordinates>9.460774,60.429902,0</coordinates></Point>
        <styleUrl>#icon-22</styleUrl>
      </Placemark>
      <Placemark>
        <name><![CDATA[Otta]]></name>
        <description><![CDATA[Otta, Otta]]></description>
        <Point><coordinates>9.54032,61.771431,0</coordinates></Point>
        <styleUrl>#icon-22</styleUrl>
      </Placemark>
      <Placemark>
        <name><![CDATA[Arkaden Skien]]></name>
        <description><![CDATA[Arkaden Skien, Skien]]></description>
        <Point><coordinates>9.602216,59.195509,0</coordinates></Point>
        <styleUrl>#icon-22</styleUrl>
      </Placemark>
      <Placemark>
        <name><![CDATA[Herkules - Skien]]></name>
        <description><![CDATA[Herkules - Skien, Skien]]></description>
        <Point><coordinates>9.602216,59.195509,0</coordinates></Point>
        <styleUrl>#icon-22</styleUrl>
      </Placemark>
      <Placemark>
        <name><![CDATA[Down Town - Porsgrunn]]></name>
        <description><![CDATA[Down Town - Porsgrunn, Porsgrunn]]></description>
        <Point><coordinates>9.642441,59.138251,0</coordinates></Point>
        <styleUrl>#icon-22</styleUrl>
      </Placemark>
      <Placemark>
        <name><![CDATA[Kongsberg]]></name>
        <description><![CDATA[Kongsberg, Kongsberg]]></description>
        <Point><coordinates>9.651703,59.668615,0</coordinates></Point>
        <styleUrl>#icon-22</styleUrl>
      </Placemark>
      <Placemark>
        <name><![CDATA[Brekstad]]></name>
        <description><![CDATA[Brekstad, Brekstad]]></description>
        <Point><coordinates>9.660779,63.692687,0</coordinates></Point>
        <styleUrl>#icon-22</styleUrl>
      </Placemark>
      <Placemark>
        <name><![CDATA[Stathelle]]></name>
        <description><![CDATA[Stathelle, Stathelle]]></description>
        <Point><coordinates>9.693865,59.045868,0</coordinates></Point>
        <styleUrl>#icon-22</styleUrl>
      </Placemark>
      <Placemark>
        <name><![CDATA[Oppdal]]></name>
        <description><![CDATA[Oppdal, Oppdal]]></description>
        <Point><coordinates>9.697246,62.59457,0</coordinates></Point>
        <styleUrl>#icon-22</styleUrl>
      </Placemark>
      <Placemark>
        <name><![CDATA[AMFI Orkanger]]></name>
        <description><![CDATA[AMFI Orkanger, Orkanger]]></description>
        <Point><coordinates>9.84447,63.297469,0</coordinates></Point>
        <styleUrl>#icon-22</styleUrl>
      </Placemark>
      <Placemark>
        <name><![CDATA[Krokstadelva - Drammen]]></name>
        <description><![CDATA[Krokstadelva - Drammen, Drammen]]></description>
        <Point><coordinates>10.000939,59.756501,0</coordinates></Point>
        <styleUrl>#icon-22</styleUrl>
      </Placemark>
      <Placemark>
        <name><![CDATA[Larvik sentrum]]></name>
        <description><![CDATA[Larvik sentrum, Larvik]]></description>
        <Point><coordinates>10.028637,59.053887,0</coordinates></Point>
        <styleUrl>#icon-22</styleUrl>
      </Placemark>
      <Placemark>
        <name><![CDATA[Larvik]]></name>
        <description><![CDATA[Larvik, Larvik]]></description>
        <Point><coordinates>10.047645,59.068342,0</coordinates></Point>
        <styleUrl>#icon-22</styleUrl>
      </Placemark>
      <Placemark>
        <name><![CDATA[Dokka]]></name>
        <description><![CDATA[Dokka, Dokka]]></description>
        <Point><coordinates>10.070967,60.83619,0</coordinates></Point>
        <styleUrl>#icon-22</styleUrl>
      </Placemark>
      <Placemark>
        <name><![CDATA[Gulskogen - Drammen]]></name>
        <description><![CDATA[Gulskogen - Drammen, Drammen]]></description>
        <Point><coordinates>10.157977,59.742531,0</coordinates></Point>
        <styleUrl>#icon-22</styleUrl>
      </Placemark>
      <Placemark>
        <name><![CDATA[Magasinet - Drammen]]></name>
        <description><![CDATA[Magasinet - Drammen, Drammen]]></description>
        <Point><coordinates>10.206461,59.742869,0</coordinates></Point>
        <styleUrl>#icon-22</styleUrl>
      </Placemark>
      <Placemark>
        <name><![CDATA[Sandefjord]]></name>
        <description><![CDATA[Sandefjord, Sandefjord]]></description>
        <Point><coordinates>10.226146,59.130195,0</coordinates></Point>
        <styleUrl>#icon-22</styleUrl>
      </Placemark>
      <Placemark>
        <name><![CDATA[Hønefoss]]></name>
        <description><![CDATA[Hønefoss, Hønefoss]]></description>
        <Point><coordinates>10.255136,60.164942,0</coordinates></Point>
        <styleUrl>#icon-22</styleUrl>
      </Placemark>
      <Placemark>
        <name><![CDATA[Liertoppen - Lierskogen Drammen]]></name>
        <description><![CDATA[Liertoppen - Lierskogen Drammen, Lierskogen Drammen]]></description>
        <Point><coordinates>10.305846,59.811293,0</coordinates></Point>
        <styleUrl>#icon-22</styleUrl>
      </Placemark>
      <Placemark>
        <name><![CDATA[Holmestrand]]></name>
        <description><![CDATA[Holmestrand, Holmestrand]]></description>
        <Point><coordinates>10.315073,59.49072,0</coordinates></Point>
        <styleUrl>#icon-22</styleUrl>
      </Placemark>
      <Placemark>
        <name><![CDATA[City Syd - Trondheim]]></name>
        <description><![CDATA[City Syd - Trondheim, Trondheim]]></description>
        <Point><coordinates>10.376776,63.361542,0</coordinates></Point>
        <styleUrl>#icon-22</styleUrl>
      </Placemark>
      <Placemark>
        <name><![CDATA[Trondheim Torg]]></name>
        <description><![CDATA[Trondheim Torg, Trondheim]]></description>
        <Point><coordinates>10.393033,63.430297,0</coordinates></Point>
        <styleUrl>#icon-22</styleUrl>
      </Placemark>
      <Placemark>
        <name><![CDATA[Tønsberg]]></name>
        <description><![CDATA[Tønsberg, Tønsberg]]></description>
        <Point><coordinates>10.409407,59.270696,0</coordinates></Point>
        <styleUrl>#icon-22</styleUrl>
      </Placemark>
      <Placemark>
        <name><![CDATA[Solsiden - Trondheim]]></name>
        <description><![CDATA[Solsiden - Trondheim, Trondheim]]></description>
        <Point><coordinates>10.411661,63.435064,0</coordinates></Point>
        <styleUrl>#icon-22</styleUrl>
      </Placemark>
      <Placemark>
        <name><![CDATA[Asker]]></name>
        <description><![CDATA[Asker, Asker]]></description>
        <Point><coordinates>10.4343,59.836935,0</coordinates></Point>
        <styleUrl>#icon-22</styleUrl>
      </Placemark>
      <Placemark>
        <name><![CDATA[City Lade - Trondheim]]></name>
        <description><![CDATA[City Lade - Trondheim, Trondheim]]></description>
        <Point><coordinates>10.446525,63.443693,0</coordinates></Point>
        <styleUrl>#icon-22</styleUrl>
      </Placemark>
      <Placemark>
        <name><![CDATA[Strandtorget - Lillehammer]]></name>
        <description><![CDATA[Strandtorget - Lillehammer, Lillehammer]]></description>
        <Point><coordinates>10.452676,61.114593,0</coordinates></Point>
        <styleUrl>#icon-22</styleUrl>
      </Placemark>
      <Placemark>
        <name><![CDATA[Sirkus - Trondheim]]></name>
        <description><![CDATA[Sirkus - Trondheim, Trondheim]]></description>
        <Point><coordinates>10.455548,63.436799,0</coordinates></Point>
        <styleUrl>#icon-22</styleUrl>
      </Placemark>
      <Placemark>
        <name><![CDATA[Lillehammer]]></name>
        <description><![CDATA[Lillehammer, Lillehammer]]></description>
        <Point><coordinates>10.464581,61.118025,0</coordinates></Point>
        <styleUrl>#icon-22</styleUrl>
      </Placemark>
      <Placemark>
        <name><![CDATA[Horten]]></name>
        <description><![CDATA[Horten, Horten]]></description>
        <Point><coordinates>10.485754,59.415071,0</coordinates></Point>
        <styleUrl>#icon-22</styleUrl>
      </Placemark>
      <Placemark>
        <name><![CDATA[Holmensenteret - Asker]]></name>
        <description><![CDATA[Holmensenteret - Asker, Asker]]></description>
        <Point><coordinates>10.488459,59.854382,0</coordinates></Point>
        <styleUrl>#icon-22</styleUrl>
      </Placemark>
      <Placemark>
        <name><![CDATA[Sandvika]]></name>
        <description><![CDATA[Sandvika, Sandvika]]></description>
        <Point><coordinates>10.520381,59.89011,0</coordinates></Point>
        <styleUrl>#icon-22</styleUrl>
      </Placemark>
      <Placemark>
        <name><![CDATA[Gran]]></name>
        <description><![CDATA[Gran, Gran]]></description>
        <Point><coordinates>10.572368,60.356597,0</coordinates></Point>
        <styleUrl>#icon-22</styleUrl>
      </Placemark>
      <Placemark>
        <name><![CDATA[Raufoss]]></name>
        <description><![CDATA[Raufoss, Gjøvik]]></description>
        <Point><coordinates>10.614595,60.727966,0</coordinates></Point>
        <styleUrl>#icon-22</styleUrl>
      </Placemark>
      <Placemark>
        <name><![CDATA[Fornebu]]></name>
        <description><![CDATA[Fornebu, Fornebu]]></description>
        <Point><coordinates>10.621475,59.892406,0</coordinates></Point>
        <styleUrl>#icon-22</styleUrl>
      </Placemark>
      <Placemark>
        <name><![CDATA[CC Vest - Lysaker]]></name>
        <description><![CDATA[CC Vest - Lysaker, Oslo]]></description>
        <Point><coordinates>10.636359,59.91765,0</coordinates></Point>
        <styleUrl>#icon-22</styleUrl>
      </Placemark>
      <Placemark>
        <name><![CDATA[AMFI Moss]]></name>
        <description><![CDATA[AMFI Moss, Moss]]></description>
        <Point><coordinates>10.664922,59.436276,0</coordinates></Point>
        <styleUrl>#icon-22</styleUrl>
      </Placemark>
      <Placemark>
        <name><![CDATA[Gjøvik]]></name>
        <description><![CDATA[Gjøvik, Gjøvik]]></description>
        <Point><coordinates>10.693629,60.799991,0</coordinates></Point>
        <styleUrl>#icon-22</styleUrl>
      </Placemark>
      <Placemark>
        <name><![CDATA[Mosseporten]]></name>
        <description><![CDATA[Mosseporten, Moss]]></description>
        <Point><coordinates>10.703235,59.446244,0</coordinates></Point>
        <styleUrl>#icon-22</styleUrl>
      </Placemark>
      <Placemark>
        <name><![CDATA[Bogstadveien]]></name>
        <description><![CDATA[Bogstadveien, Oslo]]></description>
        <Point><coordinates>10.72222,59.92554,0</coordinates></Point>
        <styleUrl>#icon-22</styleUrl>
      </Placemark>
      <Placemark>
        <name><![CDATA[Grensen - Oslo]]></name>
        <description><![CDATA[Grensen - Oslo, Oslo]]></description>
        <Point><coordinates>10.742701,59.913825,0</coordinates></Point>
        <styleUrl>#icon-22</styleUrl>
      </Placemark>
      <Placemark>
        <name><![CDATA[Vestby]]></name>
        <description><![CDATA[Vestby, Vestby]]></description>
        <Point><coordinates>10.746677,59.602366,0</coordinates></Point>
        <styleUrl>#icon-22</styleUrl>
      </Placemark>
      <Placemark>
        <name><![CDATA[Torggata - Oslo]]></name>
        <description><![CDATA[Torggata - Oslo, Oslo]]></description>
        <Point><coordinates>10.746776,59.913261,0</coordinates></Point>
        <styleUrl>#icon-22</styleUrl>
      </Placemark>
      <Placemark>
        <name><![CDATA[Oslo City]]></name>
        <description><![CDATA[Oslo City, Oslo]]></description>
        <Point><coordinates>10.751571,59.912649,0</coordinates></Point>
        <styleUrl>#icon-22</styleUrl>
      </Placemark>
      <Placemark>
        <name><![CDATA[Malvik - Trondheim]]></name>
        <description><![CDATA[Malvik - Trondheim, Trondheim]]></description>
        <Point><coordinates>10.751911,63.420852,0</coordinates></Point>
        <styleUrl>#icon-22</styleUrl>
      </Placemark>
      <Placemark>
        <name><![CDATA[Vinterbro]]></name>
        <description><![CDATA[Vinterbro, Vinterbro]]></description>
        <Point><coordinates>10.7713,59.73973,0</coordinates></Point>
        <styleUrl>#icon-22</styleUrl>
      </Placemark>
      <Placemark>
        <name><![CDATA[Storo - Oslo]]></name>
        <description><![CDATA[Storo - Oslo, Oslo]]></description>
        <Point><coordinates>10.774949,59.945852,0</coordinates></Point>
        <styleUrl>#icon-22</styleUrl>
      </Placemark>
      <Placemark>
        <name><![CDATA[Tynset]]></name>
        <description><![CDATA[Tynset, Tynset]]></description>
        <Point><coordinates>10.777008,62.275852,0</coordinates></Point>
        <styleUrl>#icon-22</styleUrl>
      </Placemark>
      <Placemark>
        <name><![CDATA[Bryn - Oslo]]></name>
        <description><![CDATA[Bryn - Oslo, Oslo]]></description>
        <Point><coordinates>10.821312,59.903556,0</coordinates></Point>
        <styleUrl>#icon-22</styleUrl>
      </Placemark>
      <Placemark>
        <name><![CDATA[Mortensrud - Oslo]]></name>
        <description><![CDATA[Mortensrud - Oslo, Oslo]]></description>
        <Point><coordinates>10.826903,59.849684,0</coordinates></Point>
        <styleUrl>#icon-22</styleUrl>
      </Placemark>
      <Placemark>
        <name><![CDATA[Linderud - Oslo]]></name>
        <description><![CDATA[Linderud - Oslo, Oslo]]></description>
        <Point><coordinates>10.835428,59.943087,0</coordinates></Point>
        <styleUrl>#icon-22</styleUrl>
      </Placemark>
      <Placemark>
        <name><![CDATA[Ski]]></name>
        <description><![CDATA[Ski, Ski]]></description>
        <Point><coordinates>10.83588,59.719632,0</coordinates></Point>
        <styleUrl>#icon-22</styleUrl>
      </Placemark>
      <Placemark>
        <name><![CDATA[Stjørdal]]></name>
        <description><![CDATA[Stjørdal, Stjørdal]]></description>
        <Point><coordinates>10.923862,63.468928,0</coordinates></Point>
        <styleUrl>#icon-22</styleUrl>
      </Placemark>
      <Placemark>
        <name><![CDATA[Stovner - Oslo]]></name>
        <description><![CDATA[Stovner - Oslo, Oslo]]></description>
        <Point><coordinates>10.924524,59.962145,0</coordinates></Point>
        <styleUrl>#icon-22</styleUrl>
      </Placemark>
      <Placemark>
        <name><![CDATA[Fredrikstad]]></name>
        <description><![CDATA[Fredrikstad, Fredrikstad]]></description>
        <Point><coordinates>10.939732,59.214204,0</coordinates></Point>
        <styleUrl>#icon-22</styleUrl>
      </Placemark>
      <Placemark>
        <name><![CDATA[Triaden - Lørenskog]]></name>
        <description><![CDATA[Triaden - Lørenskog, Lørenskog]]></description>
        <Point><coordinates>10.952528,59.918594,0</coordinates></Point>
        <styleUrl>#icon-22</styleUrl>
      </Placemark>
      <Placemark>
        <name><![CDATA[Metro - Lørenskog]]></name>
        <description><![CDATA[Metro - Lørenskog, Lørenskog]]></description>
        <Point><coordinates>10.957562,59.92805,0</coordinates></Point>
        <styleUrl>#icon-22</styleUrl>
      </Placemark>
      <Placemark>
        <name><![CDATA[Østfoldhallen - Fredrikstad]]></name>
        <description><![CDATA[Østfoldhallen - Fredrikstad, Fredrikstad]]></description>
        <Point><coordinates>10.994512,59.252316,0</coordinates></Point>
        <styleUrl>#icon-22</styleUrl>
      </Placemark>
      <Placemark>
        <name><![CDATA[Strømmen]]></name>
        <description><![CDATA[Strømmen, Strømmen]]></description>
        <Point><coordinates>11.007331,59.947286,0</coordinates></Point>
        <styleUrl>#icon-22</styleUrl>
      </Placemark>
      <Placemark>
        <name><![CDATA[Skedsmokorset]]></name>
        <description><![CDATA[Skedsmokorset, Skedsmokorset]]></description>
        <Point><coordinates>11.040378,60.000786,0</coordinates></Point>
        <styleUrl>#icon-22</styleUrl>
      </Placemark>
      <Placemark>
        <name><![CDATA[Lillestrøm]]></name>
        <description><![CDATA[Lillestrøm, Lillestrøm]]></description>
        <Point><coordinates>11.048614,59.95592,0</coordinates></Point>
        <styleUrl>#icon-22</styleUrl>
      </Placemark>
      <Placemark>
        <name><![CDATA[CC Stadion - Hamar]]></name>
        <description><![CDATA[CC Stadion - Hamar, Hamar]]></description>
        <Point><coordinates>11.078642,60.79494,0</coordinates></Point>
        <styleUrl>#icon-22</styleUrl>
      </Placemark>
      <Placemark>
        <name><![CDATA[Kløfta]]></name>
        <description><![CDATA[Kløfta, Kløfta]]></description>
        <Point><coordinates>11.137649,60.076396,0</coordinates></Point>
        <styleUrl>#icon-22</styleUrl>
      </Placemark>
      <Placemark>
        <name><![CDATA[Askim]]></name>
        <description><![CDATA[Askim, Askim]]></description>
        <Point><coordinates>11.165611,59.582991,0</coordinates></Point>
        <styleUrl>#icon-22</styleUrl>
      </Placemark>
      <Placemark>
        <name><![CDATA[Jessheim]]></name>
        <description><![CDATA[Jessheim, Jessheim]]></description>
        <Point><coordinates>11.171331,60.142619,0</coordinates></Point>
        <styleUrl>#icon-22</styleUrl>
      </Placemark>
      <Placemark>
        <name><![CDATA[Råholt]]></name>
        <description><![CDATA[Råholt, Råholt]]></description>
        <Point><coordinates>11.175302,60.280737,0</coordinates></Point>
        <styleUrl>#icon-22</styleUrl>
      </Placemark>
      <Placemark>
        <name><![CDATA[Strömstad shoppingcenter]]></name>
        <description><![CDATA[Strömstad shoppingcenter, Strömstad]]></description>
        <Point><coordinates>11.188439,58.946249,0</coordinates></Point>
        <styleUrl>#icon-22</styleUrl>
      </Placemark>
      <Placemark>
        <name><![CDATA[Strömstad Nordby köpcenter]]></name>
        <description><![CDATA[Strömstad Nordby köpcenter, Strömstad]]></description>
        <Point><coordinates>11.207716,59.064395,0</coordinates></Point>
        <styleUrl>#icon-22</styleUrl>
      </Placemark>
      <Placemark>
        <name><![CDATA[Rørvik]]></name>
        <description><![CDATA[Rørvik, Rørvik]]></description>
        <Point><coordinates>11.236508,64.861812,0</coordinates></Point>
        <styleUrl>#icon-22</styleUrl>
      </Placemark>
      <Placemark>
        <name><![CDATA[Morenen - Slitu]]></name>
        <description><![CDATA[Morenen - Slitu, Slitu]]></description>
        <Point><coordinates>11.277371,59.578834,0</coordinates></Point>
        <styleUrl>#icon-22</styleUrl>
      </Placemark>
      <Placemark>
        <name><![CDATA[Levanger]]></name>
        <description><![CDATA[Levanger, Levanger]]></description>
        <Point><coordinates>11.281181,63.742465,0</coordinates></Point>
        <styleUrl>#icon-22</styleUrl>
      </Placemark>
      <Placemark>
        <name><![CDATA[Tanum]]></name>
        <description><![CDATA[Tanum, Tanum]]></description>
        <Point><coordinates>11.346729,58.721162,0</coordinates></Point>
        <styleUrl>#icon-22</styleUrl>
      </Placemark>
      <Placemark>
        <name><![CDATA[Vormsund]]></name>
        <description><![CDATA[Vormsund, Vormsund]]></description>
        <Point><coordinates>11.410735,60.15112,0</coordinates></Point>
        <styleUrl>#icon-22</styleUrl>
      </Placemark>
      <Placemark>
        <name><![CDATA[Verdal]]></name>
        <description><![CDATA[Verdal, Verdal]]></description>
        <Point><coordinates>11.48507,63.791797,0</coordinates></Point>
        <styleUrl>#icon-22</styleUrl>
      </Placemark>
      <Placemark>
        <name><![CDATA[Steinkjer]]></name>
        <description><![CDATA[Steinkjer, Steinkjer]]></description>
        <Point><coordinates>11.489699,64.011658,0</coordinates></Point>
        <styleUrl>#icon-22</styleUrl>
      </Placemark>
      <Placemark>
        <name><![CDATA[Namsos]]></name>
        <description><![CDATA[Namsos, Namsos]]></description>
        <Point><coordinates>11.504149,64.467419,0</coordinates></Point>
        <styleUrl>#icon-22</styleUrl>
      </Placemark>
      <Placemark>
        <name><![CDATA[Elverum]]></name>
        <description><![CDATA[Elverum, Elverum]]></description>
        <Point><coordinates>11.565575,60.878168,0</coordinates></Point>
        <styleUrl>#icon-22</styleUrl>
      </Placemark>
      <Placemark>
        <name><![CDATA[Bjørkelangen]]></name>
        <description><![CDATA[Bjørkelangen, Bjørkelangen]]></description>
        <Point><coordinates>11.568471,59.884065,0</coordinates></Point>
        <styleUrl>#icon-22</styleUrl>
      </Placemark>
      <Placemark>
        <name><![CDATA[Uddevalla Torp]]></name>
        <description><![CDATA[Uddevalla Torp, Uddevalla]]></description>
        <Point><coordinates>11.810429,58.353866,0</coordinates></Point>
        <styleUrl>#icon-22</styleUrl>
      </Placemark>
      <Placemark>
        <name><![CDATA[Töcksfors]]></name>
        <description><![CDATA[Töcksfors, Töcksfors]]></description>
        <Point><coordinates>11.844652,59.505789,0</coordinates></Point>
        <styleUrl>#icon-22</styleUrl>
      </Placemark>
      <Placemark>
        <name><![CDATA[Göteborg Frölunda Torg]]></name>
        <description><![CDATA[Göteborg Frölunda Torg, Göteborg]]></description>
        <Point><coordinates>11.90926,57.652331,0</coordinates></Point>
        <styleUrl>#icon-22</styleUrl>
      </Placemark>
      <Placemark>
        <name><![CDATA[Kungälv]]></name>
        <description><![CDATA[Kungälv, Kungälv]]></description>
        <Point><coordinates>11.968201,57.874176,0</coordinates></Point>
        <styleUrl>#icon-22</styleUrl>
      </Placemark>
      <Placemark>
        <name><![CDATA[Göteborg Nordstan]]></name>
        <description><![CDATA[Göteborg Nordstan, Göteborg]]></description>
        <Point><coordinates>11.969424,57.707443,0</coordinates></Point>
        <styleUrl>#icon-22</styleUrl>
      </Placemark>
      <Placemark>
        <name><![CDATA[Mölndal]]></name>
        <description><![CDATA[Mölndal, Mölndal]]></description>
        <Point><coordinates>12.012982,57.655301,0</coordinates></Point>
        <styleUrl>#icon-22</styleUrl>
      </Placemark>
      <Placemark>
        <name><![CDATA[Brønnøysund]]></name>
        <description><![CDATA[Brønnøysund, Brønnøysund]]></description>
        <Point><coordinates>12.2101,65.473355,0</coordinates></Point>
        <styleUrl>#icon-22</styleUrl>
      </Placemark>
      <Placemark>
        <name><![CDATA[Varberg]]></name>
        <description><![CDATA[Varberg, Varberg]]></description>
        <Point><coordinates>12.24884,57.109118,0</coordinates></Point>
        <styleUrl>#icon-22</styleUrl>
      </Placemark>
      <Placemark>
        <name><![CDATA[Charlottenberg]]></name>
        <description><![CDATA[Charlottenberg, Charlottenberg]]></description>
        <Point><coordinates>12.288277,59.880847,0</coordinates></Point>
        <styleUrl>#icon-22</styleUrl>
      </Placemark>
      <Placemark>
        <name><![CDATA[Trollhättan SIBA-huset]]></name>
        <description><![CDATA[Trollhättan SIBA-huset, Trollhättan]]></description>
        <Point><coordinates>12.30799,58.312578,0</coordinates></Point>
        <styleUrl>#icon-22</styleUrl>
      </Placemark>
      <Placemark>
        <name><![CDATA[Sandnessjøen]]></name>
        <description><![CDATA[Sandnessjøen, Sandnessjøen]]></description>
        <Point><coordinates>12.635135,66.022293,0</coordinates></Point>
        <styleUrl>#icon-22</styleUrl>
      </Placemark>
      <Placemark>
        <name><![CDATA[Helsingborg Väla]]></name>
        <description><![CDATA[Helsingborg Väla, Helsingborg]]></description>
        <Point><coordinates>12.755302,56.092029,0</coordinates></Point>
        <styleUrl>#icon-22</styleUrl>
      </Placemark>
      <Placemark>
        <name><![CDATA[Halmstad Hallarna]]></name>
        <description><![CDATA[Halmstad Hallarna, Halmstad]]></description>
        <Point><coordinates>12.911351,56.655329,0</coordinates></Point>
        <styleUrl>#icon-22</styleUrl>
      </Placemark>
      <Placemark>
        <name><![CDATA[Borås]]></name>
        <description><![CDATA[Borås, Borås]]></description>
        <Point><coordinates>12.940531,57.733046,0</coordinates></Point>
        <styleUrl>#icon-22</styleUrl>
      </Placemark>
      <Placemark>
        <name><![CDATA[Malmö Emporia]]></name>
        <description><![CDATA[Malmö Emporia, Malmö]]></description>
        <Point><coordinates>12.974654,55.563613,0</coordinates></Point>
        <styleUrl>#icon-22</styleUrl>
      </Placemark>
      <Placemark>
        <name><![CDATA[Löddeköpinge]]></name>
        <description><![CDATA[Löddeköpinge, Löddeköpinge]]></description>
        <Point><coordinates>12.98859,55.76879,0</coordinates></Point>
        <styleUrl>#icon-22</styleUrl>
      </Placemark>
      <Placemark>
        <name><![CDATA[Malmö Triangeln]]></name>
        <description><![CDATA[Malmö Triangeln, Malmö]]></description>
        <Point><coordinates>13.001168,55.59517,0</coordinates></Point>
        <styleUrl>#icon-22</styleUrl>
      </Placemark>
      <Placemark>
        <name><![CDATA[Malmö Mobilia]]></name>
        <description><![CDATA[Malmö Mobilia, Malmö]]></description>
        <Point><coordinates>13.003159,55.582386,0</coordinates></Point>
        <styleUrl>#icon-22</styleUrl>
      </Placemark>
      <Placemark>
        <name><![CDATA[Lidköping]]></name>
        <description><![CDATA[Lidköping, Lidköping]]></description>
        <Point><coordinates>13.155014,58.50459,0</coordinates></Point>
        <styleUrl>#icon-22</styleUrl>
      </Placemark>
      <Placemark>
        <name><![CDATA[Lund - Nova Lund]]></name>
        <description><![CDATA[Lund - Nova Lund, Lund]]></description>
        <Point><coordinates>13.159958,55.71394,0</coordinates></Point>
        <styleUrl>#icon-22</styleUrl>
      </Placemark>
      <Placemark>
        <name><![CDATA[Mosjøen]]></name>
        <description><![CDATA[Mosjøen, Mosjøen]]></description>
        <Point><coordinates>13.190248,65.839919,0</coordinates></Point>
        <styleUrl>#icon-22</styleUrl>
      </Placemark>
      <Placemark>
        <name><![CDATA[Karlstad Bergvik]]></name>
        <description><![CDATA[Karlstad Bergvik, Karlstad]]></description>
        <Point><coordinates>13.42485,59.377484,0</coordinates></Point>
        <styleUrl>#icon-22</styleUrl>
      </Placemark>
      <Placemark>
        <name><![CDATA[Karlstad]]></name>
        <description><![CDATA[Karlstad, Karlstad]]></description>
        <Point><coordinates>13.499571,59.380112,0</coordinates></Point>
        <styleUrl>#icon-22</styleUrl>
      </Placemark>
      <Placemark>
        <name><![CDATA[Leknes]]></name>
        <description><![CDATA[Leknes, Leknes]]></description>
        <Point><coordinates>13.609503,68.148631,0</coordinates></Point>
        <styleUrl>#icon-22</styleUrl>
      </Placemark>
      <Placemark>
        <name><![CDATA[Skövde]]></name>
        <description><![CDATA[Skövde, Skövde]]></description>
        <Point><coordinates>13.856608,58.405365,0</coordinates></Point>
        <styleUrl>#icon-22</styleUrl>
      </Placemark>
      <Placemark>
        <name><![CDATA[Mo i Rana]]></name>
        <description><![CDATA[Mo i Rana, Mo i Rana]]></description>
        <Point><coordinates>14.139057,66.307864,0</coordinates></Point>
        <styleUrl>#icon-22</styleUrl>
      </Placemark>
      <Placemark>
        <name><![CDATA[Kristianstad]]></name>
        <description><![CDATA[Kristianstad, Kristianstad]]></description>
        <Point><coordinates>14.158844,56.030086,0</coordinates></Point>
        <styleUrl>#icon-22</styleUrl>
      </Placemark>
      <Placemark>
        <name><![CDATA[Kristianstad C4 Shopping]]></name>
        <description><![CDATA[Kristianstad C4 Shopping, Kristianstad]]></description>
        <Point><coordinates>14.202255,56.026731,0</coordinates></Point>
        <styleUrl>#icon-22</styleUrl>
      </Placemark>
      <Placemark>
        <name><![CDATA[Jönköping Asecs]]></name>
        <description><![CDATA[Jönköping Asecs, Jönköping]]></description>
        <Point><coordinates>14.203624,57.773766,0</coordinates></Point>
        <styleUrl>#icon-22</styleUrl>
      </Placemark>
      <Placemark>
        <name><![CDATA[Glasshuset - Bodø]]></name>
        <description><![CDATA[Glasshuset - Bodø, Bodø]]></description>
        <Point><coordinates>14.379504,67.283808,0</coordinates></Point>
        <styleUrl>#icon-22</styleUrl>
      </Placemark>
      <Placemark>
        <name><![CDATA[City Nord - Bodø]]></name>
        <description><![CDATA[City Nord - Bodø, Bodø]]></description>
        <Point><coordinates>14.408451,67.284024,0</coordinates></Point>
        <styleUrl>#icon-22</styleUrl>
      </Placemark>
      <Placemark>
        <name><![CDATA[Mora]]></name>
        <description><![CDATA[Mora, Mora]]></description>
        <Point><coordinates>14.537787,61.004459,0</coordinates></Point>
        <styleUrl>#icon-22</styleUrl>
      </Placemark>
      <Placemark>
        <name><![CDATA[Svolvær]]></name>
        <description><![CDATA[Svolvær, Svolvær]]></description>
        <Point><coordinates>14.559477,68.234262,0</coordinates></Point>
        <styleUrl>#icon-22</styleUrl>
      </Placemark>
      <Placemark>
        <name><![CDATA[Östersund]]></name>
        <description><![CDATA[Östersund, Östersund]]></description>
        <Point><coordinates>14.638429,63.175807,0</coordinates></Point>
        <styleUrl>#icon-22</styleUrl>
      </Placemark>
      <Placemark>
        <name><![CDATA[Växjö]]></name>
        <description><![CDATA[Växjö, Växjö]]></description>
        <Point><coordinates>14.766574,56.884798,0</coordinates></Point>
        <styleUrl>#icon-22</styleUrl>
      </Placemark>
      <Placemark>
        <name><![CDATA[Karlshamn]]></name>
        <description><![CDATA[Karlshamn, Karlshamn]]></description>
        <Point><coordinates>14.8607,56.1706,0</coordinates></Point>
        <styleUrl>#icon-22</styleUrl>
      </Placemark>
      <Placemark>
        <name><![CDATA[Örebro Marieberg]]></name>
        <description><![CDATA[Örebro Marieberg, Örebro]]></description>
        <Point><coordinates>15.137673,59.217949,0</coordinates></Point>
        <styleUrl>#icon-22</styleUrl>
      </Placemark>
      <Placemark>
        <name><![CDATA[Fauske]]></name>
        <description><![CDATA[Fauske, Fauske]]></description>
        <Point><coordinates>15.395789,67.258322,0</coordinates></Point>
        <styleUrl>#icon-22</styleUrl>
      </Placemark>
      <Placemark>
        <name><![CDATA[Sortland]]></name>
        <description><![CDATA[Sortland, Sortland]]></description>
        <Point><coordinates>15.416665,68.695839,0</coordinates></Point>
        <styleUrl>#icon-22</styleUrl>
      </Placemark>
      <Placemark>
        <name><![CDATA[Borlänge]]></name>
        <description><![CDATA[Borlänge, Borlänge]]></description>
        <Point><coordinates>15.417971,60.484166,0</coordinates></Point>
        <styleUrl>#icon-22</styleUrl>
      </Placemark>
      <Placemark>
        <name><![CDATA[Karlskrona]]></name>
        <description><![CDATA[Karlskrona, Karlskrona]]></description>
        <Point><coordinates>15.582839,56.161288,0</coordinates></Point>
        <styleUrl>#icon-22</styleUrl>
      </Placemark>
      <Placemark>
        <name><![CDATA[Linköping i-Huset]]></name>
        <description><![CDATA[Linköping i-Huset, Linköping]]></description>
        <Point><coordinates>15.585309,58.434301,0</coordinates></Point>
        <styleUrl>#icon-22</styleUrl>
      </Placemark>
      <Placemark>
        <name><![CDATA[Linköping Galleria Gränden]]></name>
        <description><![CDATA[Linköping Galleria Gränden, Linköping]]></description>
        <Point><coordinates>15.626892,58.409477,0</coordinates></Point>
        <styleUrl>#icon-22</styleUrl>
      </Placemark>
      <Placemark>
        <name><![CDATA[Falun]]></name>
        <description><![CDATA[Falun, Falun]]></description>
        <Point><coordinates>15.632997,60.605489,0</coordinates></Point>
        <styleUrl>#icon-22</styleUrl>
      </Placemark>
      <Placemark>
        <name><![CDATA[Karlskrona Amiralen]]></name>
        <description><![CDATA[Karlskrona Amiralen, Karlskrona]]></description>
        <Point><coordinates>15.641606,56.19697,0</coordinates></Point>
        <styleUrl>#icon-22</styleUrl>
      </Placemark>
      <Placemark>
        <name><![CDATA[Vimmerby]]></name>
        <description><![CDATA[Vimmerby, Vimmerby]]></description>
        <Point><coordinates>15.853699,57.666486,0</coordinates></Point>
        <styleUrl>#icon-22</styleUrl>
      </Placemark>
      <Placemark>
        <name><![CDATA[Norrköping Ingelsta]]></name>
        <description><![CDATA[Norrköping Ingelsta, Norrköping]]></description>
        <Point><coordinates>16.155929,58.618338,0</coordinates></Point>
        <styleUrl>#icon-22</styleUrl>
      </Placemark>
      <Placemark>
        <name><![CDATA[Norrköping Linden]]></name>
        <description><![CDATA[Norrköping Linden, Norrköping]]></description>
        <Point><coordinates>16.188896,58.587465,0</coordinates></Point>
        <styleUrl>#icon-22</styleUrl>
      </Placemark>
      <Placemark>
        <name><![CDATA[Norrköping Mirum Galleria]]></name>
        <description><![CDATA[Norrköping Mirum Galleria, Norrköping]]></description>
        <Point><coordinates>16.210994,58.572994,0</coordinates></Point>
        <styleUrl>#icon-22</styleUrl>
      </Placemark>
      <Placemark>
        <name><![CDATA[Kalmar]]></name>
        <description><![CDATA[Kalmar, Kalmar]]></description>
        <Point><coordinates>16.320158,56.687012,0</coordinates></Point>
        <styleUrl>#icon-22</styleUrl>
      </Placemark>
      <Placemark>
        <name><![CDATA[Oskarshamn]]></name>
        <description><![CDATA[Oskarshamn, Oskarshamn]]></description>
        <Point><coordinates>16.446604,57.264277,0</coordinates></Point>
        <styleUrl>#icon-22</styleUrl>
      </Placemark>
      <Placemark>
        <name><![CDATA[Västerås Erikslund]]></name>
        <description><![CDATA[Västerås Erikslund, Västerås]]></description>
        <Point><coordinates>16.462113,59.611242,0</coordinates></Point>
        <styleUrl>#icon-22</styleUrl>
      </Placemark>
      <Placemark>
        <name><![CDATA[Eskilstuna Tuna Park]]></name>
        <description><![CDATA[Eskilstuna Tuna Park, Eskilstuna]]></description>
        <Point><coordinates>16.469067,59.372017,0</coordinates></Point>
        <styleUrl>#icon-22</styleUrl>
      </Placemark>
      <Placemark>
        <name><![CDATA[Västerås Kvarteret Igor]]></name>
        <description><![CDATA[Västerås Kvarteret Igor, Västerås]]></description>
        <Point><coordinates>16.544552,59.611817,0</coordinates></Point>
        <styleUrl>#icon-22</styleUrl>
      </Placemark>
      <Placemark>
        <name><![CDATA[Amfi Kanebogen - Harstad]]></name>
        <description><![CDATA[Amfi Kanebogen - Harstad, Harstad]]></description>
        <Point><coordinates>16.566331,68.779602,0</coordinates></Point>
        <styleUrl>#icon-22</styleUrl>
      </Placemark>
      <Placemark>
        <name><![CDATA[Västervik]]></name>
        <description><![CDATA[Västervik, Västervik]]></description>
        <Point><coordinates>16.63225,57.75736,0</coordinates></Point>
        <styleUrl>#icon-22</styleUrl>
      </Placemark>
      <Placemark>
        <name><![CDATA[Gävle Valbo]]></name>
        <description><![CDATA[Gävle Valbo, Gävle]]></description>
        <Point><coordinates>16.992739,60.633675,0</coordinates></Point>
        <styleUrl>#icon-22</styleUrl>
      </Placemark>
      <Placemark>
        <name><![CDATA[Nyköping]]></name>
        <description><![CDATA[Nyköping, Nyköping]]></description>
        <Point><coordinates>17.00353,58.751458,0</coordinates></Point>
        <styleUrl>#icon-22</styleUrl>
      </Placemark>
      <Placemark>
        <name><![CDATA[Sundsvall Birsta City]]></name>
        <description><![CDATA[Sundsvall Birsta City, Sundsvall]]></description>
        <Point><coordinates>17.338216,62.447065,0</coordinates></Point>
        <styleUrl>#icon-22</styleUrl>
      </Placemark>
      <Placemark>
        <name><![CDATA[Narvik]]></name>
        <description><![CDATA[Narvik, Narvik]]></description>
        <Point><coordinates>17.435295,68.441258,0</coordinates></Point>
        <styleUrl>#icon-22</styleUrl>
      </Placemark>
      <Placemark>
        <name><![CDATA[Uppsala]]></name>
        <description><![CDATA[Uppsala, Uppsala]]></description>
        <Point><coordinates>17.638444,59.858719,0</coordinates></Point>
        <styleUrl>#icon-22</styleUrl>
      </Placemark>
      <Placemark>
        <name><![CDATA[Uppsala Gränby Centrum]]></name>
        <description><![CDATA[Uppsala Gränby Centrum, Uppsala]]></description>
        <Point><coordinates>17.672659,59.877019,0</coordinates></Point>
        <styleUrl>#icon-22</styleUrl>
      </Placemark>
      <Placemark>
        <name><![CDATA[Stockholm Vällingby]]></name>
        <description><![CDATA[Stockholm Vällingby, Stockholm]]></description>
        <Point><coordinates>17.873416,59.363174,0</coordinates></Point>
        <styleUrl>#icon-22</styleUrl>
      </Placemark>
      <Placemark>
        <name><![CDATA[Stockholm Skärholmen SKHLM]]></name>
        <description><![CDATA[Stockholm Skärholmen SKHLM, Stockholm]]></description>
        <Point><coordinates>17.9083,59.275217,0</coordinates></Point>
        <styleUrl>#icon-22</styleUrl>
      </Placemark>
      <Placemark>
        <name><![CDATA[Stockholm Sollentuna C]]></name>
        <description><![CDATA[Stockholm Sollentuna C, Stockholm]]></description>
        <Point><coordinates>17.950743,59.42844,0</coordinates></Point>
        <styleUrl>#icon-22</styleUrl>
      </Placemark>
      <Placemark>
        <name><![CDATA[Finnsnes]]></name>
        <description><![CDATA[Finnsnes, Finnsnes]]></description>
        <Point><coordinates>17.978581,69.228918,0</coordinates></Point>
        <styleUrl>#icon-22</styleUrl>
      </Placemark>
      <Placemark>
        <name><![CDATA[Solna Mall of Scandinavia]]></name>
        <description><![CDATA[Solna Mall of Scandinavia, Stockholm]]></description>
        <Point><coordinates>17.99965,59.370664,0</coordinates></Point>
        <styleUrl>#icon-22</styleUrl>
      </Placemark>
      <Placemark>
        <name><![CDATA[Stockholm Drottninggatan]]></name>
        <description><![CDATA[Stockholm Drottninggatan, Stockholm]]></description>
        <Point><coordinates>18.060929,59.334488,0</coordinates></Point>
        <styleUrl>#icon-22</styleUrl>
      </Placemark>
      <Placemark>
        <name><![CDATA[Stockholm Täby C]]></name>
        <description><![CDATA[Stockholm Täby C, Täby]]></description>
        <Point><coordinates>18.069508,59.444862,0</coordinates></Point>
        <styleUrl>#icon-22</styleUrl>
      </Placemark>
      <Placemark>
        <name><![CDATA[Visby]]></name>
        <description><![CDATA[Visby, Visby]]></description>
        <Point><coordinates>18.299607,57.637895,0</coordinates></Point>
        <styleUrl>#icon-22</styleUrl>
      </Placemark>
      <Placemark>
        <name><![CDATA[Bardufoss]]></name>
        <description><![CDATA[Bardufoss, Bardufoss]]></description>
        <Point><coordinates>18.513291,69.064724,0</coordinates></Point>
        <styleUrl>#icon-22</styleUrl>
      </Placemark>
      <Placemark>
        <name><![CDATA[Örnsköldsvik]]></name>
        <description><![CDATA[Örnsköldsvik, Örnsköldsvik]]></description>
        <Point><coordinates>18.714565,63.289281,0</coordinates></Point>
        <styleUrl>#icon-22</styleUrl>
      </Placemark>
      <Placemark>
        <name><![CDATA[Jekta - Tromsø]]></name>
        <description><![CDATA[Jekta - Tromsø, Tromsø]]></description>
        <Point><coordinates>18.92103,69.674566,0</coordinates></Point>
        <styleUrl>#icon-22</styleUrl>
      </Placemark>
      <Placemark>
        <name><![CDATA[Nerstranda - Tromsø]]></name>
        <description><![CDATA[Nerstranda - Tromsø, Tromsø]]></description>
        <Point><coordinates>18.954855,69.646501,0</coordinates></Point>
        <styleUrl>#icon-22</styleUrl>
      </Placemark>
      <Placemark>
        <name><![CDATA[Tromsdalen]]></name>
        <description><![CDATA[Tromsdalen, Tromsø]]></description>
        <Point><coordinates>18.970862,69.639962,0</coordinates></Point>
        <styleUrl>#icon-22</styleUrl>
      </Placemark>
      <Placemark>
        <name><![CDATA[Umeå Avion Shopping]]></name>
        <description><![CDATA[Umeå Avion Shopping, Umeå]]></description>
        <Point><coordinates>20.254656,63.807752,0</coordinates></Point>
        <styleUrl>#icon-22</styleUrl>
      </Placemark>
      <Placemark>
        <name><![CDATA[Skellefteå]]></name>
        <description><![CDATA[Skellefteå, Skellefteå]]></description>
        <Point><coordinates>20.9544,64.750085,0</coordinates></Point>
        <styleUrl>#icon-22</styleUrl>
      </Placemark>
      <Placemark>
        <name><![CDATA[Piteå]]></name>
        <description><![CDATA[Piteå, Piteå]]></description>
        <Point><coordinates>21.479732,65.316927,0</coordinates></Point>
        <styleUrl>#icon-22</styleUrl>
      </Placemark>
      <Placemark>
        <name><![CDATA[Rauma, Potkur]]></name>
        <description><![CDATA[Rauma, Potkur, Rauma]]></description>
        <Point><coordinates>21.506958,61.128227,0</coordinates></Point>
        <styleUrl>#icon-22</styleUrl>
      </Placemark>
      <Placemark>
        <name><![CDATA[Vaasa, Espen]]></name>
        <description><![CDATA[Vaasa, Espen, Vaasa]]></description>
        <Point><coordinates>21.616504,63.096429,0</coordinates></Point>
        <styleUrl>#icon-22</styleUrl>
      </Placemark>
      <Placemark>
        <name><![CDATA[Vaasa, GW Galleria]]></name>
        <description><![CDATA[Vaasa, GW Galleria, Vaasa]]></description>
        <Point><coordinates>21.649621,63.109218,0</coordinates></Point>
        <styleUrl>#icon-22</styleUrl>
      </Placemark>
      <Placemark>
        <name><![CDATA[Pori, Puuvilla]]></name>
        <description><![CDATA[Pori, Puuvilla, Pori]]></description>
        <Point><coordinates>21.798674,61.492495,0</coordinates></Point>
        <styleUrl>#icon-22</styleUrl>
      </Placemark>
      <Placemark>
        <name><![CDATA[Luleå Smedjan Gallerian]]></name>
        <description><![CDATA[Luleå Smedjan Gallerian, Smedjan Gallerian]]></description>
        <Point><coordinates>22.153227,65.583985,0</coordinates></Point>
        <styleUrl>#icon-22</styleUrl>
      </Placemark>
      <Placemark>
        <name><![CDATA[Raisio, Mylly]]></name>
        <description><![CDATA[Raisio, Mylly, Turku]]></description>
        <Point><coordinates>22.205177,60.491816,0</coordinates></Point>
        <styleUrl>#icon-22</styleUrl>
      </Placemark>
      <Placemark>
        <name><![CDATA[Turku, Kultatalo]]></name>
        <description><![CDATA[Turku, Kultatalo, Turku]]></description>
        <Point><coordinates>22.26535,60.451443,0</coordinates></Point>
        <styleUrl>#icon-22</styleUrl>
      </Placemark>
      <Placemark>
        <name><![CDATA[Turku, Skanssi]]></name>
        <description><![CDATA[Turku, Skanssi, Turku]]></description>
        <Point><coordinates>22.318926,60.429696,0</coordinates></Point>
        <styleUrl>#icon-22</styleUrl>
      </Placemark>
      <Placemark>
        <name><![CDATA[Seinäjoki, Ideapark]]></name>
        <description><![CDATA[Seinäjoki, Ideapark, Seinäjoki]]></description>
        <Point><coordinates>22.801414,62.792293,0</coordinates></Point>
        <styleUrl>#icon-22</styleUrl>
      </Placemark>
      <Placemark>
        <name><![CDATA[Salo, Plaza]]></name>
        <description><![CDATA[Salo, Plaza, Salo]]></description>
        <Point><coordinates>23.124741,60.386373,0</coordinates></Point>
        <styleUrl>#icon-22</styleUrl>
      </Placemark>
      <Placemark>
        <name><![CDATA[Kokkola, Chydenia]]></name>
        <description><![CDATA[Kokkola, Chydenia, Kokkola]]></description>
        <Point><coordinates>23.133028,63.836239,0</coordinates></Point>
        <styleUrl>#icon-22</styleUrl>
      </Placemark>
      <Placemark>
        <name><![CDATA[Alta]]></name>
        <description><![CDATA[Alta, Alta]]></description>
        <Point><coordinates>23.272645,69.966175,0</coordinates></Point>
        <styleUrl>#icon-22</styleUrl>
      </Placemark>
      <Placemark>
        <name><![CDATA[Forssa,  Prisma]]></name>
        <description><![CDATA[Forssa,  Prisma, Forssa]]></description>
        <Point><coordinates>23.637034,60.812193,0</coordinates></Point>
        <styleUrl>#icon-22</styleUrl>
      </Placemark>
      <Placemark>
        <name><![CDATA[Tampere,  Lielahtikeskus]]></name>
        <description><![CDATA[Tampere,  Lielahtikeskus, Tampere]]></description>
        <Point><coordinates>23.668612,61.520478,0</coordinates></Point>
        <styleUrl>#icon-22</styleUrl>
      </Placemark>
      <Placemark>
        <name><![CDATA[Hammerfest]]></name>
        <description><![CDATA[Hammerfest, Hammerfest]]></description>
        <Point><coordinates>23.681978,70.663911,0</coordinates></Point>
        <styleUrl>#icon-22</styleUrl>
      </Placemark>
      <Placemark>
        <name><![CDATA[Tampere, Koskikeskus]]></name>
        <description><![CDATA[Tampere, Koskikeskus, Tampere]]></description>
        <Point><coordinates>23.76811,61.495351,0</coordinates></Point>
        <styleUrl>#icon-22</styleUrl>
      </Placemark>
      <Placemark>
        <name><![CDATA[Lempäälä, Ideapark]]></name>
        <description><![CDATA[Lempäälä, Ideapark, Lempäälä]]></description>
        <Point><coordinates>23.798539,61.362645,0</coordinates></Point>
        <styleUrl>#icon-22</styleUrl>
      </Placemark>
      <Placemark>
        <name><![CDATA[Tornio, Rajalla]]></name>
        <description><![CDATA[Tornio, Rajalla, Tornio]]></description>
        <Point><coordinates>24.142026,65.844297,0</coordinates></Point>
        <styleUrl>#icon-22</styleUrl>
      </Placemark>
      <Placemark>
        <name><![CDATA[Hämeenlinna, Goodman]]></name>
        <description><![CDATA[Hämeenlinna, Goodman, Hämeenlinna]]></description>
        <Point><coordinates>24.455864,60.996666,0</coordinates></Point>
        <styleUrl>#icon-22</styleUrl>
      </Placemark>
      <Placemark>
        <name><![CDATA[Espoo, Iso-Omena]]></name>
        <description><![CDATA[Espoo, Iso-Omena, Espoo]]></description>
        <Point><coordinates>24.740127,60.161897,0</coordinates></Point>
        <styleUrl>#icon-22</styleUrl>
      </Placemark>
      <Placemark>
        <name><![CDATA[Espoo, Sello]]></name>
        <description><![CDATA[Espoo, Sello, Espoo]]></description>
        <Point><coordinates>24.810264,60.21712,0</coordinates></Point>
        <styleUrl>#icon-22</styleUrl>
      </Placemark>
      <Placemark>
        <name><![CDATA[Hyvinkää, Willa]]></name>
        <description><![CDATA[Hyvinkää, Willa, Hyvinkää]]></description>
        <Point><coordinates>24.865502,60.632156,0</coordinates></Point>
        <styleUrl>#icon-22</styleUrl>
      </Placemark>
      <Placemark>
        <name><![CDATA[Helsinki, Tripla]]></name>
        <description><![CDATA[Helsinki, Tripla, Helsinki]]></description>
        <Point><coordinates>24.930445,60.197915,0</coordinates></Point>
        <styleUrl>#icon-22</styleUrl>
      </Placemark>
      <Placemark>
        <name><![CDATA[Helsinki, Kamppi]]></name>
        <description><![CDATA[Helsinki, Kamppi, Helsinki]]></description>
        <Point><coordinates>24.933499,60.169427,0</coordinates></Point>
        <styleUrl>#icon-22</styleUrl>
      </Placemark>
      <Placemark>
        <name><![CDATA[Helsinki, Forum]]></name>
        <description><![CDATA[Helsinki, Forum, Helsinki]]></description>
        <Point><coordinates>24.937469,60.16895,0</coordinates></Point>
        <styleUrl>#icon-22</styleUrl>
      </Placemark>
      <Placemark>
        <name><![CDATA[Vantaa, Jumbo]]></name>
        <description><![CDATA[Vantaa, Jumbo, Vantaa]]></description>
        <Point><coordinates>24.962113,60.290768,0</coordinates></Point>
        <styleUrl>#icon-22</styleUrl>
      </Placemark>
      <Placemark>
        <name><![CDATA[Lakselv]]></name>
        <description><![CDATA[Lakselv, Lakselv]]></description>
        <Point><coordinates>24.971782,70.051326,0</coordinates></Point>
        <styleUrl>#icon-22</styleUrl>
      </Placemark>
      <Placemark>
        <name><![CDATA[Helsinki, Redi]]></name>
        <description><![CDATA[Helsinki, Redi, Helsinki]]></description>
        <Point><coordinates>24.980927,60.189609,0</coordinates></Point>
        <styleUrl>#icon-22</styleUrl>
      </Placemark>
      <Placemark>
        <name><![CDATA[Järvenpää, Prisma]]></name>
        <description><![CDATA[Järvenpää, Prisma, Järvenpää]]></description>
        <Point><coordinates>25.084411,60.469534,0</coordinates></Point>
        <styleUrl>#icon-22</styleUrl>
      </Placemark>
      <Placemark>
        <name><![CDATA[Helsinki, Itis]]></name>
        <description><![CDATA[Helsinki, Itis, Helsinki]]></description>
        <Point><coordinates>25.085417,60.212632,0</coordinates></Point>
        <styleUrl>#icon-22</styleUrl>
      </Placemark>
      <Placemark>
        <name><![CDATA[Oulu, Ideapark]]></name>
        <description><![CDATA[Oulu, Ideapark, Oulu]]></description>
        <Point><coordinates>25.447315,65.076172,0</coordinates></Point>
        <styleUrl>#icon-22</styleUrl>
      </Placemark>
      <Placemark>
        <name><![CDATA[Oulu, Valkea]]></name>
        <description><![CDATA[Oulu, Valkea, Oulu]]></description>
        <Point><coordinates>25.472096,65.011422,0</coordinates></Point>
        <styleUrl>#icon-22</styleUrl>
      </Placemark>
      <Placemark>
        <name><![CDATA[Oulu, Zeppelin]]></name>
        <description><![CDATA[Oulu, Zeppelin, Kempele]]></description>
        <Point><coordinates>25.538861,64.903251,0</coordinates></Point>
        <styleUrl>#icon-22</styleUrl>
      </Placemark>
      <Placemark>
        <name><![CDATA[Porvoo, Taidetehdas]]></name>
        <description><![CDATA[Porvoo, Taidetehdas, Porvoo]]></description>
        <Point><coordinates>25.657557,60.389271,0</coordinates></Point>
        <styleUrl>#icon-22</styleUrl>
      </Placemark>
      <Placemark>
        <name><![CDATA[Lahti, Trio]]></name>
        <description><![CDATA[Lahti, Trio, Lahti]]></description>
        <Point><coordinates>25.662222,60.982652,0</coordinates></Point>
        <styleUrl>#icon-22</styleUrl>
      </Placemark>
      <Placemark>
        <name><![CDATA[Rovaniemi, Sampokeskus]]></name>
        <description><![CDATA[Rovaniemi, Sampokeskus, Rovaniemi]]></description>
        <Point><coordinates>25.730627,66.501702,0</coordinates></Point>
        <styleUrl>#icon-22</styleUrl>
      </Placemark>
      <Placemark>
        <name><![CDATA[Lahti, Karisma]]></name>
        <description><![CDATA[Lahti, Karisma, Lahti]]></description>
        <Point><coordinates>25.736976,60.982892,0</coordinates></Point>
        <styleUrl>#icon-22</styleUrl>
      </Placemark>
      <Placemark>
        <name><![CDATA[Jyväskylä, Forum]]></name>
        <description><![CDATA[Jyväskylä, Forum, Jyväskylä]]></description>
        <Point><coordinates>25.748641,62.241968,0</coordinates></Point>
        <styleUrl>#icon-22</styleUrl>
      </Placemark>
      <Placemark>
        <name><![CDATA[Jyväskylä, Seppä]]></name>
        <description><![CDATA[Jyväskylä, Seppä, Jyväskylä]]></description>
        <Point><coordinates>25.777256,62.256007,0</coordinates></Point>
        <styleUrl>#icon-22</styleUrl>
      </Placemark>
      <Placemark>
        <name><![CDATA[Kouvola, Veturi]]></name>
        <description><![CDATA[Kouvola, Veturi, Kouvola]]></description>
        <Point><coordinates>26.655417,60.872098,0</coordinates></Point>
        <styleUrl>#icon-22</styleUrl>
      </Placemark>
      <Placemark>
        <name><![CDATA[Kotka, Pasaati]]></name>
        <description><![CDATA[Kotka, Pasaati, Kotka]]></description>
        <Point><coordinates>26.944604,60.46618,0</coordinates></Point>
        <styleUrl>#icon-22</styleUrl>
      </Placemark>
      <Placemark>
        <name><![CDATA[Iisalmi, Iisa]]></name>
        <description><![CDATA[Iisalmi, Iisa, Iisalmi]]></description>
        <Point><coordinates>27.187896,63.555727,0</coordinates></Point>
        <styleUrl>#icon-22</styleUrl>
      </Placemark>
      <Placemark>
        <name><![CDATA[Mikkeli, Stella]]></name>
        <description><![CDATA[Mikkeli, Stella, Mikkeli]]></description>
        <Point><coordinates>27.275285,61.689292,0</coordinates></Point>
        <styleUrl>#icon-22</styleUrl>
      </Placemark>
      <Placemark>
        <name><![CDATA[Kuopio, Matkus]]></name>
        <description><![CDATA[Kuopio, Matkus, Kuopio]]></description>
        <Point><coordinates>27.601006,62.839601,0</coordinates></Point>
        <styleUrl>#icon-22</styleUrl>
      </Placemark>
      <Placemark>
        <name><![CDATA[Kajaani]]></name>
        <description><![CDATA[Kajaani, Kajaani]]></description>
        <Point><coordinates>27.733612,64.224964,0</coordinates></Point>
        <styleUrl>#icon-22</styleUrl>
      </Placemark>
      <Placemark>
        <name><![CDATA[Lappeenranta, Galleria]]></name>
        <description><![CDATA[Lappeenranta, Galleria, Lappeenranta]]></description>
        <Point><coordinates>28.190278,61.055833,0</coordinates></Point>
        <styleUrl>#icon-22</styleUrl>
      </Placemark>
      <Placemark>
        <name><![CDATA[Vadsø]]></name>
        <description><![CDATA[Vadsø, Vadsø]]></description>
        <Point><coordinates>29.753139,70.072022,0</coordinates></Point>
        <styleUrl>#icon-22</styleUrl>
      </Placemark>
      <Placemark>
        <name><![CDATA[Joensuu, Iso-Myy]]></name>
        <description><![CDATA[Joensuu, Iso-Myy, Joensuu]]></description>
        <Point><coordinates>29.763922,62.601714,0</coordinates></Point>
        <styleUrl>#icon-22</styleUrl>
      </Placemark>
      <Placemark>
        <name><![CDATA[Kirkenes]]></name>
        <description><![CDATA[Kirkenes, Kirkenes]]></description>
        <Point><coordinates>30.037372,69.728301,0</coordinates></Point>
        <styleUrl>#icon-22</styleUrl>
      </Placemark>
    </Folder>
  </Document>
</kml>