<?xml version="1.0" encoding="UTF-8"?>
<kml xmlns="http://www.opengis.net/kml/2.2">
  <Document>
    <name><![CDATA[Din-X]]></name>
    <description/>
    <Style id="icon-22-normal"><IconStyle><scale>1.1</scale><Icon><href>https://www.gstatic.com/mapspro/images/stock/22-blue-dot.png</href></Icon><hotSpot x="16" xunits="pixels" y="32" yunits="insetPixels"/></IconStyle><LabelStyle><scale>0</scale></LabelStyle></Style>
    <Style id="icon-22-highlight"><IconStyle><scale>1.1</scale><Icon><href>https://www.gstatic.com/mapspro/images/stock/22-blue-dot.png</href></Icon><hotSpot x="16" xunits="pixels" y="32" yunits="insetPixels"/></IconStyle><LabelStyle><scale>1.1</scale></LabelStyle></Style>
    <StyleMap id="icon-22"><Pair><key>normal</key><styleUrl>#icon-22-normal</styleUrl></Pair><Pair><key>highlight</key><styleUrl>#icon-22-highlight</styleUrl></Pair></StyleMap>
    <Folder>
      <name><![CDATA[Din-X]]></name>
      <Placemark>
        <name><![CDATA[Din-X Fjällbacka]]></name>
        <description><![CDATA[Din-X Fjällbacka, Fjällbacka, Sverige]]></description>
        <Point><coordinates>11.301688,58.600967,0</coordinates></Point>
        <styleUrl>#icon-22</styleUrl>
      </Placemark>
      <Placemark>
        <name><![CDATA[Din-X Töcksfors]]></name>
        <description><![CDATA[Din-X Töcksfors, Töcksfors, Sverige]]></description>
        <Point><coordinates>11.819072,59.510221,0</coordinates></Point>
        <styleUrl>#icon-22</styleUrl>
      </Placemark>
      <Placemark>
        <name><![CDATA[Din-X Koppom]]></name>
        <description><![CDATA[Din-X Koppom, Koppom, Sverige]]></description>
        <Point><coordinates>12.146267,59.69819,0</coordinates></Point>
        <styleUrl>#icon-22</styleUrl>
      </Placemark>
      <Placemark>
        <name><![CDATA[Din-X Väröbacka]]></name>
        <description><![CDATA[Din-X Väröbacka, Väröbacka, Sverige]]></description>
        <Point><coordinates>12.181086,57.254947,0</coordinates></Point>
        <styleUrl>#icon-22</styleUrl>
      </Placemark>
      <Placemark>
        <name><![CDATA[Din-X Bengtsfors]]></name>
        <description><![CDATA[Din-X Bengtsfors, Bengtsfors, Sverige]]></description>
        <Point><coordinates>12.221312,59.031867,0</coordinates></Point>
        <styleUrl>#icon-22</styleUrl>
      </Placemark>
      <Placemark>
        <name><![CDATA[Din-X Träslövsläge Båt]]></name>
        <description><![CDATA[Din-X Träslövsläge Båt, Träslövsläge, Sverige]]></description>
        <Point><coordinates>12.272098,57.056421,0</coordinates></Point>
        <styleUrl>#icon-22</styleUrl>
      </Placemark>
      <Placemark>
        <name><![CDATA[Din-X Dals Långed]]></name>
        <description><![CDATA[Din-X Dals Långed, Dals Långed, Sverige]]></description>
        <Point><coordinates>12.294618,58.929361,0</coordinates></Point>
        <styleUrl>#icon-22</styleUrl>
      </Placemark>
      <Placemark>
        <name><![CDATA[Din-X Träslövsläge]]></name>
        <description><![CDATA[Din-X Träslövsläge, Träslövsläge, Sverige]]></description>
        <Point><coordinates>12.296404,57.056018,0</coordinates></Point>
        <styleUrl>#icon-22</styleUrl>
      </Placemark>
      <Placemark>
        <name><![CDATA[Din-X Derome]]></name>
        <description><![CDATA[Din-X Derome, Derome, Sverige]]></description>
        <Point><coordinates>12.304756,57.234525,0</coordinates></Point>
        <styleUrl>#icon-22</styleUrl>
      </Placemark>
      <Placemark>
        <name><![CDATA[Din-X Årjäng Sillerud]]></name>
        <description><![CDATA[Din-X Årjäng Sillerud, Årjäng, Sverige]]></description>
        <Point><coordinates>12.309807,59.320502,0</coordinates></Point>
        <styleUrl>#icon-22</styleUrl>
      </Placemark>
      <Placemark>
        <name><![CDATA[Din-X Arvika Sulvik]]></name>
        <description><![CDATA[Din-X Arvika Sulvik, Arvika, Sverige]]></description>
        <Point><coordinates>12.51,59.67,0</coordinates></Point>
        <styleUrl>#icon-22</styleUrl>
      </Placemark>
      <Placemark>
        <name><![CDATA[Din-X Sollebrunn]]></name>
        <description><![CDATA[Din-X Sollebrunn, Sollebrunn, Sverige]]></description>
        <Point><coordinates>12.523258,58.12207,0</coordinates></Point>
        <styleUrl>#icon-22</styleUrl>
      </Placemark>
      <Placemark>
        <name><![CDATA[Din-X Arvika Speke]]></name>
        <description><![CDATA[Din-X Arvika Speke, Arvika, Sverige]]></description>
        <Point><coordinates>12.543176,59.666907,0</coordinates></Point>
        <styleUrl>#icon-22</styleUrl>
      </Placemark>
      <Placemark>
        <name><![CDATA[Din-X Svaneholm]]></name>
        <description><![CDATA[Din-X Svaneholm, Svaneholm, Sverige]]></description>
        <Point><coordinates>12.548938,59.175937,0</coordinates></Point>
        <styleUrl>#icon-22</styleUrl>
      </Placemark>
      <Placemark>
        <name><![CDATA[Din-X Glava]]></name>
        <description><![CDATA[Din-X Glava, Glava, Sverige]]></description>
        <Point><coordinates>12.56,59.56,0</coordinates></Point>
        <styleUrl>#icon-22</styleUrl>
      </Placemark>
      <Placemark>
        <name><![CDATA[Din-X Gunnarskog]]></name>
        <description><![CDATA[Din-X Gunnarskog, Gunnarskog, Sverige]]></description>
        <Point><coordinates>12.567962,59.820415,0</coordinates></Point>
        <styleUrl>#icon-22</styleUrl>
      </Placemark>
      <Placemark>
        <name><![CDATA[Din-X Långserud]]></name>
        <description><![CDATA[Din-X Långserud, Långserud, Sverige]]></description>
        <Point><coordinates>12.57,59.26,0</coordinates></Point>
        <styleUrl>#icon-22</styleUrl>
      </Placemark>
      <Placemark>
        <name><![CDATA[Din-X Haverdal]]></name>
        <description><![CDATA[Din-X Haverdal, Haverdal, Sverige]]></description>
        <Point><coordinates>12.670321,56.730009,0</coordinates></Point>
        <styleUrl>#icon-22</styleUrl>
      </Placemark>
      <Placemark>
        <name><![CDATA[Din-X Jonstorp]]></name>
        <description><![CDATA[Din-X Jonstorp, Jonstorp, Sverige]]></description>
        <Point><coordinates>12.672199,56.221029,0</coordinates></Point>
        <styleUrl>#icon-22</styleUrl>
      </Placemark>
      <Placemark>
        <name><![CDATA[Din-X Helsingborg Norra Hamnen]]></name>
        <description><![CDATA[Din-X Helsingborg Norra Hamnen, Helsingborg, Sverige]]></description>
        <Point><coordinates>12.686822,56.048394,0</coordinates></Point>
        <styleUrl>#icon-22</styleUrl>
      </Placemark>
      <Placemark>
        <name><![CDATA[Din-X Helsingborg Kullavägen 3]]></name>
        <description><![CDATA[Din-X Helsingborg Kullavägen 3, Helsingborg, Sverige]]></description>
        <Point><coordinates>12.694534,56.047202,0</coordinates></Point>
        <styleUrl>#icon-22</styleUrl>
      </Placemark>
      <Placemark>
        <name><![CDATA[Din-X Kinna]]></name>
        <description><![CDATA[Din-X Kinna, Kinna, Sverige]]></description>
        <Point><coordinates>12.695587,57.512109,0</coordinates></Point>
        <styleUrl>#icon-22</styleUrl>
      </Placemark>
      <Placemark>
        <name><![CDATA[Din-X Slöinge]]></name>
        <description><![CDATA[Din-X Slöinge, Slöinge, Sverige]]></description>
        <Point><coordinates>12.695768,56.854676,0</coordinates></Point>
        <styleUrl>#icon-22</styleUrl>
      </Placemark>
      <Placemark>
        <name><![CDATA[Din-X Helsingborg]]></name>
        <description><![CDATA[Din-X Helsingborg, Helsingborg, Sverige]]></description>
        <Point><coordinates>12.714614,56.051049,0</coordinates></Point>
        <styleUrl>#icon-22</styleUrl>
      </Placemark>
      <Placemark>
        <name><![CDATA[Din-X Ullared]]></name>
        <description><![CDATA[Din-X Ullared, Ullared, Sverige]]></description>
        <Point><coordinates>12.718464,57.135762,0</coordinates></Point>
        <styleUrl>#icon-22</styleUrl>
      </Placemark>
      <Placemark>
        <name><![CDATA[Din-X Ramlösa]]></name>
        <description><![CDATA[Din-X Ramlösa, Ramlösa, Sverige]]></description>
        <Point><coordinates>12.758821,56.028187,0</coordinates></Point>
        <styleUrl>#icon-22</styleUrl>
      </Placemark>
      <Placemark>
        <name><![CDATA[Din-X Östmark]]></name>
        <description><![CDATA[Din-X Östmark, Östmark, Sverige]]></description>
        <Point><coordinates>12.760279,60.279296,0</coordinates></Point>
        <styleUrl>#icon-22</styleUrl>
      </Placemark>
      <Placemark>
        <name><![CDATA[Din-X Grevie]]></name>
        <description><![CDATA[Din-X Grevie, Grevie, Sverige]]></description>
        <Point><coordinates>12.775216,56.388752,0</coordinates></Point>
        <styleUrl>#icon-22</styleUrl>
      </Placemark>
      <Placemark>
        <name><![CDATA[Din-X Bredöl]]></name>
        <description><![CDATA[Din-X Bredöl, Bredöl, Sverige]]></description>
        <Point><coordinates>12.78,58.23,0</coordinates></Point>
        <styleUrl>#icon-22</styleUrl>
      </Placemark>
      <Placemark>
        <name><![CDATA[Din-X Rydebäck]]></name>
        <description><![CDATA[Din-X Rydebäck, Rydebäck, Sverige]]></description>
        <Point><coordinates>12.78,55.97,0</coordinates></Point>
        <styleUrl>#icon-22</styleUrl>
      </Placemark>
      <Placemark>
        <name><![CDATA[Din-X Sandared]]></name>
        <description><![CDATA[Din-X Sandared, Sandared, Sverige]]></description>
        <Point><coordinates>12.784689,57.710745,0</coordinates></Point>
        <styleUrl>#icon-22</styleUrl>
      </Placemark>
      <Placemark>
        <name><![CDATA[Din-X Ängelholm Skälderviken]]></name>
        <description><![CDATA[Din-X Ängelholm Skälderviken, Ängelholm, Sverige]]></description>
        <Point><coordinates>12.839483,56.284966,0</coordinates></Point>
        <styleUrl>#icon-22</styleUrl>
      </Placemark>
      <Placemark>
        <name><![CDATA[Din-X Strövelstorp]]></name>
        <description><![CDATA[Din-X Strövelstorp, Strövelstorp, Sverige]]></description>
        <Point><coordinates>12.840341,56.17299,0</coordinates></Point>
        <styleUrl>#icon-22</styleUrl>
      </Placemark>
      <Placemark>
        <name><![CDATA[Din-X Landskrona]]></name>
        <description><![CDATA[Din-X Landskrona, Landskrona, Sverige]]></description>
        <Point><coordinates>12.852147,55.871192,0</coordinates></Point>
        <styleUrl>#icon-22</styleUrl>
      </Placemark>
      <Placemark>
        <name><![CDATA[Din-X Älvsered]]></name>
        <description><![CDATA[Din-X Älvsered, Älvsered, Sverige]]></description>
        <Point><coordinates>12.858979,57.23932,0</coordinates></Point>
        <styleUrl>#icon-22</styleUrl>
      </Placemark>
      <Placemark>
        <name><![CDATA[Din-X Ängelholm]]></name>
        <description><![CDATA[Din-X Ängelholm, Ängelholm, Sverige]]></description>
        <Point><coordinates>12.860233,56.229477,0</coordinates></Point>
        <styleUrl>#icon-22</styleUrl>
      </Placemark>
      <Placemark>
        <name><![CDATA[Din-X Hyllinge]]></name>
        <description><![CDATA[Din-X Hyllinge, Hyllinge, Sverige]]></description>
        <Point><coordinates>12.860448,56.101094,0</coordinates></Point>
        <styleUrl>#icon-22</styleUrl>
      </Placemark>
      <Placemark>
        <name><![CDATA[Din-X Vallåkra]]></name>
        <description><![CDATA[Din-X Vallåkra, Vallåkra, Sverige]]></description>
        <Point><coordinates>12.863723,55.962935,0</coordinates></Point>
        <styleUrl>#icon-22</styleUrl>
      </Placemark>
      <Placemark>
        <name><![CDATA[Din-X Ängelholm Margretetorpsvägen]]></name>
        <description><![CDATA[Din-X Ängelholm Margretetorpsvägen, Ängelholm, Sverige]]></description>
        <Point><coordinates>12.870188,56.290563,0</coordinates></Point>
        <styleUrl>#icon-22</styleUrl>
      </Placemark>
      <Placemark>
        <name><![CDATA[Din-X Gräsmark]]></name>
        <description><![CDATA[Din-X Gräsmark, Gräsmark, Sverige]]></description>
        <Point><coordinates>12.910594,59.946189,0</coordinates></Point>
        <styleUrl>#icon-22</styleUrl>
      </Placemark>
      <Placemark>
        <name><![CDATA[Din-X Hjärnarp]]></name>
        <description><![CDATA[Din-X Hjärnarp, Hjärnarp, Sverige]]></description>
        <Point><coordinates>12.916846,56.316133,0</coordinates></Point>
        <styleUrl>#icon-22</styleUrl>
      </Placemark>
      <Placemark>
        <name><![CDATA[Din-X Saxtorp]]></name>
        <description><![CDATA[Din-X Saxtorp, Saxtorp, Sverige]]></description>
        <Point><coordinates>12.934865,55.849535,0</coordinates></Point>
        <styleUrl>#icon-22</styleUrl>
      </Placemark>
      <Placemark>
        <name><![CDATA[Din-X Tågarp]]></name>
        <description><![CDATA[Din-X Tågarp, Tågarp, Sverige]]></description>
        <Point><coordinates>12.953961,55.921506,0</coordinates></Point>
        <styleUrl>#icon-22</styleUrl>
      </Placemark>
      <Placemark>
        <name><![CDATA[Din-X Vara]]></name>
        <description><![CDATA[Din-X Vara, Vara, Sverige]]></description>
        <Point><coordinates>12.959497,58.258179,0</coordinates></Point>
        <styleUrl>#icon-22</styleUrl>
      </Placemark>
      <Placemark>
        <name><![CDATA[Din-X Oskarsström]]></name>
        <description><![CDATA[Din-X Oskarsström, Oskarsström, Sverige]]></description>
        <Point><coordinates>12.960037,56.805719,0</coordinates></Point>
        <styleUrl>#icon-22</styleUrl>
      </Placemark>
      <Placemark>
        <name><![CDATA[Din-X Hofterup]]></name>
        <description><![CDATA[Din-X Hofterup, Hofterup, Sverige]]></description>
        <Point><coordinates>12.96956,55.792047,0</coordinates></Point>
        <styleUrl>#icon-22</styleUrl>
      </Placemark>
      <Placemark>
        <name><![CDATA[Din-X Billesholm]]></name>
        <description><![CDATA[Din-X Billesholm, Billesholm, Sverige]]></description>
        <Point><coordinates>12.975789,56.050335,0</coordinates></Point>
        <styleUrl>#icon-22</styleUrl>
      </Placemark>
      <Placemark>
        <name><![CDATA[Din-X Vedum]]></name>
        <description><![CDATA[Din-X Vedum, Vedum, Sverige]]></description>
        <Point><coordinates>12.994947,58.167523,0</coordinates></Point>
        <styleUrl>#icon-22</styleUrl>
      </Placemark>
      <Placemark>
        <name><![CDATA[Din-X Bjärred]]></name>
        <description><![CDATA[Din-X Bjärred, Bjärred, Sverige]]></description>
        <Point><coordinates>13.037618,55.719981,0</coordinates></Point>
        <styleUrl>#icon-22</styleUrl>
      </Placemark>
      <Placemark>
        <name><![CDATA[Din-X Malmö Nya Agnesfridsvägen]]></name>
        <description><![CDATA[Din-X Malmö Nya Agnesfridsvägen, Malmö, Sverige]]></description>
        <Point><coordinates>13.050161,55.566456,0</coordinates></Point>
        <styleUrl>#icon-22</styleUrl>
      </Placemark>
      <Placemark>
        <name><![CDATA[Din-X Lomma]]></name>
        <description><![CDATA[Din-X Lomma, Lomma, Sverige]]></description>
        <Point><coordinates>13.082188,55.682267,0</coordinates></Point>
        <styleUrl>#icon-22</styleUrl>
      </Placemark>
      <Placemark>
        <name><![CDATA[Din-X Kågeröd]]></name>
        <description><![CDATA[Din-X Kågeröd, Kågeröd, Sverige]]></description>
        <Point><coordinates>13.083335,56.002156,0</coordinates></Point>
        <styleUrl>#icon-22</styleUrl>
      </Placemark>
      <Placemark>
        <name><![CDATA[Din-X Kinnared]]></name>
        <description><![CDATA[Din-X Kinnared, Kinnared, Sverige]]></description>
        <Point><coordinates>13.096618,57.025679,0</coordinates></Point>
        <styleUrl>#icon-22</styleUrl>
      </Placemark>
      <Placemark>
        <name><![CDATA[Din-X Kävlinge]]></name>
        <description><![CDATA[Din-X Kävlinge, Kävlinge, Sverige]]></description>
        <Point><coordinates>13.099371,55.795729,0</coordinates></Point>
        <styleUrl>#icon-22</styleUrl>
      </Placemark>
      <Placemark>
        <name><![CDATA[Din-X Sunne Stöpafors]]></name>
        <description><![CDATA[Din-X Sunne Stöpafors, Sunne, Sverige]]></description>
        <Point><coordinates>13.10617,59.960438,0</coordinates></Point>
        <styleUrl>#icon-22</styleUrl>
      </Placemark>
      <Placemark>
        <name><![CDATA[Din-X Västra Ämtervik]]></name>
        <description><![CDATA[Din-X Västra Ämtervik, Västra Ämtervik, Sverige]]></description>
        <Point><coordinates>13.14339,59.72561,0</coordinates></Point>
        <styleUrl>#icon-22</styleUrl>
      </Placemark>
      <Placemark>
        <name><![CDATA[Din-X Marieholm]]></name>
        <description><![CDATA[Din-X Marieholm, Marieholm, Sverige]]></description>
        <Point><coordinates>13.152404,55.863005,0</coordinates></Point>
        <styleUrl>#icon-22</styleUrl>
      </Placemark>
      <Placemark>
        <name><![CDATA[Din-X Lidköping]]></name>
        <description><![CDATA[Din-X Lidköping, Lidköping, Sverige]]></description>
        <Point><coordinates>13.171944,58.498286,0</coordinates></Point>
        <styleUrl>#icon-22</styleUrl>
      </Placemark>
      <Placemark>
        <name><![CDATA[Din-X Alstad]]></name>
        <description><![CDATA[Din-X Alstad, Alstad, Sverige]]></description>
        <Point><coordinates>13.208023,55.447112,0</coordinates></Point>
        <styleUrl>#icon-22</styleUrl>
      </Placemark>
      <Placemark>
        <name><![CDATA[Din-X Fagerås]]></name>
        <description><![CDATA[Din-X Fagerås, Fagerås, Sverige]]></description>
        <Point><coordinates>13.227745,59.521518,0</coordinates></Point>
        <styleUrl>#icon-22</styleUrl>
      </Placemark>
      <Placemark>
        <name><![CDATA[Din-X Hyltebruk]]></name>
        <description><![CDATA[Din-X Hyltebruk, Hyltebruk, Sverige]]></description>
        <Point><coordinates>13.240981,57.001342,0</coordinates></Point>
        <styleUrl>#icon-22</styleUrl>
      </Placemark>
      <Placemark>
        <name><![CDATA[Din-X Svedala]]></name>
        <description><![CDATA[Din-X Svedala, Svedala, Sverige]]></description>
        <Point><coordinates>13.250819,55.51305,0</coordinates></Point>
        <styleUrl>#icon-22</styleUrl>
      </Placemark>
      <Placemark>
        <name><![CDATA[Din-X Stöllet]]></name>
        <description><![CDATA[Din-X Stöllet, Stöllet, Sverige]]></description>
        <Point><coordinates>13.258795,60.423045,0</coordinates></Point>
        <styleUrl>#icon-22</styleUrl>
      </Placemark>
      <Placemark>
        <name><![CDATA[Din-X Klågerup]]></name>
        <description><![CDATA[Din-X Klågerup, Klågerup, Sverige]]></description>
        <Point><coordinates>13.260679,55.598398,0</coordinates></Point>
        <styleUrl>#icon-22</styleUrl>
      </Placemark>
      <Placemark>
        <name><![CDATA[Din-X Örkelljunga]]></name>
        <description><![CDATA[Din-X Örkelljunga, Örkelljunga, Sverige]]></description>
        <Point><coordinates>13.286245,56.284142,0</coordinates></Point>
        <styleUrl>#icon-22</styleUrl>
      </Placemark>
      <Placemark>
        <name><![CDATA[Din-X Källby]]></name>
        <description><![CDATA[Din-X Källby, Källby, Sverige]]></description>
        <Point><coordinates>13.310051,58.505907,0</coordinates></Point>
        <styleUrl>#icon-22</styleUrl>
      </Placemark>
      <Placemark>
        <name><![CDATA[Din-X Knäred]]></name>
        <description><![CDATA[Din-X Knäred, Knäred, Sverige]]></description>
        <Point><coordinates>13.327392,56.510618,0</coordinates></Point>
        <styleUrl>#icon-22</styleUrl>
      </Placemark>
      <Placemark>
        <name><![CDATA[Din-X Södra Sandby]]></name>
        <description><![CDATA[Din-X Södra Sandby, Södra Sandby, Sverige]]></description>
        <Point><coordinates>13.331015,55.71876,0</coordinates></Point>
        <styleUrl>#icon-22</styleUrl>
      </Placemark>
      <Placemark>
        <name><![CDATA[Din-X Hasslebro]]></name>
        <description><![CDATA[Din-X Hasslebro, Hasslebro, Sverige]]></description>
        <Point><coordinates>13.3582,55.946262,0</coordinates></Point>
        <styleUrl>#icon-22</styleUrl>
      </Placemark>
      <Placemark>
        <name><![CDATA[Din-X Dalby]]></name>
        <description><![CDATA[Din-X Dalby, Dalby, Sverige]]></description>
        <Point><coordinates>13.363775,55.661034,0</coordinates></Point>
        <styleUrl>#icon-22</styleUrl>
      </Placemark>
      <Placemark>
        <name><![CDATA[Din-X Genarp]]></name>
        <description><![CDATA[Din-X Genarp, Genarp, Sverige]]></description>
        <Point><coordinates>13.399449,55.606379,0</coordinates></Point>
        <styleUrl>#icon-22</styleUrl>
      </Placemark>
      <Placemark>
        <name><![CDATA[Din-X Löberöd]]></name>
        <description><![CDATA[Din-X Löberöd, Löberöd, Sverige]]></description>
        <Point><coordinates>13.50993,55.7745,0</coordinates></Point>
        <styleUrl>#icon-22</styleUrl>
      </Placemark>
      <Placemark>
        <name><![CDATA[Din-X Höör Norra Rörum]]></name>
        <description><![CDATA[Din-X Höör Norra Rörum, Höör, Sverige]]></description>
        <Point><coordinates>13.512892,56.01524,0</coordinates></Point>
        <styleUrl>#icon-22</styleUrl>
      </Placemark>
      <Placemark>
        <name><![CDATA[Din-X Markaryd Råstorp]]></name>
        <description><![CDATA[Din-X Markaryd Råstorp, Markaryd, Sverige]]></description>
        <Point><coordinates>13.529191,56.485253,0</coordinates></Point>
        <styleUrl>#icon-22</styleUrl>
      </Placemark>
      <Placemark>
        <name><![CDATA[Din-X Falköping]]></name>
        <description><![CDATA[Din-X Falköping, Falköping, Sverige]]></description>
        <Point><coordinates>13.578882,58.170844,0</coordinates></Point>
        <styleUrl>#icon-22</styleUrl>
      </Placemark>
      <Placemark>
        <name><![CDATA[Din-X Blentarp]]></name>
        <description><![CDATA[Din-X Blentarp, Blentarp, Sverige]]></description>
        <Point><coordinates>13.599087,55.59052,0</coordinates></Point>
        <styleUrl>#icon-22</styleUrl>
      </Placemark>
      <Placemark>
        <name><![CDATA[Din-X Råda]]></name>
        <description><![CDATA[Din-X Råda, Råda, Sverige]]></description>
        <Point><coordinates>13.6,60.01,0</coordinates></Point>
        <styleUrl>#icon-22</styleUrl>
      </Placemark>
      <Placemark>
        <name><![CDATA[Din-X Sjöbo]]></name>
        <description><![CDATA[Din-X Sjöbo, Sjöbo, Sverige]]></description>
        <Point><coordinates>13.680497,55.637118,0</coordinates></Point>
        <styleUrl>#icon-22</styleUrl>
      </Placemark>
      <Placemark>
        <name><![CDATA[Din-X Malung]]></name>
        <description><![CDATA[Din-X Malung, Malung, Sverige]]></description>
        <Point><coordinates>13.709138,60.690361,0</coordinates></Point>
        <styleUrl>#icon-22</styleUrl>
      </Placemark>
      <Placemark>
        <name><![CDATA[Din-X Strömsnäsbruk]]></name>
        <description><![CDATA[Din-X Strömsnäsbruk, Strömsnäsbruk, Sverige]]></description>
        <Point><coordinates>13.722452,56.555374,0</coordinates></Point>
        <styleUrl>#icon-22</styleUrl>
      </Placemark>
      <Placemark>
        <name><![CDATA[Din-X Mariestad]]></name>
        <description><![CDATA[Din-X Mariestad, Mariestad, Sverige]]></description>
        <Point><coordinates>13.836294,58.710376,0</coordinates></Point>
        <styleUrl>#icon-22</styleUrl>
      </Placemark>
      <Placemark>
        <name><![CDATA[Din-X Tidaholm]]></name>
        <description><![CDATA[Din-X Tidaholm, Tidaholm, Sverige]]></description>
        <Point><coordinates>13.895977,58.194157,0</coordinates></Point>
        <styleUrl>#icon-22</styleUrl>
      </Placemark>
      <Placemark>
        <name><![CDATA[Din-X Vinslöv]]></name>
        <description><![CDATA[Din-X Vinslöv, Vinslöv, Sverige]]></description>
        <Point><coordinates>13.912734,56.102898,0</coordinates></Point>
        <styleUrl>#icon-22</styleUrl>
      </Placemark>
      <Placemark>
        <name><![CDATA[Din-X Hästveda]]></name>
        <description><![CDATA[Din-X Hästveda, Hästveda, Sverige]]></description>
        <Point><coordinates>13.933937,56.283009,0</coordinates></Point>
        <styleUrl>#icon-22</styleUrl>
      </Placemark>
      <Placemark>
        <name><![CDATA[Din-X Huaröd]]></name>
        <description><![CDATA[Din-X Huaröd, Huaröd, Sverige]]></description>
        <Point><coordinates>13.969168,55.841616,0</coordinates></Point>
        <styleUrl>#icon-22</styleUrl>
      </Placemark>
      <Placemark>
        <name><![CDATA[Din-X Osby]]></name>
        <description><![CDATA[Din-X Osby, Osby, Sverige]]></description>
        <Point><coordinates>14.001016,56.385731,0</coordinates></Point>
        <styleUrl>#icon-22</styleUrl>
      </Placemark>
      <Placemark>
        <name><![CDATA[Din-X Önnestad]]></name>
        <description><![CDATA[Din-X Önnestad, Önnestad, Sverige]]></description>
        <Point><coordinates>14.022547,56.05434,0</coordinates></Point>
        <styleUrl>#icon-22</styleUrl>
      </Placemark>
      <Placemark>
        <name><![CDATA[Din-X Värnamo]]></name>
        <description><![CDATA[Din-X Värnamo, Värnamo, Sverige]]></description>
        <Point><coordinates>14.038988,57.207491,0</coordinates></Point>
        <styleUrl>#icon-22</styleUrl>
      </Placemark>
      <Placemark>
        <name><![CDATA[Din-X Älvdalen]]></name>
        <description><![CDATA[Din-X Älvdalen, Älvdalen, Sverige]]></description>
        <Point><coordinates>14.047741,61.221168,0</coordinates></Point>
        <styleUrl>#icon-22</styleUrl>
      </Placemark>
      <Placemark>
        <name><![CDATA[Din-X Äppelbo]]></name>
        <description><![CDATA[Din-X Äppelbo, Äppelbo, Sverige]]></description>
        <Point><coordinates>14.072553,60.477138,0</coordinates></Point>
        <styleUrl>#icon-22</styleUrl>
      </Placemark>
      <Placemark>
        <name><![CDATA[Din-X Habo]]></name>
        <description><![CDATA[Din-X Habo, Habo, Sverige]]></description>
        <Point><coordinates>14.083819,57.920303,0</coordinates></Point>
        <styleUrl>#icon-22</styleUrl>
      </Placemark>
      <Placemark>
        <name><![CDATA[Din-X Färlöv]]></name>
        <description><![CDATA[Din-X Färlöv, Färlöv, Sverige]]></description>
        <Point><coordinates>14.084075,56.073481,0</coordinates></Point>
        <styleUrl>#icon-22</styleUrl>
      </Placemark>
      <Placemark>
        <name><![CDATA[Din-X Degeberga]]></name>
        <description><![CDATA[Din-X Degeberga, Degeberga, Sverige]]></description>
        <Point><coordinates>14.094659,55.834639,0</coordinates></Point>
        <styleUrl>#icon-22</styleUrl>
      </Placemark>
      <Placemark>
        <name><![CDATA[Din-X Vaggeryd]]></name>
        <description><![CDATA[Din-X Vaggeryd, Vaggeryd, Sverige]]></description>
        <Point><coordinates>14.13632,57.496857,0</coordinates></Point>
        <styleUrl>#icon-22</styleUrl>
      </Placemark>
      <Placemark>
        <name><![CDATA[Din-X Agunnaryd]]></name>
        <description><![CDATA[Din-X Agunnaryd, Agunnaryd, Sverige]]></description>
        <Point><coordinates>14.147455,56.747541,0</coordinates></Point>
        <styleUrl>#icon-22</styleUrl>
      </Placemark>
      <Placemark>
        <name><![CDATA[Din-X Kristianstad Åsum]]></name>
        <description><![CDATA[Din-X Kristianstad Åsum, Kristianstad, Sverige]]></description>
        <Point><coordinates>14.150408,55.998701,0</coordinates></Point>
        <styleUrl>#icon-22</styleUrl>
      </Placemark>
      <Placemark>
        <name><![CDATA[Din-X Älmhult]]></name>
        <description><![CDATA[Din-X Älmhult, Älmhult, Sverige]]></description>
        <Point><coordinates>14.17,56.56,0</coordinates></Point>
        <styleUrl>#icon-22</styleUrl>
      </Placemark>
      <Placemark>
        <name><![CDATA[Din-X Borrby]]></name>
        <description><![CDATA[Din-X Borrby, Borrby, Sverige]]></description>
        <Point><coordinates>14.177956,55.452168,0</coordinates></Point>
        <styleUrl>#icon-22</styleUrl>
      </Placemark>
      <Placemark>
        <name><![CDATA[Din-X Kristianstad]]></name>
        <description><![CDATA[Din-X Kristianstad, Kristianstad, Sverige]]></description>
        <Point><coordinates>14.183821,56.029508,0</coordinates></Point>
        <styleUrl>#icon-22</styleUrl>
      </Placemark>
      <Placemark>
        <name><![CDATA[Din-X Kivik]]></name>
        <description><![CDATA[Din-X Kivik, Kivik, Sverige]]></description>
        <Point><coordinates>14.217634,55.681836,0</coordinates></Point>
        <styleUrl>#icon-22</styleUrl>
      </Placemark>
      <Placemark>
        <name><![CDATA[Din-X Simrishamn]]></name>
        <description><![CDATA[Din-X Simrishamn, Simrishamn, Sverige]]></description>
        <Point><coordinates>14.338376,55.555148,0</coordinates></Point>
        <styleUrl>#icon-22</styleUrl>
      </Placemark>
      <Placemark>
        <name><![CDATA[Din-X Åtorp]]></name>
        <description><![CDATA[Din-X Åtorp, Åtorp, Sverige]]></description>
        <Point><coordinates>14.368957,59.12062,0</coordinates></Point>
        <styleUrl>#icon-22</styleUrl>
      </Placemark>
      <Placemark>
        <name><![CDATA[Din-X Fredriksberg]]></name>
        <description><![CDATA[Din-X Fredriksberg, Fredriksberg, Sverige]]></description>
        <Point><coordinates>14.373944,60.141058,0</coordinates></Point>
        <styleUrl>#icon-22</styleUrl>
      </Placemark>
      <Placemark>
        <name><![CDATA[Din-X Villands Vånga]]></name>
        <description><![CDATA[Din-X Villands Vånga, Villands Vånga, Sverige]]></description>
        <Point><coordinates>14.374614,56.179243,0</coordinates></Point>
        <styleUrl>#icon-22</styleUrl>
      </Placemark>
      <Placemark>
        <name><![CDATA[Din-X Dala Järna]]></name>
        <description><![CDATA[Din-X Dala Järna, Dala Järna, Sverige]]></description>
        <Point><coordinates>14.386798,60.540863,0</coordinates></Point>
        <styleUrl>#icon-22</styleUrl>
      </Placemark>
      <Placemark>
        <name><![CDATA[Din-X Bromölla]]></name>
        <description><![CDATA[Din-X Bromölla, Bromölla, Sverige]]></description>
        <Point><coordinates>14.469428,56.064635,0</coordinates></Point>
        <styleUrl>#icon-22</styleUrl>
      </Placemark>
      <Placemark>
        <name><![CDATA[Din-X Forserum]]></name>
        <description><![CDATA[Din-X Forserum, Forserum, Sverige]]></description>
        <Point><coordinates>14.478605,57.698701,0</coordinates></Point>
        <styleUrl>#icon-22</styleUrl>
      </Placemark>
      <Placemark>
        <name><![CDATA[Din-X Grimslöv]]></name>
        <description><![CDATA[Din-X Grimslöv, Grimslöv, Sverige]]></description>
        <Point><coordinates>14.541983,56.737546,0</coordinates></Point>
        <styleUrl>#icon-22</styleUrl>
      </Placemark>
      <Placemark>
        <name><![CDATA[Din-X Moheda]]></name>
        <description><![CDATA[Din-X Moheda, Moheda, Sverige]]></description>
        <Point><coordinates>14.572156,57.001189,0</coordinates></Point>
        <styleUrl>#icon-22</styleUrl>
      </Placemark>
      <Placemark>
        <name><![CDATA[Din-X Stockaryd]]></name>
        <description><![CDATA[Din-X Stockaryd, Stockaryd, Sverige]]></description>
        <Point><coordinates>14.593023,57.313481,0</coordinates></Point>
        <styleUrl>#icon-22</styleUrl>
      </Placemark>
      <Placemark>
        <name><![CDATA[Din-X Orsa]]></name>
        <description><![CDATA[Din-X Orsa, Orsa, Sverige]]></description>
        <Point><coordinates>14.627736,61.115381,0</coordinates></Point>
        <styleUrl>#icon-22</styleUrl>
      </Placemark>
      <Placemark>
        <name><![CDATA[Din-X Björbo]]></name>
        <description><![CDATA[Din-X Björbo, Björbo, Sverige]]></description>
        <Point><coordinates>14.681525,60.46639,0</coordinates></Point>
        <styleUrl>#icon-22</styleUrl>
      </Placemark>
      <Placemark>
        <name><![CDATA[Din-X Bodafors]]></name>
        <description><![CDATA[Din-X Bodafors, Bodafors, Sverige]]></description>
        <Point><coordinates>14.706564,57.504402,0</coordinates></Point>
        <styleUrl>#icon-22</styleUrl>
      </Placemark>
      <Placemark>
        <name><![CDATA[Din-X Mörrum]]></name>
        <description><![CDATA[Din-X Mörrum, Mörrum, Sverige]]></description>
        <Point><coordinates>14.74332,56.19131,0</coordinates></Point>
        <styleUrl>#icon-22</styleUrl>
      </Placemark>
      <Placemark>
        <name><![CDATA[Din-X Urshult]]></name>
        <description><![CDATA[Din-X Urshult, Urshult, Sverige]]></description>
        <Point><coordinates>14.819959,56.529776,0</coordinates></Point>
        <styleUrl>#icon-22</styleUrl>
      </Placemark>
      <Placemark>
        <name><![CDATA[Din-X Rottne]]></name>
        <description><![CDATA[Din-X Rottne, Rottne, Sverige]]></description>
        <Point><coordinates>14.887179,57.024091,0</coordinates></Point>
        <styleUrl>#icon-22</styleUrl>
      </Placemark>
      <Placemark>
        <name><![CDATA[Din-X Landsbro]]></name>
        <description><![CDATA[Din-X Landsbro, Landsbro, Sverige]]></description>
        <Point><coordinates>14.918887,57.371286,0</coordinates></Point>
        <styleUrl>#icon-22</styleUrl>
      </Placemark>
      <Placemark>
        <name><![CDATA[Din-X Tingsryd]]></name>
        <description><![CDATA[Din-X Tingsryd, Tingsryd, Sverige]]></description>
        <Point><coordinates>14.986423,56.518292,0</coordinates></Point>
        <styleUrl>#icon-22</styleUrl>
      </Placemark>
      <Placemark>
        <name><![CDATA[Din-X Hallsberg Östansjö]]></name>
        <description><![CDATA[Din-X Hallsberg Östansjö, Hallsberg, Sverige]]></description>
        <Point><coordinates>14.989706,59.047389,0</coordinates></Point>
        <styleUrl>#icon-22</styleUrl>
      </Placemark>
      <Placemark>
        <name><![CDATA[Din-X Kopparberg]]></name>
        <description><![CDATA[Din-X Kopparberg, Kopparberg, Sverige]]></description>
        <Point><coordinates>15.000351,59.874121,0</coordinates></Point>
        <styleUrl>#icon-22</styleUrl>
      </Placemark>
      <Placemark>
        <name><![CDATA[Din-X Rönneshytta]]></name>
        <description><![CDATA[Din-X Rönneshytta, Rönneshytta, Sverige]]></description>
        <Point><coordinates>15.041222,58.92277,0</coordinates></Point>
        <styleUrl>#icon-22</styleUrl>
      </Placemark>
      <Placemark>
        <name><![CDATA[Din-X Hovmantorp]]></name>
        <description><![CDATA[Din-X Hovmantorp, Hovmantorp, Sverige]]></description>
        <Point><coordinates>15.153292,56.785882,0</coordinates></Point>
        <styleUrl>#icon-22</styleUrl>
      </Placemark>
      <Placemark>
        <name><![CDATA[Din-X Örebro]]></name>
        <description><![CDATA[Din-X Örebro, Örebro, Sverige]]></description>
        <Point><coordinates>15.238507,59.242938,0</coordinates></Point>
        <styleUrl>#icon-22</styleUrl>
      </Placemark>
      <Placemark>
        <name><![CDATA[Din-X Kårböle]]></name>
        <description><![CDATA[Din-X Kårböle, Kårböle, Sverige]]></description>
        <Point><coordinates>15.301626,61.986807,0</coordinates></Point>
        <styleUrl>#icon-22</styleUrl>
      </Placemark>
      <Placemark>
        <name><![CDATA[Din-X Sågmyra]]></name>
        <description><![CDATA[Din-X Sågmyra, Sågmyra, Sverige]]></description>
        <Point><coordinates>15.317753,60.713069,0</coordinates></Point>
        <styleUrl>#icon-22</styleUrl>
      </Placemark>
      <Placemark>
        <name><![CDATA[Din-X Åseda]]></name>
        <description><![CDATA[Din-X Åseda, Åseda, Sverige]]></description>
        <Point><coordinates>15.343452,57.165886,0</coordinates></Point>
        <styleUrl>#icon-22</styleUrl>
      </Placemark>
      <Placemark>
        <name><![CDATA[Din-X Kosta]]></name>
        <description><![CDATA[Din-X Kosta, Kosta, Sverige]]></description>
        <Point><coordinates>15.390326,56.84569,0</coordinates></Point>
        <styleUrl>#icon-22</styleUrl>
      </Placemark>
      <Placemark>
        <name><![CDATA[Din-X Smedjebacken]]></name>
        <description><![CDATA[Din-X Smedjebacken, Smedjebacken, Sverige]]></description>
        <Point><coordinates>15.400559,60.133442,0</coordinates></Point>
        <styleUrl>#icon-22</styleUrl>
      </Placemark>
      <Placemark>
        <name><![CDATA[Din-X Hasslö]]></name>
        <description><![CDATA[Din-X Hasslö, Hasslö, Sverige]]></description>
        <Point><coordinates>15.468384,56.112594,0</coordinates></Point>
        <styleUrl>#icon-22</styleUrl>
      </Placemark>
      <Placemark>
        <name><![CDATA[Din-X Eriksmåla]]></name>
        <description><![CDATA[Din-X Eriksmåla, Eriksmåla, Sverige]]></description>
        <Point><coordinates>15.480718,56.7342,0</coordinates></Point>
        <styleUrl>#icon-22</styleUrl>
      </Placemark>
      <Placemark>
        <name><![CDATA[Din-X Stora Mellösa]]></name>
        <description><![CDATA[Din-X Stora Mellösa, Stora Mellösa, Sverige]]></description>
        <Point><coordinates>15.500172,59.208786,0</coordinates></Point>
        <styleUrl>#icon-22</styleUrl>
      </Placemark>
      <Placemark>
        <name><![CDATA[Din-X Broakulla]]></name>
        <description><![CDATA[Din-X Broakulla, Broakulla, Sverige]]></description>
        <Point><coordinates>15.530947,56.693461,0</coordinates></Point>
        <styleUrl>#icon-22</styleUrl>
      </Placemark>
      <Placemark>
        <name><![CDATA[Din-X Fridlevstad]]></name>
        <description><![CDATA[Din-X Fridlevstad, Fridlevstad, Sverige]]></description>
        <Point><coordinates>15.54232,56.270596,0</coordinates></Point>
        <styleUrl>#icon-22</styleUrl>
      </Placemark>
      <Placemark>
        <name><![CDATA[Din-X Älghult]]></name>
        <description><![CDATA[Din-X Älghult, Älghult, Sverige]]></description>
        <Point><coordinates>15.572556,57.009595,0</coordinates></Point>
        <styleUrl>#icon-22</styleUrl>
      </Placemark>
      <Placemark>
        <name><![CDATA[Din-X Hällestad]]></name>
        <description><![CDATA[Din-X Hällestad, Hällestad, Sverige]]></description>
        <Point><coordinates>15.572827,58.744746,0</coordinates></Point>
        <styleUrl>#icon-22</styleUrl>
      </Placemark>
      <Placemark>
        <name><![CDATA[Din-X Gustafs]]></name>
        <description><![CDATA[Din-X Gustafs, Gustafs, Sverige]]></description>
        <Point><coordinates>15.592544,60.41294,0</coordinates></Point>
        <styleUrl>#icon-22</styleUrl>
      </Placemark>
      <Placemark>
        <name><![CDATA[Din-X Fellingsbro]]></name>
        <description><![CDATA[Din-X Fellingsbro, Fellingsbro, Sverige]]></description>
        <Point><coordinates>15.596175,59.430874,0</coordinates></Point>
        <styleUrl>#icon-22</styleUrl>
      </Placemark>
      <Placemark>
        <name><![CDATA[Din-X Silverdalen Högsjö]]></name>
        <description><![CDATA[Din-X Silverdalen Högsjö, Silverdalen, Sverige]]></description>
        <Point><coordinates>15.669478,59.028119,0</coordinates></Point>
        <styleUrl>#icon-22</styleUrl>
      </Placemark>
      <Placemark>
        <name><![CDATA[Din-X Silverdalen]]></name>
        <description><![CDATA[Din-X Silverdalen, Silverdalen, Sverige]]></description>
        <Point><coordinates>15.757924,57.539797,0</coordinates></Point>
        <styleUrl>#icon-22</styleUrl>
      </Placemark>
      <Placemark>
        <name><![CDATA[Din-X Möcklö]]></name>
        <description><![CDATA[Din-X Möcklö, Möcklö, Sverige]]></description>
        <Point><coordinates>15.759685,56.150372,0</coordinates></Point>
        <styleUrl>#icon-22</styleUrl>
      </Placemark>
      <Placemark>
        <name><![CDATA[Din-X Säter]]></name>
        <description><![CDATA[Din-X Säter, Säter, Sverige]]></description>
        <Point><coordinates>15.762785,60.343464,0</coordinates></Point>
        <styleUrl>#icon-22</styleUrl>
      </Placemark>
      <Placemark>
        <name><![CDATA[Din-X Södra Vi]]></name>
        <description><![CDATA[Din-X Södra Vi, Södra Vi, Sverige]]></description>
        <Point><coordinates>15.786892,57.733451,0</coordinates></Point>
        <styleUrl>#icon-22</styleUrl>
      </Placemark>
      <Placemark>
        <name><![CDATA[Din-X Linghem]]></name>
        <description><![CDATA[Din-X Linghem, Linghem, Sverige]]></description>
        <Point><coordinates>15.803143,58.43991,0</coordinates></Point>
        <styleUrl>#icon-22</styleUrl>
      </Placemark>
      <Placemark>
        <name><![CDATA[Din-X Färila]]></name>
        <description><![CDATA[Din-X Färila, Färila, Sverige]]></description>
        <Point><coordinates>15.845122,61.801606,0</coordinates></Point>
        <styleUrl>#icon-22</styleUrl>
      </Placemark>
      <Placemark>
        <name><![CDATA[Din-X Kolsva]]></name>
        <description><![CDATA[Din-X Kolsva, Kolsva, Sverige]]></description>
        <Point><coordinates>15.85212,59.593088,0</coordinates></Point>
        <styleUrl>#icon-22</styleUrl>
      </Placemark>
      <Placemark>
        <name><![CDATA[Din-X Fäggeby]]></name>
        <description><![CDATA[Din-X Fäggeby, Fäggeby, Sverige]]></description>
        <Point><coordinates>15.88904,60.39528,0</coordinates></Point>
        <styleUrl>#icon-22</styleUrl>
      </Placemark>
      <Placemark>
        <name><![CDATA[Din-X Svärdsjö]]></name>
        <description><![CDATA[Din-X Svärdsjö, Svärdsjö, Sverige]]></description>
        <Point><coordinates>15.894654,60.735538,0</coordinates></Point>
        <styleUrl>#icon-22</styleUrl>
      </Placemark>
      <Placemark>
        <name><![CDATA[Din-X Björkfors]]></name>
        <description><![CDATA[Din-X Björkfors, Björkfors, Sverige]]></description>
        <Point><coordinates>15.905636,58.01983,0</coordinates></Point>
        <styleUrl>#icon-22</styleUrl>
      </Placemark>
      <Placemark>
        <name><![CDATA[Din-X Norberg]]></name>
        <description><![CDATA[Din-X Norberg, Norberg, Sverige]]></description>
        <Point><coordinates>15.928917,60.073958,0</coordinates></Point>
        <styleUrl>#icon-22</styleUrl>
      </Placemark>
      <Placemark>
        <name><![CDATA[Din-X Långshyttan]]></name>
        <description><![CDATA[Din-X Långshyttan, Långshyttan, Sverige]]></description>
        <Point><coordinates>16.029494,60.446986,0</coordinates></Point>
        <styleUrl>#icon-22</styleUrl>
      </Placemark>
      <Placemark>
        <name><![CDATA[Din-X Bergkvara]]></name>
        <description><![CDATA[Din-X Bergkvara, Bergkvara, Sverige]]></description>
        <Point><coordinates>16.068983,56.400895,0</coordinates></Point>
        <styleUrl>#icon-22</styleUrl>
      </Placemark>
      <Placemark>
        <name><![CDATA[Din-X Katrineholm Strångsjö]]></name>
        <description><![CDATA[Din-X Katrineholm Strångsjö, Katrineholm, Sverige]]></description>
        <Point><coordinates>16.181444,58.988237,0</coordinates></Point>
        <styleUrl>#icon-22</styleUrl>
      </Placemark>
      <Placemark>
        <name><![CDATA[Din-X Ramnäs]]></name>
        <description><![CDATA[Din-X Ramnäs, Ramnäs, Sverige]]></description>
        <Point><coordinates>16.193635,59.775094,0</coordinates></Point>
        <styleUrl>#icon-22</styleUrl>
      </Placemark>
      <Placemark>
        <name><![CDATA[Din-X Krylbo]]></name>
        <description><![CDATA[Din-X Krylbo, Krylbo, Sverige]]></description>
        <Point><coordinates>16.213115,60.133349,0</coordinates></Point>
        <styleUrl>#icon-22</styleUrl>
      </Placemark>
      <Placemark>
        <name><![CDATA[Din-X Katrineholm]]></name>
        <description><![CDATA[Din-X Katrineholm, Katrineholm, Sverige]]></description>
        <Point><coordinates>16.237009,59.007417,0</coordinates></Point>
        <styleUrl>#icon-22</styleUrl>
      </Placemark>
      <Placemark>
        <name><![CDATA[Din-X Fliseryd]]></name>
        <description><![CDATA[Din-X Fliseryd, Fliseryd, Sverige]]></description>
        <Point><coordinates>16.264993,57.127809,0</coordinates></Point>
        <styleUrl>#icon-22</styleUrl>
      </Placemark>
      <Placemark>
        <name><![CDATA[Din-X Läckeby]]></name>
        <description><![CDATA[Din-X Läckeby, Läckeby, Sverige]]></description>
        <Point><coordinates>16.305054,56.761813,0</coordinates></Point>
        <styleUrl>#icon-22</styleUrl>
      </Placemark>
      <Placemark>
        <name><![CDATA[Din-X Läckeby Gas]]></name>
        <description><![CDATA[Din-X Läckeby Gas, Läckeby, Sverige]]></description>
        <Point><coordinates>16.305675,56.761086,0</coordinates></Point>
        <styleUrl>#icon-22</styleUrl>
      </Placemark>
      <Placemark>
        <name><![CDATA[Din-X Älmeboda Rävemåla]]></name>
        <description><![CDATA[Din-X Älmeboda Rävemåla, Älmeboda, Sverige]]></description>
        <Point><coordinates>16.329313,57.710563,0</coordinates></Point>
        <styleUrl>#icon-22</styleUrl>
      </Placemark>
      <Placemark>
        <name><![CDATA[Din-X Ankarsrum]]></name>
        <description><![CDATA[Din-X Ankarsrum, Ankarsrum, Sverige]]></description>
        <Point><coordinates>16.329628,57.710227,0</coordinates></Point>
        <styleUrl>#icon-22</styleUrl>
      </Placemark>
      <Placemark>
        <name><![CDATA[Din-X Skultuna]]></name>
        <description><![CDATA[Din-X Skultuna, Skultuna, Sverige]]></description>
        <Point><coordinates>16.430719,59.71371,0</coordinates></Point>
        <styleUrl>#icon-22</styleUrl>
      </Placemark>
      <Placemark>
        <name><![CDATA[Din-X Blankaholm]]></name>
        <description><![CDATA[Din-X Blankaholm, Blankaholm, Sverige]]></description>
        <Point><coordinates>16.50677,57.573927,0</coordinates></Point>
        <styleUrl>#icon-22</styleUrl>
      </Placemark>
      <Placemark>
        <name><![CDATA[Din-X Lingbo]]></name>
        <description><![CDATA[Din-X Lingbo, Lingbo, Sverige]]></description>
        <Point><coordinates>16.694992,60.993033,0</coordinates></Point>
        <styleUrl>#icon-22</styleUrl>
      </Placemark>
      <Placemark>
        <name><![CDATA[Din-X Loftahammar]]></name>
        <description><![CDATA[Din-X Loftahammar, Loftahammar, Sverige]]></description>
        <Point><coordinates>16.695103,57.906072,0</coordinates></Point>
        <styleUrl>#icon-22</styleUrl>
      </Placemark>
      <Placemark>
        <name><![CDATA[Din-X Vrena]]></name>
        <description><![CDATA[Din-X Vrena, Vrena, Sverige]]></description>
        <Point><coordinates>16.69583,58.862743,0</coordinates></Point>
        <styleUrl>#icon-22</styleUrl>
      </Placemark>
      <Placemark>
        <name><![CDATA[Din-X Österfärnebo]]></name>
        <description><![CDATA[Din-X Österfärnebo, Österfärnebo, Sverige]]></description>
        <Point><coordinates>16.797502,60.309758,0</coordinates></Point>
        <styleUrl>#icon-22</styleUrl>
      </Placemark>
      <Placemark>
        <name><![CDATA[Din-X Heby]]></name>
        <description><![CDATA[Din-X Heby, Heby, Sverige]]></description>
        <Point><coordinates>16.8574,59.935036,0</coordinates></Point>
        <styleUrl>#icon-22</styleUrl>
      </Placemark>
      <Placemark>
        <name><![CDATA[Din-X Löttorp]]></name>
        <description><![CDATA[Din-X Löttorp, Löttorp, Sverige]]></description>
        <Point><coordinates>17.01159,57.161111,0</coordinates></Point>
        <styleUrl>#icon-22</styleUrl>
      </Placemark>
      <Placemark>
        <name><![CDATA[Din-X Hedesunda]]></name>
        <description><![CDATA[Din-X Hedesunda, Hedesunda, Sverige]]></description>
        <Point><coordinates>17.013426,60.383758,0</coordinates></Point>
        <styleUrl>#icon-22</styleUrl>
      </Placemark>
      <Placemark>
        <name><![CDATA[Din-X Mariefred Läggesta]]></name>
        <description><![CDATA[Din-X Mariefred Läggesta, Mariefred, Sverige]]></description>
        <Point><coordinates>17.174506,59.251293,0</coordinates></Point>
        <styleUrl>#icon-22</styleUrl>
      </Placemark>
      <Placemark>
        <name><![CDATA[Din-X Järlåsa]]></name>
        <description><![CDATA[Din-X Järlåsa, Järlåsa, Sverige]]></description>
        <Point><coordinates>17.196971,59.886237,0</coordinates></Point>
        <styleUrl>#icon-22</styleUrl>
      </Placemark>
      <Placemark>
        <name><![CDATA[Din-X Stallarholmen]]></name>
        <description><![CDATA[Din-X Stallarholmen, Stallarholmen, Sverige]]></description>
        <Point><coordinates>17.204819,59.364426,0</coordinates></Point>
        <styleUrl>#icon-22</styleUrl>
      </Placemark>
      <Placemark>
        <name><![CDATA[Din-X Söderfors]]></name>
        <description><![CDATA[Din-X Söderfors, Söderfors, Sverige]]></description>
        <Point><coordinates>17.248726,60.384424,0</coordinates></Point>
        <styleUrl>#icon-22</styleUrl>
      </Placemark>
      <Placemark>
        <name><![CDATA[Din-X Gnesta]]></name>
        <description><![CDATA[Din-X Gnesta, Gnesta, Sverige]]></description>
        <Point><coordinates>17.32651,59.039943,0</coordinates></Point>
        <styleUrl>#icon-22</styleUrl>
      </Placemark>
      <Placemark>
        <name><![CDATA[Din-X Tierp]]></name>
        <description><![CDATA[Din-X Tierp, Tierp, Sverige]]></description>
        <Point><coordinates>17.522744,60.349922,0</coordinates></Point>
        <styleUrl>#icon-22</styleUrl>
      </Placemark>
      <Placemark>
        <name><![CDATA[Din-X Björklinge]]></name>
        <description><![CDATA[Din-X Björklinge, Björklinge, Sverige]]></description>
        <Point><coordinates>17.551379,60.036084,0</coordinates></Point>
        <styleUrl>#icon-22</styleUrl>
      </Placemark>
      <Placemark>
        <name><![CDATA[Din-X Bro]]></name>
        <description><![CDATA[Din-X Bro, Bro, Sverige]]></description>
        <Point><coordinates>17.626492,59.516207,0</coordinates></Point>
        <styleUrl>#icon-22</styleUrl>
      </Placemark>
      <Placemark>
        <name><![CDATA[Din-X Ekerö]]></name>
        <description><![CDATA[Din-X Ekerö, Ekerö, Sverige]]></description>
        <Point><coordinates>17.78561,59.27654,0</coordinates></Point>
        <styleUrl>#icon-22</styleUrl>
      </Placemark>
      <Placemark>
        <name><![CDATA[Din-X Upplands Väsby]]></name>
        <description><![CDATA[Din-X Upplands Väsby, Upplands Väsby, Sverige]]></description>
        <Point><coordinates>17.888168,59.516974,0</coordinates></Point>
        <styleUrl>#icon-22</styleUrl>
      </Placemark>
      <Placemark>
        <name><![CDATA[Din-X Ösmo]]></name>
        <description><![CDATA[Din-X Ösmo, Ösmo, Sverige]]></description>
        <Point><coordinates>17.896827,58.98221,0</coordinates></Point>
        <styleUrl>#icon-22</styleUrl>
      </Placemark>
      <Placemark>
        <name><![CDATA[Din-X Alunda]]></name>
        <description><![CDATA[Din-X Alunda, Alunda, Sverige]]></description>
        <Point><coordinates>18.078655,60.062205,0</coordinates></Point>
        <styleUrl>#icon-22</styleUrl>
      </Placemark>
      <Placemark>
        <name><![CDATA[Din-X Lunda]]></name>
        <description><![CDATA[Din-X Lunda, Lunda, Sverige]]></description>
        <Point><coordinates>18.080978,59.682493,0</coordinates></Point>
        <styleUrl>#icon-22</styleUrl>
      </Placemark>
      <Placemark>
        <name><![CDATA[Din-X Almunge]]></name>
        <description><![CDATA[Din-X Almunge, Almunge, Sverige]]></description>
        <Point><coordinates>18.085075,59.89018,0</coordinates></Point>
        <styleUrl>#icon-22</styleUrl>
      </Placemark>
      <Placemark>
        <name><![CDATA[Din-X Åkersberga Svinninge]]></name>
        <description><![CDATA[Din-X Åkersberga Svinninge, Åkersberga, Sverige]]></description>
        <Point><coordinates>18.262792,59.44546,0</coordinates></Point>
        <styleUrl>#icon-22</styleUrl>
      </Placemark>
      <Placemark>
        <name><![CDATA[Din-X Åkersberga Margretelunds Centrum]]></name>
        <description><![CDATA[Din-X Åkersberga Margretelunds Centrum, Åkersberga, Sverige]]></description>
        <Point><coordinates>18.331633,59.471986,0</coordinates></Point>
        <styleUrl>#icon-22</styleUrl>
      </Placemark>
      <Placemark>
        <name><![CDATA[Din-X Edsbro]]></name>
        <description><![CDATA[Din-X Edsbro, Edsbro, Sverige]]></description>
        <Point><coordinates>18.510753,59.898329,0</coordinates></Point>
        <styleUrl>#icon-22</styleUrl>
      </Placemark>
      <Placemark>
        <name><![CDATA[Din-X Ljusterö]]></name>
        <description><![CDATA[Din-X Ljusterö, Ljusterö, Sverige]]></description>
        <Point><coordinates>18.590903,59.541852,0</coordinates></Point>
        <styleUrl>#icon-22</styleUrl>
      </Placemark>
      <Placemark>
        <name><![CDATA[Din-X Björna]]></name>
        <description><![CDATA[Din-X Björna, Björna, Sverige]]></description>
        <Point><coordinates>18.59872,63.549936,0</coordinates></Point>
        <styleUrl>#icon-22</styleUrl>
      </Placemark>
      <Placemark>
        <name><![CDATA[Din-X Norrtälje Vreta]]></name>
        <description><![CDATA[Din-X Norrtälje Vreta, Norrtälje, Sverige]]></description>
        <Point><coordinates>18.790801,59.733334,0</coordinates></Point>
        <styleUrl>#icon-22</styleUrl>
      </Placemark>
      <Placemark>
        <name><![CDATA[Din-X Bodbyn]]></name>
        <description><![CDATA[Din-X Bodbyn, Bodbyn, Sverige]]></description>
        <Point><coordinates>20.392734,64.004337,0</coordinates></Point>
        <styleUrl>#icon-22</styleUrl>
      </Placemark>
    </Folder>
  </Document>
</kml>