<?xml version="1.0" encoding="UTF-8"?>
<kml xmlns="http://www.opengis.net/kml/2.2">
  <Document>
    <name><![CDATA[Dressmann]]></name>
    <description/>
    <Style id="icon-22-normal"><IconStyle><scale>1.1</scale><Icon><href>https://www.gstatic.com/mapspro/images/stock/22-blue-dot.png</href></Icon><hotSpot x="16" xunits="pixels" y="32" yunits="insetPixels"/></IconStyle><LabelStyle><scale>0</scale></LabelStyle></Style>
    <Style id="icon-22-highlight"><IconStyle><scale>1.1</scale><Icon><href>https://www.gstatic.com/mapspro/images/stock/22-blue-dot.png</href></Icon><hotSpot x="16" xunits="pixels" y="32" yunits="insetPixels"/></IconStyle><LabelStyle><scale>1.1</scale></LabelStyle></Style>
    <StyleMap id="icon-22"><Pair><key>normal</key><styleUrl>#icon-22-normal</styleUrl></Pair><Pair><key>highlight</key><styleUrl>#icon-22-highlight</styleUrl></Pair></StyleMap>
    <Folder>
      <name><![CDATA[Dressmann]]></name>
      <Placemark>
        <name><![CDATA[Dressmann Strömstad]]></name>
        <description><![CDATA[Dressmann Strömstad, Strömstad, Sverige]]></description>
        <Point><coordinates>11.179187,58.938346,0</coordinates></Point>
        <styleUrl>#icon-22</styleUrl>
      </Placemark>
      <Placemark>
        <name><![CDATA[Strömstad Galleria]]></name>
        <description><![CDATA[Strömstad Galleria, Strömstad, Sverige]]></description>
        <Point><coordinates>11.188439,58.946249,0</coordinates></Point>
        <styleUrl>#icon-22</styleUrl>
      </Placemark>
      <Placemark>
        <name><![CDATA[Dressmann Tanum]]></name>
        <description><![CDATA[Dressmann Tanum, Tanum, Sverige]]></description>
        <Point><coordinates>11.346729,58.721162,0</coordinates></Point>
        <styleUrl>#icon-22</styleUrl>
      </Placemark>
      <Placemark>
        <name><![CDATA[Dressmann Uddevalla Torp]]></name>
        <description><![CDATA[Dressmann Uddevalla Torp, Uddevalla, Sverige]]></description>
        <Point><coordinates>11.81209,58.354338,0</coordinates></Point>
        <styleUrl>#icon-22</styleUrl>
      </Placemark>
      <Placemark>
        <name><![CDATA[Dressmann XL Uddevalla Torp]]></name>
        <description><![CDATA[Dressmann XL Uddevalla Torp, Uddevalla, Sverige]]></description>
        <Point><coordinates>11.812149,58.354347,0</coordinates></Point>
        <styleUrl>#icon-22</styleUrl>
      </Placemark>
      <Placemark>
        <name><![CDATA[Dressmann Stenungsund]]></name>
        <description><![CDATA[Dressmann Stenungsund, Stenungsund, Sverige]]></description>
        <Point><coordinates>11.819887,58.06879,0</coordinates></Point>
        <styleUrl>#icon-22</styleUrl>
      </Placemark>
      <Placemark>
        <name><![CDATA[Dressmann Töcksfors]]></name>
        <description><![CDATA[Dressmann Töcksfors, Töcksfors, Sverige]]></description>
        <Point><coordinates>11.843057,59.506639,0</coordinates></Point>
        <styleUrl>#icon-22</styleUrl>
      </Placemark>
      <Placemark>
        <name><![CDATA[Dressmann V Frölunda]]></name>
        <description><![CDATA[Dressmann V Frölunda, Göteborg, Sverige]]></description>
        <Point><coordinates>11.911018,57.650835,0</coordinates></Point>
        <styleUrl>#icon-22</styleUrl>
      </Placemark>
      <Placemark>
        <name><![CDATA[Dressmann Uddevalla]]></name>
        <description><![CDATA[Dressmann Uddevalla, Uddevalla, Sverige]]></description>
        <Point><coordinates>11.932504,58.34965,0</coordinates></Point>
        <styleUrl>#icon-22</styleUrl>
      </Placemark>
      <Placemark>
        <name><![CDATA[Dressmann Högsbo 421]]></name>
        <description><![CDATA[Dressmann Högsbo 421, Västra Frölunda, Sverige]]></description>
        <Point><coordinates>11.945746,57.650491,0</coordinates></Point>
        <styleUrl>#icon-22</styleUrl>
      </Placemark>
      <Placemark>
        <name><![CDATA[Dressmann XL Backaplan]]></name>
        <description><![CDATA[Dressmann XL Backaplan, Göteborg, Sverige]]></description>
        <Point><coordinates>11.9518,57.72137,0</coordinates></Point>
        <styleUrl>#icon-22</styleUrl>
      </Placemark>
      <Placemark>
        <name><![CDATA[Dressmann Backaplan]]></name>
        <description><![CDATA[Dressmann Backaplan, Göteborg, Sverige]]></description>
        <Point><coordinates>11.95217,57.721397,0</coordinates></Point>
        <styleUrl>#icon-22</styleUrl>
      </Placemark>
      <Placemark>
        <name><![CDATA[Dressmann Kungsgatan Göteborg]]></name>
        <description><![CDATA[Dressmann Kungsgatan Göteborg, Göteborg, Sverige]]></description>
        <Point><coordinates>11.966774,57.704539,0</coordinates></Point>
        <styleUrl>#icon-22</styleUrl>
      </Placemark>
      <Placemark>
        <name><![CDATA[Dressmann Kungälv Konghälla]]></name>
        <description><![CDATA[Dressmann Kungälv Konghälla, Kungälv, Sverige]]></description>
        <Point><coordinates>11.967847,57.874137,0</coordinates></Point>
        <styleUrl>#icon-22</styleUrl>
      </Placemark>
      <Placemark>
        <name><![CDATA[Dressmann Nordstan]]></name>
        <description><![CDATA[Dressmann Nordstan, Göteborg, Sverige]]></description>
        <Point><coordinates>11.96909,57.708802,0</coordinates></Point>
        <styleUrl>#icon-22</styleUrl>
      </Placemark>
      <Placemark>
        <name><![CDATA[Dressmann Femman]]></name>
        <description><![CDATA[Dressmann Femman, Göteborg, Sverige]]></description>
        <Point><coordinates>11.970273,57.708574,0</coordinates></Point>
        <styleUrl>#icon-22</styleUrl>
      </Placemark>
      <Placemark>
        <name><![CDATA[Dressmann Mölndal]]></name>
        <description><![CDATA[Dressmann Mölndal, Mölndal, Sverige]]></description>
        <Point><coordinates>12.014575,57.653945,0</coordinates></Point>
        <styleUrl>#icon-22</styleUrl>
      </Placemark>
      <Placemark>
        <name><![CDATA[Dressmann Nödinge]]></name>
        <description><![CDATA[Dressmann Nödinge, Nödinge, Sverige]]></description>
        <Point><coordinates>12.045495,57.892051,0</coordinates></Point>
        <styleUrl>#icon-22</styleUrl>
      </Placemark>
      <Placemark>
        <name><![CDATA[Dressmann Kungsbacka]]></name>
        <description><![CDATA[Dressmann Kungsbacka, Kungsbacka, Sverige]]></description>
        <Point><coordinates>12.075004,57.491423,0</coordinates></Point>
        <styleUrl>#icon-22</styleUrl>
      </Placemark>
      <Placemark>
        <name><![CDATA[Dressmann Partille]]></name>
        <description><![CDATA[Dressmann Partille, Göteborg, Sverige]]></description>
        <Point><coordinates>12.10417,57.739048,0</coordinates></Point>
        <styleUrl>#icon-22</styleUrl>
      </Placemark>
      <Placemark>
        <name><![CDATA[Dressmann Varberg Gallerian]]></name>
        <description><![CDATA[Dressmann Varberg Gallerian, Varberg, Sverige]]></description>
        <Point><coordinates>12.247562,57.106026,0</coordinates></Point>
        <styleUrl>#icon-22</styleUrl>
      </Placemark>
      <Placemark>
        <name><![CDATA[Dressmann Charlottenberg]]></name>
        <description><![CDATA[Dressmann Charlottenberg, Charlottenberg, Sverige]]></description>
        <Point><coordinates>12.288041,59.880653,0</coordinates></Point>
        <styleUrl>#icon-22</styleUrl>
      </Placemark>
      <Placemark>
        <name><![CDATA[Dressmann Trollhättan Överby]]></name>
        <description><![CDATA[Dressmann Trollhättan Överby, Trollhättan, Sverige]]></description>
        <Point><coordinates>12.316667,58.316667,0</coordinates></Point>
        <styleUrl>#icon-22</styleUrl>
      </Placemark>
      <Placemark>
        <name><![CDATA[Dressmann Vänersborg]]></name>
        <description><![CDATA[Dressmann Vänersborg, Vänersborg, Sverige]]></description>
        <Point><coordinates>12.322576,58.379399,0</coordinates></Point>
        <styleUrl>#icon-22</styleUrl>
      </Placemark>
      <Placemark>
        <name><![CDATA[Dressmann Falkenberg]]></name>
        <description><![CDATA[Dressmann Falkenberg, Falkenberg, Sverige]]></description>
        <Point><coordinates>12.490826,56.904383,0</coordinates></Point>
        <styleUrl>#icon-22</styleUrl>
      </Placemark>
      <Placemark>
        <name><![CDATA[Dressmann Alingsås]]></name>
        <description><![CDATA[Dressmann Alingsås, Alingsås, Sverige]]></description>
        <Point><coordinates>12.535962,57.930204,0</coordinates></Point>
        <styleUrl>#icon-22</styleUrl>
      </Placemark>
      <Placemark>
        <name><![CDATA[Dressmann Arvika]]></name>
        <description><![CDATA[Dressmann Arvika, Arvika, Sverige]]></description>
        <Point><coordinates>12.592298,59.654135,0</coordinates></Point>
        <styleUrl>#icon-22</styleUrl>
      </Placemark>
      <Placemark>
        <name><![CDATA[Dressmann Åmål]]></name>
        <description><![CDATA[Dressmann Åmål, Åmål, Sverige]]></description>
        <Point><coordinates>12.705,59.052158,0</coordinates></Point>
        <styleUrl>#icon-22</styleUrl>
      </Placemark>
      <Placemark>
        <name><![CDATA[Dressmann XL Väla]]></name>
        <description><![CDATA[Dressmann XL Väla, Ödåkra, Sverige]]></description>
        <Point><coordinates>12.758976,56.09001,0</coordinates></Point>
        <styleUrl>#icon-22</styleUrl>
      </Placemark>
      <Placemark>
        <name><![CDATA[Dressmann Väla]]></name>
        <description><![CDATA[Dressmann Väla, Ödåkra, Sverige]]></description>
        <Point><coordinates>12.758998,56.089926,0</coordinates></Point>
        <styleUrl>#icon-22</styleUrl>
      </Placemark>
      <Placemark>
        <name><![CDATA[Dressmann Landskrona]]></name>
        <description><![CDATA[Dressmann Landskrona, Landskrona, Sverige]]></description>
        <Point><coordinates>12.833469,55.871288,0</coordinates></Point>
        <styleUrl>#icon-22</styleUrl>
      </Placemark>
      <Placemark>
        <name><![CDATA[Dressmann Halmstad City]]></name>
        <description><![CDATA[Dressmann Halmstad City, Halmstad, Sverige]]></description>
        <Point><coordinates>12.85796,56.674753,0</coordinates></Point>
        <styleUrl>#icon-22</styleUrl>
      </Placemark>
      <Placemark>
        <name><![CDATA[Dressmann Ängelholm]]></name>
        <description><![CDATA[Dressmann Ängelholm, Ängelholm, Sverige]]></description>
        <Point><coordinates>12.862731,56.243777,0</coordinates></Point>
        <styleUrl>#icon-22</styleUrl>
      </Placemark>
      <Placemark>
        <name><![CDATA[Dressmann Halmstad Hallarna]]></name>
        <description><![CDATA[Dressmann Halmstad Hallarna, Halmstad, Sverige]]></description>
        <Point><coordinates>12.918351,56.666044,0</coordinates></Point>
        <styleUrl>#icon-22</styleUrl>
      </Placemark>
      <Placemark>
        <name><![CDATA[Dressmann Borås Knalleland]]></name>
        <description><![CDATA[Dressmann Borås Knalleland, Borås, Sverige]]></description>
        <Point><coordinates>12.938371,57.735241,0</coordinates></Point>
        <styleUrl>#icon-22</styleUrl>
      </Placemark>
      <Placemark>
        <name><![CDATA[Dressmann Borås City]]></name>
        <description><![CDATA[Dressmann Borås City, Borås, Sverige]]></description>
        <Point><coordinates>12.940258,57.721584,0</coordinates></Point>
        <styleUrl>#icon-22</styleUrl>
      </Placemark>
      <Placemark>
        <name><![CDATA[Dressmann Mellbystrand]]></name>
        <description><![CDATA[Dressmann Mellbystrand, Mellbystrand, Sverige]]></description>
        <Point><coordinates>12.9558,56.503842,0</coordinates></Point>
        <styleUrl>#icon-22</styleUrl>
      </Placemark>
      <Placemark>
        <name><![CDATA[Dressmann Emporia]]></name>
        <description><![CDATA[Dressmann Emporia, Malmö, Sverige]]></description>
        <Point><coordinates>12.974654,55.563613,0</coordinates></Point>
        <styleUrl>#icon-22</styleUrl>
      </Placemark>
      <Placemark>
        <name><![CDATA[Dressmann XL Emporia]]></name>
        <description><![CDATA[Dressmann XL Emporia, Malmö, Sverige]]></description>
        <Point><coordinates>12.974953,55.563944,0</coordinates></Point>
        <styleUrl>#icon-22</styleUrl>
      </Placemark>
      <Placemark>
        <name><![CDATA[Dressmann Löddeköpinge]]></name>
        <description><![CDATA[Dressmann Löddeköpinge, Löddeköpinge, Sverige]]></description>
        <Point><coordinates>12.990885,55.768859,0</coordinates></Point>
        <styleUrl>#icon-22</styleUrl>
      </Placemark>
      <Placemark>
        <name><![CDATA[Dressmann Triangeln Köpcentrum]]></name>
        <description><![CDATA[Dressmann Triangeln Köpcentrum, Malmö, Sverige]]></description>
        <Point><coordinates>13.00105,55.595197,0</coordinates></Point>
        <styleUrl>#icon-22</styleUrl>
      </Placemark>
      <Placemark>
        <name><![CDATA[Dressmann Mobilia]]></name>
        <description><![CDATA[Dressmann Mobilia, Malmö, Sverige]]></description>
        <Point><coordinates>13.003528,55.581134,0</coordinates></Point>
        <styleUrl>#icon-22</styleUrl>
      </Placemark>
      <Placemark>
        <name><![CDATA[Dressmann Jägersro]]></name>
        <description><![CDATA[Dressmann Jägersro, Malmö, Sverige]]></description>
        <Point><coordinates>13.057949,55.570175,0</coordinates></Point>
        <styleUrl>#icon-22</styleUrl>
      </Placemark>
      <Placemark>
        <name><![CDATA[Dressmann XL Burlöv]]></name>
        <description><![CDATA[Dressmann XL Burlöv, Arlöv, Sverige]]></description>
        <Point><coordinates>13.083846,55.639528,0</coordinates></Point>
        <styleUrl>#icon-22</styleUrl>
      </Placemark>
      <Placemark>
        <name><![CDATA[Dressmann Burlöv]]></name>
        <description><![CDATA[Dressmann Burlöv, Arlöv, Sverige]]></description>
        <Point><coordinates>13.091008,55.646616,0</coordinates></Point>
        <styleUrl>#icon-22</styleUrl>
      </Placemark>
      <Placemark>
        <name><![CDATA[Dressmann Lidköping]]></name>
        <description><![CDATA[Dressmann Lidköping, Lidköping, Sverige]]></description>
        <Point><coordinates>13.143994,58.508958,0</coordinates></Point>
        <styleUrl>#icon-22</styleUrl>
      </Placemark>
      <Placemark>
        <name><![CDATA[Dressmann Trelleborg]]></name>
        <description><![CDATA[Dressmann Trelleborg, Trelleborg, Sverige]]></description>
        <Point><coordinates>13.156629,55.373532,0</coordinates></Point>
        <styleUrl>#icon-22</styleUrl>
      </Placemark>
      <Placemark>
        <name><![CDATA[Dressmann Nova Lund]]></name>
        <description><![CDATA[Dressmann Nova Lund, Lund, Sverige]]></description>
        <Point><coordinates>13.159958,55.71394,0</coordinates></Point>
        <styleUrl>#icon-22</styleUrl>
      </Placemark>
      <Placemark>
        <name><![CDATA[Dressmann Eslöv]]></name>
        <description><![CDATA[Dressmann Eslöv, Eslöv, Sverige]]></description>
        <Point><coordinates>13.302906,55.839004,0</coordinates></Point>
        <styleUrl>#icon-22</styleUrl>
      </Placemark>
      <Placemark>
        <name><![CDATA[Dressmann Ulricehamn]]></name>
        <description><![CDATA[Dressmann Ulricehamn, Ulricehamn, Sverige]]></description>
        <Point><coordinates>13.412718,57.792225,0</coordinates></Point>
        <styleUrl>#icon-22</styleUrl>
      </Placemark>
      <Placemark>
        <name><![CDATA[Dressmann Bergvik]]></name>
        <description><![CDATA[Dressmann Bergvik, Karlstad, Sverige]]></description>
        <Point><coordinates>13.428643,59.377431,0</coordinates></Point>
        <styleUrl>#icon-22</styleUrl>
      </Placemark>
      <Placemark>
        <name><![CDATA[Dressmann XL Karlstad]]></name>
        <description><![CDATA[Dressmann XL Karlstad, Karlstad, Sverige]]></description>
        <Point><coordinates>13.499483,59.378569,0</coordinates></Point>
        <styleUrl>#icon-22</styleUrl>
      </Placemark>
      <Placemark>
        <name><![CDATA[Dressmann Karlstad City]]></name>
        <description><![CDATA[Dressmann Karlstad City, Karlstad, Sverige]]></description>
        <Point><coordinates>13.501191,59.379377,0</coordinates></Point>
        <styleUrl>#icon-22</styleUrl>
      </Placemark>
      <Placemark>
        <name><![CDATA[Dressmann Gislaved]]></name>
        <description><![CDATA[Dressmann Gislaved, Gislaved, Sverige]]></description>
        <Point><coordinates>13.537492,57.301806,0</coordinates></Point>
        <styleUrl>#icon-22</styleUrl>
      </Placemark>
      <Placemark>
        <name><![CDATA[Dressmann Falköping]]></name>
        <description><![CDATA[Dressmann Falköping, Falköping, Sverige]]></description>
        <Point><coordinates>13.555076,58.160979,0</coordinates></Point>
        <styleUrl>#icon-22</styleUrl>
      </Placemark>
      <Placemark>
        <name><![CDATA[Dressmann Hässleholm]]></name>
        <description><![CDATA[Dressmann Hässleholm, Hässleholm, Sverige]]></description>
        <Point><coordinates>13.76621,56.158522,0</coordinates></Point>
        <styleUrl>#icon-22</styleUrl>
      </Placemark>
      <Placemark>
        <name><![CDATA[Dressmann Mariestad]]></name>
        <description><![CDATA[Dressmann Mariestad, Mariestad, Sverige]]></description>
        <Point><coordinates>13.823488,58.709874,0</coordinates></Point>
        <styleUrl>#icon-22</styleUrl>
      </Placemark>
      <Placemark>
        <name><![CDATA[Dressmann Ystad]]></name>
        <description><![CDATA[Dressmann Ystad, Ystad, Sverige]]></description>
        <Point><coordinates>13.82398,55.430394,0</coordinates></Point>
        <styleUrl>#icon-22</styleUrl>
      </Placemark>
      <Placemark>
        <name><![CDATA[Dressmann Skövde City]]></name>
        <description><![CDATA[Dressmann Skövde City, Skövde, Sverige]]></description>
        <Point><coordinates>13.84483,58.389117,0</coordinates></Point>
        <styleUrl>#icon-22</styleUrl>
      </Placemark>
      <Placemark>
        <name><![CDATA[Dressmann Skövde Elins Esplanad]]></name>
        <description><![CDATA[Dressmann Skövde Elins Esplanad, Skövde, Sverige]]></description>
        <Point><coordinates>13.854527,58.405522,0</coordinates></Point>
        <styleUrl>#icon-22</styleUrl>
      </Placemark>
      <Placemark>
        <name><![CDATA[Dressmann Ljungby]]></name>
        <description><![CDATA[Dressmann Ljungby, Ljungby, Sverige]]></description>
        <Point><coordinates>13.940315,56.83381,0</coordinates></Point>
        <styleUrl>#icon-22</styleUrl>
      </Placemark>
      <Placemark>
        <name><![CDATA[Dressmann Värnamo]]></name>
        <description><![CDATA[Dressmann Värnamo, Värnamo, Sverige]]></description>
        <Point><coordinates>14.039319,57.185847,0</coordinates></Point>
        <styleUrl>#icon-22</styleUrl>
      </Placemark>
      <Placemark>
        <name><![CDATA[Dressmann Kristianstad]]></name>
        <description><![CDATA[Dressmann Kristianstad, Kristianstad, Sverige]]></description>
        <Point><coordinates>14.158844,56.030086,0</coordinates></Point>
        <styleUrl>#icon-22</styleUrl>
      </Placemark>
      <Placemark>
        <name><![CDATA[Dressmann Jönköping City]]></name>
        <description><![CDATA[Dressmann Jönköping City, Jönköping, Sverige]]></description>
        <Point><coordinates>14.17323,57.782287,0</coordinates></Point>
        <styleUrl>#icon-22</styleUrl>
      </Placemark>
      <Placemark>
        <name><![CDATA[Dressmann C4 Shopping Kristianstad]]></name>
        <description><![CDATA[Dressmann C4 Shopping Kristianstad, Kristianstad, Sverige]]></description>
        <Point><coordinates>14.197162,56.023235,0</coordinates></Point>
        <styleUrl>#icon-22</styleUrl>
      </Placemark>
      <Placemark>
        <name><![CDATA[Dressmann XL C4 Shopping Kristianstad]]></name>
        <description><![CDATA[Dressmann XL C4 Shopping Kristianstad, Kristianstad, Sverige]]></description>
        <Point><coordinates>14.197162,56.023235,0</coordinates></Point>
        <styleUrl>#icon-22</styleUrl>
      </Placemark>
      <Placemark>
        <name><![CDATA[Dressmann Jönköping A6]]></name>
        <description><![CDATA[Dressmann Jönköping A6, Jönköping, Sverige]]></description>
        <Point><coordinates>14.203387,57.774703,0</coordinates></Point>
        <styleUrl>#icon-22</styleUrl>
      </Placemark>
      <Placemark>
        <name><![CDATA[Dressmann Simrishamn]]></name>
        <description><![CDATA[Dressmann Simrishamn, Simrishamn, Sverige]]></description>
        <Point><coordinates>14.350992,55.556984,0</coordinates></Point>
        <styleUrl>#icon-22</styleUrl>
      </Placemark>
      <Placemark>
        <name><![CDATA[Dressmann Karlskoga]]></name>
        <description><![CDATA[Dressmann Karlskoga, Karlskoga, Sverige]]></description>
        <Point><coordinates>14.525618,59.326296,0</coordinates></Point>
        <styleUrl>#icon-22</styleUrl>
      </Placemark>
      <Placemark>
        <name><![CDATA[Dressmann Mora]]></name>
        <description><![CDATA[Dressmann Mora, Mora, Sverige]]></description>
        <Point><coordinates>14.537748,61.004385,0</coordinates></Point>
        <styleUrl>#icon-22</styleUrl>
      </Placemark>
      <Placemark>
        <name><![CDATA[Dressmann Östersund City]]></name>
        <description><![CDATA[Dressmann Östersund City, Östersund, Sverige]]></description>
        <Point><coordinates>14.637235,63.176911,0</coordinates></Point>
        <styleUrl>#icon-22</styleUrl>
      </Placemark>
      <Placemark>
        <name><![CDATA[Dressmann Nässjö]]></name>
        <description><![CDATA[Dressmann Nässjö, Nässjö, Sverige]]></description>
        <Point><coordinates>14.694446,57.653701,0</coordinates></Point>
        <styleUrl>#icon-22</styleUrl>
      </Placemark>
      <Placemark>
        <name><![CDATA[Dressmann Lillänge Östersund]]></name>
        <description><![CDATA[Dressmann Lillänge Östersund, Östersund, Sverige]]></description>
        <Point><coordinates>14.694952,63.174457,0</coordinates></Point>
        <styleUrl>#icon-22</styleUrl>
      </Placemark>
      <Placemark>
        <name><![CDATA[Dressmann Växjö Samarkand]]></name>
        <description><![CDATA[Dressmann Växjö Samarkand, Växjö, Sverige]]></description>
        <Point><coordinates>14.766962,56.884678,0</coordinates></Point>
        <styleUrl>#icon-22</styleUrl>
      </Placemark>
      <Placemark>
        <name><![CDATA[Dressmann Växjö City]]></name>
        <description><![CDATA[Dressmann Växjö City, Växjö, Sverige]]></description>
        <Point><coordinates>14.806296,56.878652,0</coordinates></Point>
        <styleUrl>#icon-22</styleUrl>
      </Placemark>
      <Placemark>
        <name><![CDATA[Dressmann Karlshamn]]></name>
        <description><![CDATA[Dressmann Karlshamn, Karlshamn, Sverige]]></description>
        <Point><coordinates>14.861087,56.172237,0</coordinates></Point>
        <styleUrl>#icon-22</styleUrl>
      </Placemark>
      <Placemark>
        <name><![CDATA[Dressmann Tranås]]></name>
        <description><![CDATA[Dressmann Tranås, Tranås, Sverige]]></description>
        <Point><coordinates>14.977254,58.036201,0</coordinates></Point>
        <styleUrl>#icon-22</styleUrl>
      </Placemark>
      <Placemark>
        <name><![CDATA[Dressmann Motala]]></name>
        <description><![CDATA[Dressmann Motala, Motala, Sverige]]></description>
        <Point><coordinates>15.037122,58.537135,0</coordinates></Point>
        <styleUrl>#icon-22</styleUrl>
      </Placemark>
      <Placemark>
        <name><![CDATA[Dressmann Vetlanda]]></name>
        <description><![CDATA[Dressmann Vetlanda, Vetlanda, Sverige]]></description>
        <Point><coordinates>15.087645,57.425667,0</coordinates></Point>
        <styleUrl>#icon-22</styleUrl>
      </Placemark>
      <Placemark>
        <name><![CDATA[Dressmann XL Mjölby]]></name>
        <description><![CDATA[Dressmann XL Mjölby, Mjölby, Sverige]]></description>
        <Point><coordinates>15.12528,58.325694,0</coordinates></Point>
        <styleUrl>#icon-22</styleUrl>
      </Placemark>
      <Placemark>
        <name><![CDATA[Dressmann Mjölby]]></name>
        <description><![CDATA[Dressmann Mjölby, Mjölby, Sverige]]></description>
        <Point><coordinates>15.12528,58.325694,0</coordinates></Point>
        <styleUrl>#icon-22</styleUrl>
      </Placemark>
      <Placemark>
        <name><![CDATA[Dressmann XL Marieberg]]></name>
        <description><![CDATA[Dressmann XL Marieberg, Örebro, Sverige]]></description>
        <Point><coordinates>15.139573,59.215934,0</coordinates></Point>
        <styleUrl>#icon-22</styleUrl>
      </Placemark>
      <Placemark>
        <name><![CDATA[Dressmann Marieberg Galleria]]></name>
        <description><![CDATA[Dressmann Marieberg Galleria, Örebro, Sverige]]></description>
        <Point><coordinates>15.140148,59.222615,0</coordinates></Point>
        <styleUrl>#icon-22</styleUrl>
      </Placemark>
      <Placemark>
        <name><![CDATA[Dressmann Ludvika]]></name>
        <description><![CDATA[Dressmann Ludvika, Ludvika, Sverige]]></description>
        <Point><coordinates>15.186207,60.14973,0</coordinates></Point>
        <styleUrl>#icon-22</styleUrl>
      </Placemark>
      <Placemark>
        <name><![CDATA[Dressmann Örebro City]]></name>
        <description><![CDATA[Dressmann Örebro City, Örebro, Sverige]]></description>
        <Point><coordinates>15.212278,59.270704,0</coordinates></Point>
        <styleUrl>#icon-22</styleUrl>
      </Placemark>
      <Placemark>
        <name><![CDATA[Dressmann Ronneby]]></name>
        <description><![CDATA[Dressmann Ronneby, Ronneby, Sverige]]></description>
        <Point><coordinates>15.277362,56.211123,0</coordinates></Point>
        <styleUrl>#icon-22</styleUrl>
      </Placemark>
      <Placemark>
        <name><![CDATA[Dressmann Borlänge Kupolen]]></name>
        <description><![CDATA[Dressmann Borlänge Kupolen, Borlänge, Sverige]]></description>
        <Point><coordinates>15.417971,60.484166,0</coordinates></Point>
        <styleUrl>#icon-22</styleUrl>
      </Placemark>
      <Placemark>
        <name><![CDATA[Dressmann XL Borlänge Kupolen]]></name>
        <description><![CDATA[Dressmann XL Borlänge Kupolen, Borlänge, Sverige]]></description>
        <Point><coordinates>15.41811,60.484419,0</coordinates></Point>
        <styleUrl>#icon-22</styleUrl>
      </Placemark>
      <Placemark>
        <name><![CDATA[Dressmann Karlskrona City]]></name>
        <description><![CDATA[Dressmann Karlskrona City, Karlskrona, Sverige]]></description>
        <Point><coordinates>15.571969,56.161164,0</coordinates></Point>
        <styleUrl>#icon-22</styleUrl>
      </Placemark>
      <Placemark>
        <name><![CDATA[Dressmann Linköping Ikano]]></name>
        <description><![CDATA[Dressmann Linköping Ikano, Linköping, Sverige]]></description>
        <Point><coordinates>15.587852,58.43236,0</coordinates></Point>
        <styleUrl>#icon-22</styleUrl>
      </Placemark>
      <Placemark>
        <name><![CDATA[Dressmann Linköping Gränden]]></name>
        <description><![CDATA[Dressmann Linköping Gränden, Linköping, Sverige]]></description>
        <Point><coordinates>15.62662,58.410072,0</coordinates></Point>
        <styleUrl>#icon-22</styleUrl>
      </Placemark>
      <Placemark>
        <name><![CDATA[Dressmann Falun]]></name>
        <description><![CDATA[Dressmann Falun, Falun, Sverige]]></description>
        <Point><coordinates>15.630522,60.606599,0</coordinates></Point>
        <styleUrl>#icon-22</styleUrl>
      </Placemark>
      <Placemark>
        <name><![CDATA[Dressmann Karlskrona Amiralen]]></name>
        <description><![CDATA[Dressmann Karlskrona Amiralen, Lyckeby, Sverige]]></description>
        <Point><coordinates>15.641094,56.196632,0</coordinates></Point>
        <styleUrl>#icon-22</styleUrl>
      </Placemark>
      <Placemark>
        <name><![CDATA[Dressmann Fagersta]]></name>
        <description><![CDATA[Dressmann Fagersta, Fagersta, Sverige]]></description>
        <Point><coordinates>15.793114,60.003756,0</coordinates></Point>
        <styleUrl>#icon-22</styleUrl>
      </Placemark>
      <Placemark>
        <name><![CDATA[Dressmann Vimmerby]]></name>
        <description><![CDATA[Dressmann Vimmerby, Vimmerby, Sverige]]></description>
        <Point><coordinates>15.853699,57.666659,0</coordinates></Point>
        <styleUrl>#icon-22</styleUrl>
      </Placemark>
      <Placemark>
        <name><![CDATA[Dressmann Köping]]></name>
        <description><![CDATA[Dressmann Köping, Köping, Sverige]]></description>
        <Point><coordinates>15.976705,59.519405,0</coordinates></Point>
        <styleUrl>#icon-22</styleUrl>
      </Placemark>
      <Placemark>
        <name><![CDATA[Dressmann Ingelsta Shopping]]></name>
        <description><![CDATA[Dressmann Ingelsta Shopping, Norrköping, Sverige]]></description>
        <Point><coordinates>16.165039,58.622867,0</coordinates></Point>
        <styleUrl>#icon-22</styleUrl>
      </Placemark>
      <Placemark>
        <name><![CDATA[Dressmann Avesta]]></name>
        <description><![CDATA[Dressmann Avesta, Avesta, Sverige]]></description>
        <Point><coordinates>16.168253,60.145882,0</coordinates></Point>
        <styleUrl>#icon-22</styleUrl>
      </Placemark>
      <Placemark>
        <name><![CDATA[Dressmann Norrköping]]></name>
        <description><![CDATA[Dressmann Norrköping, Norrköping, Sverige]]></description>
        <Point><coordinates>16.188788,58.587482,0</coordinates></Point>
        <styleUrl>#icon-22</styleUrl>
      </Placemark>
      <Placemark>
        <name><![CDATA[Dressmann Katrineholm]]></name>
        <description><![CDATA[Dressmann Katrineholm, Katrineholm, Sverige]]></description>
        <Point><coordinates>16.20863,58.994924,0</coordinates></Point>
        <styleUrl>#icon-22</styleUrl>
      </Placemark>
      <Placemark>
        <name><![CDATA[Dressmann Mirum Galleria]]></name>
        <description><![CDATA[Dressmann Mirum Galleria, Norrköping, Sverige]]></description>
        <Point><coordinates>16.20959,58.573399,0</coordinates></Point>
        <styleUrl>#icon-22</styleUrl>
      </Placemark>
      <Placemark>
        <name><![CDATA[Dressmann XL Kalmar Hansa]]></name>
        <description><![CDATA[Dressmann XL Kalmar Hansa, Kalmar, Sverige]]></description>
        <Point><coordinates>16.319807,56.686984,0</coordinates></Point>
        <styleUrl>#icon-22</styleUrl>
      </Placemark>
      <Placemark>
        <name><![CDATA[Dressmann Kalmar Hansa]]></name>
        <description><![CDATA[Dressmann Kalmar Hansa, Kalmar, Sverige]]></description>
        <Point><coordinates>16.319807,56.686984,0</coordinates></Point>
        <styleUrl>#icon-22</styleUrl>
      </Placemark>
      <Placemark>
        <name><![CDATA[Dressmann Kalmar Giraffen Shopping]]></name>
        <description><![CDATA[Dressmann Kalmar Giraffen Shopping, Kalmar, Sverige]]></description>
        <Point><coordinates>16.337701,56.670618,0</coordinates></Point>
        <styleUrl>#icon-22</styleUrl>
      </Placemark>
      <Placemark>
        <name><![CDATA[Dressmann Bollnäs]]></name>
        <description><![CDATA[Dressmann Bollnäs, Bollnäs, Sverige]]></description>
        <Point><coordinates>16.393757,61.348615,0</coordinates></Point>
        <styleUrl>#icon-22</styleUrl>
      </Placemark>
      <Placemark>
        <name><![CDATA[Dressmann Oskarshamn]]></name>
        <description><![CDATA[Dressmann Oskarshamn, Oskarshamn, Sverige]]></description>
        <Point><coordinates>16.44666,57.265517,0</coordinates></Point>
        <styleUrl>#icon-22</styleUrl>
      </Placemark>
      <Placemark>
        <name><![CDATA[Dressmann Erikslund]]></name>
        <description><![CDATA[Dressmann Erikslund, Västerås, Sverige]]></description>
        <Point><coordinates>16.454807,59.609976,0</coordinates></Point>
        <styleUrl>#icon-22</styleUrl>
      </Placemark>
      <Placemark>
        <name><![CDATA[Dressmann Öland]]></name>
        <description><![CDATA[Dressmann Öland, Färjestaden, Sverige]]></description>
        <Point><coordinates>16.469813,56.652044,0</coordinates></Point>
        <styleUrl>#icon-22</styleUrl>
      </Placemark>
      <Placemark>
        <name><![CDATA[Dressmann Tuna Park]]></name>
        <description><![CDATA[Dressmann Tuna Park, Eskilstuna, Sverige]]></description>
        <Point><coordinates>16.470114,59.371344,0</coordinates></Point>
        <styleUrl>#icon-22</styleUrl>
      </Placemark>
      <Placemark>
        <name><![CDATA[Dressmann Eskilstuna]]></name>
        <description><![CDATA[Dressmann Eskilstuna, Eskilstuna, Sverige]]></description>
        <Point><coordinates>16.510365,59.371672,0</coordinates></Point>
        <styleUrl>#icon-22</styleUrl>
      </Placemark>
      <Placemark>
        <name><![CDATA[Dressmann XL Västerås]]></name>
        <description><![CDATA[Dressmann XL Västerås, Västerås, Sverige]]></description>
        <Point><coordinates>16.544913,59.611241,0</coordinates></Point>
        <styleUrl>#icon-22</styleUrl>
      </Placemark>
      <Placemark>
        <name><![CDATA[Dressmann Sala]]></name>
        <description><![CDATA[Dressmann Sala, Sala, Sverige]]></description>
        <Point><coordinates>16.605667,59.920296,0</coordinates></Point>
        <styleUrl>#icon-22</styleUrl>
      </Placemark>
      <Placemark>
        <name><![CDATA[Dressmann Hälla]]></name>
        <description><![CDATA[Dressmann Hälla, Västerås, Sverige]]></description>
        <Point><coordinates>16.622302,59.610308,0</coordinates></Point>
        <styleUrl>#icon-22</styleUrl>
      </Placemark>
      <Placemark>
        <name><![CDATA[Dressmann Västervik]]></name>
        <description><![CDATA[Dressmann Västervik, Västervik, Sverige]]></description>
        <Point><coordinates>16.638978,57.758271,0</coordinates></Point>
        <styleUrl>#icon-22</styleUrl>
      </Placemark>
      <Placemark>
        <name><![CDATA[Dressmann XL Valbo]]></name>
        <description><![CDATA[Dressmann XL Valbo, Valbo, Sverige]]></description>
        <Point><coordinates>16.989866,60.633993,0</coordinates></Point>
        <styleUrl>#icon-22</styleUrl>
      </Placemark>
      <Placemark>
        <name><![CDATA[Dressmann Valbo]]></name>
        <description><![CDATA[Dressmann Valbo, Valbo, Sverige]]></description>
        <Point><coordinates>16.992016,60.632938,0</coordinates></Point>
        <styleUrl>#icon-22</styleUrl>
      </Placemark>
      <Placemark>
        <name><![CDATA[Dressmann Nyköping]]></name>
        <description><![CDATA[Dressmann Nyköping, Nyköping, Sverige]]></description>
        <Point><coordinates>17.006303,58.751965,0</coordinates></Point>
        <styleUrl>#icon-22</styleUrl>
      </Placemark>
      <Placemark>
        <name><![CDATA[Dressmann Strängnäs]]></name>
        <description><![CDATA[Dressmann Strängnäs, Strängnäs, Sverige]]></description>
        <Point><coordinates>17.027203,59.376199,0</coordinates></Point>
        <styleUrl>#icon-22</styleUrl>
      </Placemark>
      <Placemark>
        <name><![CDATA[Dressmann Söderhamn]]></name>
        <description><![CDATA[Dressmann Söderhamn, Söderhamn, Sverige]]></description>
        <Point><coordinates>17.057131,61.302865,0</coordinates></Point>
        <styleUrl>#icon-22</styleUrl>
      </Placemark>
      <Placemark>
        <name><![CDATA[Dressmann Enköping]]></name>
        <description><![CDATA[Dressmann Enköping, Enköping, Sverige]]></description>
        <Point><coordinates>17.080647,59.628386,0</coordinates></Point>
        <styleUrl>#icon-22</styleUrl>
      </Placemark>
      <Placemark>
        <name><![CDATA[Dressmann Hudiksvall]]></name>
        <description><![CDATA[Dressmann Hudiksvall, Hudiksvall, Sverige]]></description>
        <Point><coordinates>17.104182,61.728225,0</coordinates></Point>
        <styleUrl>#icon-22</styleUrl>
      </Placemark>
      <Placemark>
        <name><![CDATA[Dressmann Gävle]]></name>
        <description><![CDATA[Dressmann Gävle, Gävle, Sverige]]></description>
        <Point><coordinates>17.141202,60.673911,0</coordinates></Point>
        <styleUrl>#icon-22</styleUrl>
      </Placemark>
      <Placemark>
        <name><![CDATA[Dressmann Sollefteå]]></name>
        <description><![CDATA[Dressmann Sollefteå, Sollefteå, Sverige]]></description>
        <Point><coordinates>17.268558,63.167863,0</coordinates></Point>
        <styleUrl>#icon-22</styleUrl>
      </Placemark>
      <Placemark>
        <name><![CDATA[Dressmann XL Sundsvall Birsta City]]></name>
        <description><![CDATA[Dressmann XL Sundsvall Birsta City, Sundsvall, Sverige]]></description>
        <Point><coordinates>17.335877,62.447125,0</coordinates></Point>
        <styleUrl>#icon-22</styleUrl>
      </Placemark>
      <Placemark>
        <name><![CDATA[Dressmann Birsta City]]></name>
        <description><![CDATA[Dressmann Birsta City, Sundsvall, Sverige]]></description>
        <Point><coordinates>17.335877,62.447125,0</coordinates></Point>
        <styleUrl>#icon-22</styleUrl>
      </Placemark>
      <Placemark>
        <name><![CDATA[Dressmann Bålsta]]></name>
        <description><![CDATA[Dressmann Bålsta, Bålsta, Sverige]]></description>
        <Point><coordinates>17.529251,59.567602,0</coordinates></Point>
        <styleUrl>#icon-22</styleUrl>
      </Placemark>
      <Placemark>
        <name><![CDATA[Dressmann Södertälje]]></name>
        <description><![CDATA[Dressmann Södertälje, Södertälje, Sverige]]></description>
        <Point><coordinates>17.626747,59.196261,0</coordinates></Point>
        <styleUrl>#icon-22</styleUrl>
      </Placemark>
      <Placemark>
        <name><![CDATA[Dressmann Uppsala]]></name>
        <description><![CDATA[Dressmann Uppsala, Uppsala, Sverige]]></description>
        <Point><coordinates>17.637519,59.859524,0</coordinates></Point>
        <styleUrl>#icon-22</styleUrl>
      </Placemark>
      <Placemark>
        <name><![CDATA[Dressmann Gränby]]></name>
        <description><![CDATA[Dressmann Gränby, Uppsala, Sverige]]></description>
        <Point><coordinates>17.670852,59.877083,0</coordinates></Point>
        <styleUrl>#icon-22</styleUrl>
      </Placemark>
      <Placemark>
        <name><![CDATA[Dressmann XL Uppsala]]></name>
        <description><![CDATA[Dressmann XL Uppsala, Uppsala, Sverige]]></description>
        <Point><coordinates>17.693974,59.845467,0</coordinates></Point>
        <styleUrl>#icon-22</styleUrl>
      </Placemark>
      <Placemark>
        <name><![CDATA[Dressmann Tumba]]></name>
        <description><![CDATA[Dressmann Tumba, Tumba, Sverige]]></description>
        <Point><coordinates>17.835103,59.199165,0</coordinates></Point>
        <styleUrl>#icon-22</styleUrl>
      </Placemark>
      <Placemark>
        <name><![CDATA[Dressmann Jakobsberg]]></name>
        <description><![CDATA[Dressmann Jakobsberg, Järfälla, Sverige]]></description>
        <Point><coordinates>17.837224,59.424059,0</coordinates></Point>
        <styleUrl>#icon-22</styleUrl>
      </Placemark>
      <Placemark>
        <name><![CDATA[Dressmann Märsta Centrum]]></name>
        <description><![CDATA[Dressmann Märsta Centrum, Stockholm, Sverige]]></description>
        <Point><coordinates>17.855776,59.620727,0</coordinates></Point>
        <styleUrl>#icon-22</styleUrl>
      </Placemark>
      <Placemark>
        <name><![CDATA[Dressmann Barkarby]]></name>
        <description><![CDATA[Dressmann Barkarby, Järfälla, Sverige]]></description>
        <Point><coordinates>17.858192,59.416177,0</coordinates></Point>
        <styleUrl>#icon-22</styleUrl>
      </Placemark>
      <Placemark>
        <name><![CDATA[Dressmann Vällingby]]></name>
        <description><![CDATA[Dressmann Vällingby, Vällingby, Sverige]]></description>
        <Point><coordinates>17.873982,59.362715,0</coordinates></Point>
        <styleUrl>#icon-22</styleUrl>
      </Placemark>
      <Placemark>
        <name><![CDATA[Dressmann XL Skärholmen]]></name>
        <description><![CDATA[Dressmann XL Skärholmen, Skärholmen, Sverige]]></description>
        <Point><coordinates>17.907159,59.275006,0</coordinates></Point>
        <styleUrl>#icon-22</styleUrl>
      </Placemark>
      <Placemark>
        <name><![CDATA[Dressmann Skärholmen]]></name>
        <description><![CDATA[Dressmann Skärholmen, Skärholmen, Sverige]]></description>
        <Point><coordinates>17.907986,59.275155,0</coordinates></Point>
        <styleUrl>#icon-22</styleUrl>
      </Placemark>
      <Placemark>
        <name><![CDATA[Dressmann Upplands Väsby]]></name>
        <description><![CDATA[Dressmann Upplands Väsby, Upplands, Sverige]]></description>
        <Point><coordinates>17.909925,59.518665,0</coordinates></Point>
        <styleUrl>#icon-22</styleUrl>
      </Placemark>
      <Placemark>
        <name><![CDATA[Dressmann Kungens Kurva]]></name>
        <description><![CDATA[Dressmann Kungens Kurva, Kurva, Sverige]]></description>
        <Point><coordinates>17.916782,59.270194,0</coordinates></Point>
        <styleUrl>#icon-22</styleUrl>
      </Placemark>
      <Placemark>
        <name><![CDATA[Dressmann Härnösand]]></name>
        <description><![CDATA[Dressmann Härnösand, Härnösand, Sverige]]></description>
        <Point><coordinates>17.939278,62.631639,0</coordinates></Point>
        <styleUrl>#icon-22</styleUrl>
      </Placemark>
      <Placemark>
        <name><![CDATA[Dressmann XL Kista Galleria]]></name>
        <description><![CDATA[Dressmann XL Kista Galleria, Kista, Sverige]]></description>
        <Point><coordinates>17.944321,59.403369,0</coordinates></Point>
        <styleUrl>#icon-22</styleUrl>
      </Placemark>
      <Placemark>
        <name><![CDATA[Dressmann Kista Galleria]]></name>
        <description><![CDATA[Dressmann Kista Galleria, Kista, Sverige]]></description>
        <Point><coordinates>17.944321,59.403369,0</coordinates></Point>
        <styleUrl>#icon-22</styleUrl>
      </Placemark>
      <Placemark>
        <name><![CDATA[Dressmann Nynäshamn]]></name>
        <description><![CDATA[Dressmann Nynäshamn, Nynäshamn, Sverige]]></description>
        <Point><coordinates>17.947439,58.903433,0</coordinates></Point>
        <styleUrl>#icon-22</styleUrl>
      </Placemark>
      <Placemark>
        <name><![CDATA[Dressmann Sollentuna Centrum]]></name>
        <description><![CDATA[Dressmann Sollentuna Centrum, Sollentuna, Sverige]]></description>
        <Point><coordinates>17.951123,59.428387,0</coordinates></Point>
        <styleUrl>#icon-22</styleUrl>
      </Placemark>
      <Placemark>
        <name><![CDATA[Dressmann Bromma]]></name>
        <description><![CDATA[Dressmann Bromma, Bromma, Sverige]]></description>
        <Point><coordinates>17.955186,59.355605,0</coordinates></Point>
        <styleUrl>#icon-22</styleUrl>
      </Placemark>
      <Placemark>
        <name><![CDATA[Dressmann Huddinge]]></name>
        <description><![CDATA[Dressmann Huddinge, Huddinge, Sverige]]></description>
        <Point><coordinates>17.981343,59.235454,0</coordinates></Point>
        <styleUrl>#icon-22</styleUrl>
      </Placemark>
      <Placemark>
        <name><![CDATA[Dressmann Mall of Scandinavia]]></name>
        <description><![CDATA[Dressmann Mall of Scandinavia, Solna, Sverige]]></description>
        <Point><coordinates>17.99573,59.373682,0</coordinates></Point>
        <styleUrl>#icon-22</styleUrl>
      </Placemark>
      <Placemark>
        <name><![CDATA[Dressmann Solna]]></name>
        <description><![CDATA[Dressmann Solna, Solna, Sverige]]></description>
        <Point><coordinates>17.999446,59.360473,0</coordinates></Point>
        <styleUrl>#icon-22</styleUrl>
      </Placemark>
      <Placemark>
        <name><![CDATA[Dressmann Liljeholmen]]></name>
        <description><![CDATA[Dressmann Liljeholmen, Stockholm, Sverige]]></description>
        <Point><coordinates>18.021806,59.309995,0</coordinates></Point>
        <styleUrl>#icon-22</styleUrl>
      </Placemark>
      <Placemark>
        <name><![CDATA[Dressmann Odenplan]]></name>
        <description><![CDATA[Dressmann Odenplan, Stockholm, Sverige]]></description>
        <Point><coordinates>18.051259,59.343272,0</coordinates></Point>
        <styleUrl>#icon-22</styleUrl>
      </Placemark>
      <Placemark>
        <name><![CDATA[Dressmann XL Stockholm City]]></name>
        <description><![CDATA[Dressmann XL Stockholm City, Stockholm, Sverige]]></description>
        <Point><coordinates>18.059121,59.331278,0</coordinates></Point>
        <styleUrl>#icon-22</styleUrl>
      </Placemark>
      <Placemark>
        <name><![CDATA[Dressmann Drottninggatan 56]]></name>
        <description><![CDATA[Dressmann Drottninggatan 56, Stockholm, Sverige]]></description>
        <Point><coordinates>18.062002,59.332848,0</coordinates></Point>
        <styleUrl>#icon-22</styleUrl>
      </Placemark>
      <Placemark>
        <name><![CDATA[Dressmann Täby]]></name>
        <description><![CDATA[Dressmann Täby, Täby, Sverige]]></description>
        <Point><coordinates>18.06646,59.442097,0</coordinates></Point>
        <styleUrl>#icon-22</styleUrl>
      </Placemark>
      <Placemark>
        <name><![CDATA[Dressmann Götgatan]]></name>
        <description><![CDATA[Dressmann Götgatan, Stockholm, Sverige]]></description>
        <Point><coordinates>18.073457,59.313724,0</coordinates></Point>
        <styleUrl>#icon-22</styleUrl>
      </Placemark>
      <Placemark>
        <name><![CDATA[Dressmann Globen]]></name>
        <description><![CDATA[Dressmann Globen, Johanneshov, Sverige]]></description>
        <Point><coordinates>18.083066,59.293748,0</coordinates></Point>
        <styleUrl>#icon-22</styleUrl>
      </Placemark>
      <Placemark>
        <name><![CDATA[Dressmann Farsta]]></name>
        <description><![CDATA[Dressmann Farsta, Farsta, Sverige]]></description>
        <Point><coordinates>18.091986,59.242339,0</coordinates></Point>
        <styleUrl>#icon-22</styleUrl>
      </Placemark>
      <Placemark>
        <name><![CDATA[Dressmann Lidingö]]></name>
        <description><![CDATA[Dressmann Lidingö, Lidingö, Sverige]]></description>
        <Point><coordinates>18.135147,59.366055,0</coordinates></Point>
        <styleUrl>#icon-22</styleUrl>
      </Placemark>
      <Placemark>
        <name><![CDATA[Dressmann Haninge Port 73]]></name>
        <description><![CDATA[Dressmann Haninge Port 73, Handen, Sverige]]></description>
        <Point><coordinates>18.149224,59.179241,0</coordinates></Point>
        <styleUrl>#icon-22</styleUrl>
      </Placemark>
      <Placemark>
        <name><![CDATA[Dressmann Haninge Centrum]]></name>
        <description><![CDATA[Dressmann Haninge Centrum, Haninge, Sverige]]></description>
        <Point><coordinates>18.151245,59.204867,0</coordinates></Point>
        <styleUrl>#icon-22</styleUrl>
      </Placemark>
      <Placemark>
        <name><![CDATA[Dressmann Nacka]]></name>
        <description><![CDATA[Dressmann Nacka, Nacka, Sverige]]></description>
        <Point><coordinates>18.16439,59.309419,0</coordinates></Point>
        <styleUrl>#icon-22</styleUrl>
      </Placemark>
      <Placemark>
        <name><![CDATA[Dressmann Tyresö]]></name>
        <description><![CDATA[Dressmann Tyresö, Tyresö, Sverige]]></description>
        <Point><coordinates>18.228917,59.244194,0</coordinates></Point>
        <styleUrl>#icon-22</styleUrl>
      </Placemark>
      <Placemark>
        <name><![CDATA[Dressmann Åkersberga]]></name>
        <description><![CDATA[Dressmann Åkersberga, Åkersberga, Sverige]]></description>
        <Point><coordinates>18.297806,59.479799,0</coordinates></Point>
        <styleUrl>#icon-22</styleUrl>
      </Placemark>
      <Placemark>
        <name><![CDATA[Dressmann Visby]]></name>
        <description><![CDATA[Dressmann Visby, Visby, Sverige]]></description>
        <Point><coordinates>18.299596,57.637843,0</coordinates></Point>
        <styleUrl>#icon-22</styleUrl>
      </Placemark>
      <Placemark>
        <name><![CDATA[Dressmann Värmdö]]></name>
        <description><![CDATA[Dressmann Värmdö, Gustavsberg, Sverige]]></description>
        <Point><coordinates>18.427295,59.313528,0</coordinates></Point>
        <styleUrl>#icon-22</styleUrl>
      </Placemark>
      <Placemark>
        <name><![CDATA[Dressmann Lycksele]]></name>
        <description><![CDATA[Dressmann Lycksele, Lycksele, Sverige]]></description>
        <Point><coordinates>18.676687,64.594933,0</coordinates></Point>
        <styleUrl>#icon-22</styleUrl>
      </Placemark>
      <Placemark>
        <name><![CDATA[Dressmann Norrtälje]]></name>
        <description><![CDATA[Dressmann Norrtälje, Norrtälje, Sverige]]></description>
        <Point><coordinates>18.699431,59.757463,0</coordinates></Point>
        <styleUrl>#icon-22</styleUrl>
      </Placemark>
      <Placemark>
        <name><![CDATA[Dressmann Örnsköldsvik]]></name>
        <description><![CDATA[Dressmann Örnsköldsvik, Örnsköldsvik, Sverige]]></description>
        <Point><coordinates>18.712987,63.290854,0</coordinates></Point>
        <styleUrl>#icon-22</styleUrl>
      </Placemark>
      <Placemark>
        <name><![CDATA[Dressmann Kiruna]]></name>
        <description><![CDATA[Dressmann Kiruna, Kiruna, Sverige]]></description>
        <Point><coordinates>20.2282,67.854502,0</coordinates></Point>
        <styleUrl>#icon-22</styleUrl>
      </Placemark>
      <Placemark>
        <name><![CDATA[Dressmann Avion Köpcentrum]]></name>
        <description><![CDATA[Dressmann Avion Köpcentrum, Umeå, Sverige]]></description>
        <Point><coordinates>20.254772,63.80552,0</coordinates></Point>
        <styleUrl>#icon-22</styleUrl>
      </Placemark>
      <Placemark>
        <name><![CDATA[Dressmann XL Avion Shopping]]></name>
        <description><![CDATA[Dressmann XL Avion Shopping, Umeå, Sverige]]></description>
        <Point><coordinates>20.254772,63.80552,0</coordinates></Point>
        <styleUrl>#icon-22</styleUrl>
      </Placemark>
      <Placemark>
        <name><![CDATA[Dressmann Umeå Ersboda]]></name>
        <description><![CDATA[Dressmann Umeå Ersboda, Umeå, Sverige]]></description>
        <Point><coordinates>20.299914,63.850599,0</coordinates></Point>
        <styleUrl>#icon-22</styleUrl>
      </Placemark>
      <Placemark>
        <name><![CDATA[Dressmann Gällivare]]></name>
        <description><![CDATA[Dressmann Gällivare, Gällivare, Sverige]]></description>
        <Point><coordinates>20.656718,67.134321,0</coordinates></Point>
        <styleUrl>#icon-22</styleUrl>
      </Placemark>
      <Placemark>
        <name><![CDATA[Dressmann Skellefteå City]]></name>
        <description><![CDATA[Dressmann Skellefteå City, Skellefteå, Sverige]]></description>
        <Point><coordinates>20.954606,64.750793,0</coordinates></Point>
        <styleUrl>#icon-22</styleUrl>
      </Placemark>
      <Placemark>
        <name><![CDATA[Dressmann Skellefteå Solbacken]]></name>
        <description><![CDATA[Dressmann Skellefteå Solbacken, Skellefteå, Sverige]]></description>
        <Point><coordinates>21.023512,64.765023,0</coordinates></Point>
        <styleUrl>#icon-22</styleUrl>
      </Placemark>
      <Placemark>
        <name><![CDATA[Dressmann Piteå]]></name>
        <description><![CDATA[Dressmann Piteå, Piteå, Sverige]]></description>
        <Point><coordinates>21.478591,65.317692,0</coordinates></Point>
        <styleUrl>#icon-22</styleUrl>
      </Placemark>
      <Placemark>
        <name><![CDATA[Dressmann Boden]]></name>
        <description><![CDATA[Dressmann Boden, Boden, Sverige]]></description>
        <Point><coordinates>21.689473,65.825339,0</coordinates></Point>
        <styleUrl>#icon-22</styleUrl>
      </Placemark>
      <Placemark>
        <name><![CDATA[Dressmann Luleå Storheden]]></name>
        <description><![CDATA[Dressmann Luleå Storheden, Luleå, Sverige]]></description>
        <Point><coordinates>22.046531,65.61907,0</coordinates></Point>
        <styleUrl>#icon-22</styleUrl>
      </Placemark>
      <Placemark>
        <name><![CDATA[Dressmann XL Luleå]]></name>
        <description><![CDATA[Dressmann XL Luleå, Luleå, Sverige]]></description>
        <Point><coordinates>22.046531,65.61907,0</coordinates></Point>
        <styleUrl>#icon-22</styleUrl>
      </Placemark>
      <Placemark>
        <name><![CDATA[Dressmann Luleå City]]></name>
        <description><![CDATA[Dressmann Luleå City, Luleå, Sverige]]></description>
        <Point><coordinates>22.153866,65.584257,0</coordinates></Point>
        <styleUrl>#icon-22</styleUrl>
      </Placemark>
    </Folder>
  </Document>
</kml>