<?xml version="1.0" encoding="UTF-8"?>
<kml xmlns="http://www.opengis.net/kml/2.2">
  <Document>
    <name>Dressmann</name>
    <description/>
    <Style id="icon-22-normal">
      <IconStyle>
        <scale>1.1</scale>
        <Icon>
          <href>https://www.gstatic.com/mapspro/images/stock/22-blue-dot.png</href>
        </Icon>
        <hotSpot x="16" xunits="pixels" y="32" yunits="insetPixels"/>
      </IconStyle>
      <LabelStyle>
        <scale>0</scale>
      </LabelStyle>
    </Style>
    <Style id="icon-22-highlight">
      <IconStyle>
        <scale>1.1</scale>
        <Icon>
          <href>https://www.gstatic.com/mapspro/images/stock/22-blue-dot.png</href>
        </Icon>
        <hotSpot x="16" xunits="pixels" y="32" yunits="insetPixels"/>
      </IconStyle>
      <LabelStyle>
        <scale>1.1</scale>
      </LabelStyle>
    </Style>
    <StyleMap id="icon-22">
      <Pair>
        <key>normal</key>
        <styleUrl>#icon-22-normal</styleUrl>
      </Pair>
      <Pair>
        <key>highlight</key>
        <styleUrl>#icon-22-highlight</styleUrl>
      </Pair>
    </StyleMap>
    <Folder>
      <name>Dressmann</name>
      <Placemark>
        <name>Dressmann Strömstad</name>
        <description>Dressmann Strömstad, Strömstad</description>
        <styleUrl>#icon-22</styleUrl>
        <Point>
          <coordinates>
            11.179187,58.938346,0
          </coordinates>
        </Point>
      </Placemark>
      <Placemark>
        <name>Strömstad Galleria</name>
        <description>Strömstad Galleria, Strömstad</description>
        <styleUrl>#icon-22</styleUrl>
        <Point>
          <coordinates>
            11.188439,58.946249,0
          </coordinates>
        </Point>
      </Placemark>
      <Placemark>
        <name>Dressmann Tanum</name>
        <description>Dressmann Tanum, Tanum</description>
        <styleUrl>#icon-22</styleUrl>
        <Point>
          <coordinates>
            11.346729,58.721162,0
          </coordinates>
        </Point>
      </Placemark>
      <Placemark>
        <name>Dressmann Uddevalla Torp</name>
        <description>Dressmann Uddevalla Torp, Uddevalla</description>
        <styleUrl>#icon-22</styleUrl>
        <Point>
          <coordinates>
            11.81209,58.354338,0
          </coordinates>
        </Point>
      </Placemark>
      <Placemark>
        <name>Dressmann XL Uddevalla Torp</name>
        <description>Dressmann XL Uddevalla Torp, Uddevalla</description>
        <styleUrl>#icon-22</styleUrl>
        <Point>
          <coordinates>
            11.812149,58.354347,0
          </coordinates>
        </Point>
      </Placemark>
      <Placemark>
        <name>Dressmann Stenungsund</name>
        <description>Dressmann Stenungsund, Stenungsund</description>
        <styleUrl>#icon-22</styleUrl>
        <Point>
          <coordinates>
            11.819887,58.06879,0
          </coordinates>
        </Point>
      </Placemark>
      <Placemark>
        <name>Dressmann Töcksfors</name>
        <description>Dressmann Töcksfors, Töcksfors</description>
        <styleUrl>#icon-22</styleUrl>
        <Point>
          <coordinates>
            11.843057,59.506639,0
          </coordinates>
        </Point>
      </Placemark>
      <Placemark>
        <name>Dressmann V Frölunda</name>
        <description>Dressmann V Frölunda, Göteborg</description>
        <styleUrl>#icon-22</styleUrl>
        <Point>
          <coordinates>
            11.911018,57.650835,0
          </coordinates>
        </Point>
      </Placemark>
      <Placemark>
        <name>Dressmann Uddevalla</name>
        <description>Dressmann Uddevalla, Uddevalla</description>
        <styleUrl>#icon-22</styleUrl>
        <Point>
          <coordinates>
            11.932504,58.34965,0
          </coordinates>
        </Point>
      </Placemark>
      <Placemark>
        <name>Dressmann Högsbo 421</name>
        <description>Dressmann Högsbo 421, Västra Frölunda</description>
        <styleUrl>#icon-22</styleUrl>
        <Point>
          <coordinates>
            11.945746,57.650491,0
          </coordinates>
        </Point>
      </Placemark>
      <Placemark>
        <name>Dressmann XL Backaplan</name>
        <description>Dressmann XL Backaplan, Göteborg</description>
        <styleUrl>#icon-22</styleUrl>
        <Point>
          <coordinates>
            11.9518,57.72137,0
          </coordinates>
        </Point>
      </Placemark>
      <Placemark>
        <name>Dressmann Backaplan</name>
        <description>Dressmann Backaplan, Göteborg</description>
        <styleUrl>#icon-22</styleUrl>
        <Point>
          <coordinates>
            11.95217,57.721397,0
          </coordinates>
        </Point>
      </Placemark>
      <Placemark>
        <name>Dressmann Kungsgatan Göteborg</name>
        <description>Dressmann Kungsgatan Göteborg, Göteborg</description>
        <styleUrl>#icon-22</styleUrl>
        <Point>
          <coordinates>
            11.966774,57.704539,0
          </coordinates>
        </Point>
      </Placemark>
      <Placemark>
        <name>Dressmann Kungälv Konghälla</name>
        <description>Dressmann Kungälv Konghälla, Kungälv</description>
        <styleUrl>#icon-22</styleUrl>
        <Point>
          <coordinates>
            11.967847,57.874137,0
          </coordinates>
        </Point>
      </Placemark>
      <Placemark>
        <name>Dressmann Nordstan</name>
        <description>Dressmann Nordstan, Göteborg</description>
        <styleUrl>#icon-22</styleUrl>
        <Point>
          <coordinates>
            11.96909,57.708802,0
          </coordinates>
        </Point>
      </Placemark>
      <Placemark>
        <name>Dressmann Femman</name>
        <description>Dressmann Femman, Göteborg</description>
        <styleUrl>#icon-22</styleUrl>
        <Point>
          <coordinates>
            11.970273,57.708574,0
          </coordinates>
        </Point>
      </Placemark>
      <Placemark>
        <name>Dressmann Mölndal</name>
        <description>Dressmann Mölndal, Mölndal</description>
        <styleUrl>#icon-22</styleUrl>
        <Point>
          <coordinates>
            12.014575,57.653945,0
          </coordinates>
        </Point>
      </Placemark>
      <Placemark>
        <name>Dressmann Nödinge</name>
        <description>Dressmann Nödinge, Nödinge</description>
        <styleUrl>#icon-22</styleUrl>
        <Point>
          <coordinates>
            12.045495,57.892051,0
          </coordinates>
        </Point>
      </Placemark>
      <Placemark>
        <name>Dressmann Kungsbacka</name>
        <description>Dressmann Kungsbacka, Kungsbacka</description>
        <styleUrl>#icon-22</styleUrl>
        <Point>
          <coordinates>
            12.075004,57.491423,0
          </coordinates>
        </Point>
      </Placemark>
      <Placemark>
        <name>Dressmann Partille</name>
        <description>Dressmann Partille, Göteborg</description>
        <styleUrl>#icon-22</styleUrl>
        <Point>
          <coordinates>
            12.10417,57.739048,0
          </coordinates>
        </Point>
      </Placemark>
      <Placemark>
        <name>Dressmann Varberg Gallerian</name>
        <description>Dressmann Varberg Gallerian, Varberg</description>
        <styleUrl>#icon-22</styleUrl>
        <Point>
          <coordinates>
            12.247562,57.106026,0
          </coordinates>
        </Point>
      </Placemark>
      <Placemark>
        <name>Dressmann Charlottenberg</name>
        <description>Dressmann Charlottenberg, Charlottenberg</description>
        <styleUrl>#icon-22</styleUrl>
        <Point>
          <coordinates>
            12.288041,59.880653,0
          </coordinates>
        </Point>
      </Placemark>
      <Placemark>
        <name>Dressmann Trollhättan Överby</name>
        <description>Dressmann Trollhättan Överby, Trollhättan</description>
        <styleUrl>#icon-22</styleUrl>
        <Point>
          <coordinates>
            12.316667,58.316667,0
          </coordinates>
        </Point>
      </Placemark>
      <Placemark>
        <name>Dressmann Vänersborg</name>
        <description>Dressmann Vänersborg, Vänersborg</description>
        <styleUrl>#icon-22</styleUrl>
        <Point>
          <coordinates>
            12.322576,58.379399,0
          </coordinates>
        </Point>
      </Placemark>
      <Placemark>
        <name>Dressmann Falkenberg</name>
        <description>Dressmann Falkenberg, Falkenberg</description>
        <styleUrl>#icon-22</styleUrl>
        <Point>
          <coordinates>
            12.490826,56.904383,0
          </coordinates>
        </Point>
      </Placemark>
      <Placemark>
        <name>Dressmann Alingsås</name>
        <description>Dressmann Alingsås, Alingsås</description>
        <styleUrl>#icon-22</styleUrl>
        <Point>
          <coordinates>
            12.535962,57.930204,0
          </coordinates>
        </Point>
      </Placemark>
      <Placemark>
        <name>Dressmann Arvika</name>
        <description>Dressmann Arvika, Arvika</description>
        <styleUrl>#icon-22</styleUrl>
        <Point>
          <coordinates>
            12.592298,59.654135,0
          </coordinates>
        </Point>
      </Placemark>
      <Placemark>
        <name>Dressmann Åmål</name>
        <description>Dressmann Åmål, Åmål</description>
        <styleUrl>#icon-22</styleUrl>
        <Point>
          <coordinates>
            12.705,59.052158,0
          </coordinates>
        </Point>
      </Placemark>
      <Placemark>
        <name>Dressmann XL Väla</name>
        <description>Dressmann XL Väla, Ödåkra</description>
        <styleUrl>#icon-22</styleUrl>
        <Point>
          <coordinates>
            12.758976,56.09001,0
          </coordinates>
        </Point>
      </Placemark>
      <Placemark>
        <name>Dressmann Väla</name>
        <description>Dressmann Väla, Ödåkra</description>
        <styleUrl>#icon-22</styleUrl>
        <Point>
          <coordinates>
            12.758998,56.089926,0
          </coordinates>
        </Point>
      </Placemark>
      <Placemark>
        <name>Dressmann Landskrona</name>
        <description>Dressmann Landskrona, Landskrona</description>
        <styleUrl>#icon-22</styleUrl>
        <Point>
          <coordinates>
            12.833469,55.871288,0
          </coordinates>
        </Point>
      </Placemark>
      <Placemark>
        <name>Dressmann Halmstad City</name>
        <description>Dressmann Halmstad City, Halmstad</description>
        <styleUrl>#icon-22</styleUrl>
        <Point>
          <coordinates>
            12.85796,56.674753,0
          </coordinates>
        </Point>
      </Placemark>
      <Placemark>
        <name>Dressmann Ängelholm</name>
        <description>Dressmann Ängelholm, Ängelholm</description>
        <styleUrl>#icon-22</styleUrl>
        <Point>
          <coordinates>
            12.862731,56.243777,0
          </coordinates>
        </Point>
      </Placemark>
      <Placemark>
        <name>Dressmann Halmstad Hallarna</name>
        <description>Dressmann Halmstad Hallarna, Halmstad</description>
        <styleUrl>#icon-22</styleUrl>
        <Point>
          <coordinates>
            12.918351,56.666044,0
          </coordinates>
        </Point>
      </Placemark>
      <Placemark>
        <name>Dressmann Borås Knalleland</name>
        <description>Dressmann Borås Knalleland, Borås</description>
        <styleUrl>#icon-22</styleUrl>
        <Point>
          <coordinates>
            12.938371,57.735241,0
          </coordinates>
        </Point>
      </Placemark>
      <Placemark>
        <name>Dressmann Borås City</name>
        <description>Dressmann Borås City, Borås</description>
        <styleUrl>#icon-22</styleUrl>
        <Point>
          <coordinates>
            12.940258,57.721584,0
          </coordinates>
        </Point>
      </Placemark>
      <Placemark>
        <name>Dressmann Mellbystrand</name>
        <description>Dressmann Mellbystrand, Mellbystrand</description>
        <styleUrl>#icon-22</styleUrl>
        <Point>
          <coordinates>
            12.9558,56.503842,0
          </coordinates>
        </Point>
      </Placemark>
      <Placemark>
        <name>Dressmann Emporia</name>
        <description>Dressmann Emporia, Malmö</description>
        <styleUrl>#icon-22</styleUrl>
        <Point>
          <coordinates>
            12.974654,55.563613,0
          </coordinates>
        </Point>
      </Placemark>
      <Placemark>
        <name>Dressmann XL Emporia</name>
        <description>Dressmann XL Emporia, Malmö</description>
        <styleUrl>#icon-22</styleUrl>
        <Point>
          <coordinates>
            12.974953,55.563944,0
          </coordinates>
        </Point>
      </Placemark>
      <Placemark>
        <name>Dressmann Löddeköpinge</name>
        <description>Dressmann Löddeköpinge, Löddeköpinge</description>
        <styleUrl>#icon-22</styleUrl>
        <Point>
          <coordinates>
            12.990885,55.768859,0
          </coordinates>
        </Point>
      </Placemark>
      <Placemark>
        <name>Dressmann Triangeln Köpcentrum</name>
        <description>Dressmann Triangeln Köpcentrum, Malmö</description>
        <styleUrl>#icon-22</styleUrl>
        <Point>
          <coordinates>
            13.00105,55.595197,0
          </coordinates>
        </Point>
      </Placemark>
      <Placemark>
        <name>Dressmann Mobilia</name>
        <description>Dressmann Mobilia, Malmö</description>
        <styleUrl>#icon-22</styleUrl>
        <Point>
          <coordinates>
            13.003528,55.581134,0
          </coordinates>
        </Point>
      </Placemark>
      <Placemark>
        <name>Dressmann Jägersro</name>
        <description>Dressmann Jägersro, Malmö</description>
        <styleUrl>#icon-22</styleUrl>
        <Point>
          <coordinates>
            13.057949,55.570175,0
          </coordinates>
        </Point>
      </Placemark>
      <Placemark>
        <name>Dressmann XL Burlöv</name>
        <description>Dressmann XL Burlöv, Arlöv</description>
        <styleUrl>#icon-22</styleUrl>
        <Point>
          <coordinates>
            13.083846,55.639528,0
          </coordinates>
        </Point>
      </Placemark>
      <Placemark>
        <name>Dressmann Burlöv</name>
        <description>Dressmann Burlöv, Arlöv</description>
        <styleUrl>#icon-22</styleUrl>
        <Point>
          <coordinates>
            13.091008,55.646616,0
          </coordinates>
        </Point>
      </Placemark>
      <Placemark>
        <name>Dressmann Lidköping</name>
        <description>Dressmann Lidköping, Lidköping</description>
        <styleUrl>#icon-22</styleUrl>
        <Point>
          <coordinates>
            13.143994,58.508958,0
          </coordinates>
        </Point>
      </Placemark>
      <Placemark>
        <name>Dressmann Trelleborg</name>
        <description>Dressmann Trelleborg, Trelleborg</description>
        <styleUrl>#icon-22</styleUrl>
        <Point>
          <coordinates>
            13.156629,55.373532,0
          </coordinates>
        </Point>
      </Placemark>
      <Placemark>
        <name>Dressmann Nova Lund</name>
        <description>Dressmann Nova Lund, Lund</description>
        <styleUrl>#icon-22</styleUrl>
        <Point>
          <coordinates>
            13.159958,55.71394,0
          </coordinates>
        </Point>
      </Placemark>
      <Placemark>
        <name>Dressmann Eslöv</name>
        <description>Dressmann Eslöv, Eslöv</description>
        <styleUrl>#icon-22</styleUrl>
        <Point>
          <coordinates>
            13.302906,55.839004,0
          </coordinates>
        </Point>
      </Placemark>
      <Placemark>
        <name>Dressmann Ulricehamn</name>
        <description>Dressmann Ulricehamn, Ulricehamn</description>
        <styleUrl>#icon-22</styleUrl>
        <Point>
          <coordinates>
            13.412718,57.792225,0
          </coordinates>
        </Point>
      </Placemark>
      <Placemark>
        <name>Dressmann Bergvik</name>
        <description>Dressmann Bergvik, Karlstad</description>
        <styleUrl>#icon-22</styleUrl>
        <Point>
          <coordinates>
            13.428643,59.377431,0
          </coordinates>
        </Point>
      </Placemark>
      <Placemark>
        <name>Dressmann XL Karlstad</name>
        <description>Dressmann XL Karlstad, Karlstad</description>
        <styleUrl>#icon-22</styleUrl>
        <Point>
          <coordinates>
            13.499483,59.378569,0
          </coordinates>
        </Point>
      </Placemark>
      <Placemark>
        <name>Dressmann Karlstad City</name>
        <description>Dressmann Karlstad City, Karlstad</description>
        <styleUrl>#icon-22</styleUrl>
        <Point>
          <coordinates>
            13.501191,59.379377,0
          </coordinates>
        </Point>
      </Placemark>
      <Placemark>
        <name>Dressmann Gislaved</name>
        <description>Dressmann Gislaved, Gislaved</description>
        <styleUrl>#icon-22</styleUrl>
        <Point>
          <coordinates>
            13.537492,57.301806,0
          </coordinates>
        </Point>
      </Placemark>
      <Placemark>
        <name>Dressmann Falköping</name>
        <description>Dressmann Falköping, Falköping</description>
        <styleUrl>#icon-22</styleUrl>
        <Point>
          <coordinates>
            13.555076,58.160979,0
          </coordinates>
        </Point>
      </Placemark>
      <Placemark>
        <name>Dressmann Hässleholm</name>
        <description>Dressmann Hässleholm, Hässleholm</description>
        <styleUrl>#icon-22</styleUrl>
        <Point>
          <coordinates>
            13.76621,56.158522,0
          </coordinates>
        </Point>
      </Placemark>
      <Placemark>
        <name>Dressmann Mariestad</name>
        <description>Dressmann Mariestad, Mariestad</description>
        <styleUrl>#icon-22</styleUrl>
        <Point>
          <coordinates>
            13.823488,58.709874,0
          </coordinates>
        </Point>
      </Placemark>
      <Placemark>
        <name>Dressmann Ystad</name>
        <description>Dressmann Ystad, Ystad</description>
        <styleUrl>#icon-22</styleUrl>
        <Point>
          <coordinates>
            13.82398,55.430394,0
          </coordinates>
        </Point>
      </Placemark>
      <Placemark>
        <name>Dressmann Skövde City</name>
        <description>Dressmann Skövde City, Skövde</description>
        <styleUrl>#icon-22</styleUrl>
        <Point>
          <coordinates>
            13.84483,58.389117,0
          </coordinates>
        </Point>
      </Placemark>
      <Placemark>
        <name>Dressmann Skövde Elins Esplanad</name>
        <description>Dressmann Skövde Elins Esplanad, Skövde</description>
        <styleUrl>#icon-22</styleUrl>
        <Point>
          <coordinates>
            13.854527,58.405522,0
          </coordinates>
        </Point>
      </Placemark>
      <Placemark>
        <name>Dressmann Ljungby</name>
        <description>Dressmann Ljungby, Ljungby</description>
        <styleUrl>#icon-22</styleUrl>
        <Point>
          <coordinates>
            13.940315,56.83381,0
          </coordinates>
        </Point>
      </Placemark>
      <Placemark>
        <name>Dressmann Värnamo</name>
        <description>Dressmann Värnamo, Värnamo</description>
        <styleUrl>#icon-22</styleUrl>
        <Point>
          <coordinates>
            14.039319,57.185847,0
          </coordinates>
        </Point>
      </Placemark>
      <Placemark>
        <name>Dressmann Kristianstad</name>
        <description>Dressmann Kristianstad, Kristianstad</description>
        <styleUrl>#icon-22</styleUrl>
        <Point>
          <coordinates>
            14.158844,56.030086,0
          </coordinates>
        </Point>
      </Placemark>
      <Placemark>
        <name>Dressmann Jönköping City</name>
        <description>Dressmann Jönköping City, Jönköping</description>
        <styleUrl>#icon-22</styleUrl>
        <Point>
          <coordinates>
            14.17323,57.782287,0
          </coordinates>
        </Point>
      </Placemark>
      <Placemark>
        <name>Dressmann C4 Shopping Kristianstad</name>
        <description>Dressmann C4 Shopping Kristianstad, Kristianstad</description>
        <styleUrl>#icon-22</styleUrl>
        <Point>
          <coordinates>
            14.197162,56.023235,0
          </coordinates>
        </Point>
      </Placemark>
      <Placemark>
        <name>Dressmann XL C4 Shopping Kristianstad</name>
        <description>Dressmann XL C4 Shopping Kristianstad, Kristianstad</description>
        <styleUrl>#icon-22</styleUrl>
        <Point>
          <coordinates>
            14.197162,56.023235,0
          </coordinates>
        </Point>
      </Placemark>
      <Placemark>
        <name>Dressmann Jönköping A6</name>
        <description>Dressmann Jönköping A6, Jönköping</description>
        <styleUrl>#icon-22</styleUrl>
        <Point>
          <coordinates>
            14.203387,57.774703,0
          </coordinates>
        </Point>
      </Placemark>
      <Placemark>
        <name>Dressmann Simrishamn</name>
        <description>Dressmann Simrishamn, Simrishamn</description>
        <styleUrl>#icon-22</styleUrl>
        <Point>
          <coordinates>
            14.350992,55.556984,0
          </coordinates>
        </Point>
      </Placemark>
      <Placemark>
        <name>Dressmann Karlskoga</name>
        <description>Dressmann Karlskoga, Karlskoga</description>
        <styleUrl>#icon-22</styleUrl>
        <Point>
          <coordinates>
            14.525618,59.326296,0
          </coordinates>
        </Point>
      </Placemark>
      <Placemark>
        <name>Dressmann Mora</name>
        <description>Dressmann Mora, Mora</description>
        <styleUrl>#icon-22</styleUrl>
        <Point>
          <coordinates>
            14.537748,61.004385,0
          </coordinates>
        </Point>
      </Placemark>
      <Placemark>
        <name>Dressmann Östersund City</name>
        <description>Dressmann Östersund City, Östersund</description>
        <styleUrl>#icon-22</styleUrl>
        <Point>
          <coordinates>
            14.637235,63.176911,0
          </coordinates>
        </Point>
      </Placemark>
      <Placemark>
        <name>Dressmann Nässjö</name>
        <description>Dressmann Nässjö, Nässjö</description>
        <styleUrl>#icon-22</styleUrl>
        <Point>
          <coordinates>
            14.694446,57.653701,0
          </coordinates>
        </Point>
      </Placemark>
      <Placemark>
        <name>Dressmann Lillänge Östersund</name>
        <description>Dressmann Lillänge Östersund, Östersund</description>
        <styleUrl>#icon-22</styleUrl>
        <Point>
          <coordinates>
            14.694952,63.174457,0
          </coordinates>
        </Point>
      </Placemark>
      <Placemark>
        <name>Dressmann Växjö Samarkand</name>
        <description>Dressmann Växjö Samarkand, Växjö</description>
        <styleUrl>#icon-22</styleUrl>
        <Point>
          <coordinates>
            14.766962,56.884678,0
          </coordinates>
        </Point>
      </Placemark>
      <Placemark>
        <name>Dressmann Växjö City</name>
        <description>Dressmann Växjö City, Växjö</description>
        <styleUrl>#icon-22</styleUrl>
        <Point>
          <coordinates>
            14.806296,56.878652,0
          </coordinates>
        </Point>
      </Placemark>
      <Placemark>
        <name>Dressmann Karlshamn</name>
        <description>Dressmann Karlshamn, Karlshamn</description>
        <styleUrl>#icon-22</styleUrl>
        <Point>
          <coordinates>
            14.861087,56.172237,0
          </coordinates>
        </Point>
      </Placemark>
      <Placemark>
        <name>Dressmann Tranås</name>
        <description>Dressmann Tranås, Tranås</description>
        <styleUrl>#icon-22</styleUrl>
        <Point>
          <coordinates>
            14.977254,58.036201,0
          </coordinates>
        </Point>
      </Placemark>
      <Placemark>
        <name>Dressmann Motala</name>
        <description>Dressmann Motala, Motala</description>
        <styleUrl>#icon-22</styleUrl>
        <Point>
          <coordinates>
            15.037122,58.537135,0
          </coordinates>
        </Point>
      </Placemark>
      <Placemark>
        <name>Dressmann Vetlanda</name>
        <description>Dressmann Vetlanda, Vetlanda</description>
        <styleUrl>#icon-22</styleUrl>
        <Point>
          <coordinates>
            15.087645,57.425667,0
          </coordinates>
        </Point>
      </Placemark>
      <Placemark>
        <name>Dressmann XL Mjölby</name>
        <description>Dressmann XL Mjölby, Mjölby</description>
        <styleUrl>#icon-22</styleUrl>
        <Point>
          <coordinates>
            15.12528,58.325694,0
          </coordinates>
        </Point>
      </Placemark>
      <Placemark>
        <name>Dressmann Mjölby</name>
        <description>Dressmann Mjölby, Mjölby</description>
        <styleUrl>#icon-22</styleUrl>
        <Point>
          <coordinates>
            15.12528,58.325694,0
          </coordinates>
        </Point>
      </Placemark>
      <Placemark>
        <name>Dressmann XL Marieberg</name>
        <description>Dressmann XL Marieberg, Örebro</description>
        <styleUrl>#icon-22</styleUrl>
        <Point>
          <coordinates>
            15.139573,59.215934,0
          </coordinates>
        </Point>
      </Placemark>
      <Placemark>
        <name>Dressmann Marieberg Galleria</name>
        <description>Dressmann Marieberg Galleria, Örebro</description>
        <styleUrl>#icon-22</styleUrl>
        <Point>
          <coordinates>
            15.140148,59.222615,0
          </coordinates>
        </Point>
      </Placemark>
      <Placemark>
        <name>Dressmann Ludvika</name>
        <description>Dressmann Ludvika, Ludvika</description>
        <styleUrl>#icon-22</styleUrl>
        <Point>
          <coordinates>
            15.186207,60.14973,0
          </coordinates>
        </Point>
      </Placemark>
      <Placemark>
        <name>Dressmann Örebro City</name>
        <description>Dressmann Örebro City, Örebro</description>
        <styleUrl>#icon-22</styleUrl>
        <Point>
          <coordinates>
            15.212278,59.270704,0
          </coordinates>
        </Point>
      </Placemark>
      <Placemark>
        <name>Dressmann Ronneby</name>
        <description>Dressmann Ronneby, Ronneby</description>
        <styleUrl>#icon-22</styleUrl>
        <Point>
          <coordinates>
            15.277362,56.211123,0
          </coordinates>
        </Point>
      </Placemark>
      <Placemark>
        <name>Dressmann Borlänge Kupolen</name>
        <description>Dressmann Borlänge Kupolen, Borlänge</description>
        <styleUrl>#icon-22</styleUrl>
        <Point>
          <coordinates>
            15.417971,60.484166,0
          </coordinates>
        </Point>
      </Placemark>
      <Placemark>
        <name>Dressmann XL Borlänge Kupolen</name>
        <description>Dressmann XL Borlänge Kupolen, Borlänge</description>
        <styleUrl>#icon-22</styleUrl>
        <Point>
          <coordinates>
            15.41811,60.484419,0
          </coordinates>
        </Point>
      </Placemark>
      <Placemark>
        <name>Dressmann Karlskrona City</name>
        <description>Dressmann Karlskrona City, Karlskrona</description>
        <styleUrl>#icon-22</styleUrl>
        <Point>
          <coordinates>
            15.571969,56.161164,0
          </coordinates>
        </Point>
      </Placemark>
      <Placemark>
        <name>Dressmann Linköping Ikano</name>
        <description>Dressmann Linköping Ikano, Linköping</description>
        <styleUrl>#icon-22</styleUrl>
        <Point>
          <coordinates>
            15.587852,58.43236,0
          </coordinates>
        </Point>
      </Placemark>
      <Placemark>
        <name>Dressmann Linköping Gränden</name>
        <description>Dressmann Linköping Gränden, Linköping</description>
        <styleUrl>#icon-22</styleUrl>
        <Point>
          <coordinates>
            15.62662,58.410072,0
          </coordinates>
        </Point>
      </Placemark>
      <Placemark>
        <name>Dressmann Falun</name>
        <description>Dressmann Falun, Falun</description>
        <styleUrl>#icon-22</styleUrl>
        <Point>
          <coordinates>
            15.630522,60.606599,0
          </coordinates>
        </Point>
      </Placemark>
      <Placemark>
        <name>Dressmann Karlskrona Amiralen</name>
        <description>Dressmann Karlskrona Amiralen, Lyckeby</description>
        <styleUrl>#icon-22</styleUrl>
        <Point>
          <coordinates>
            15.641094,56.196632,0
          </coordinates>
        </Point>
      </Placemark>
      <Placemark>
        <name>Dressmann Fagersta</name>
        <description>Dressmann Fagersta, Fagersta</description>
        <styleUrl>#icon-22</styleUrl>
        <Point>
          <coordinates>
            15.793114,60.003756,0
          </coordinates>
        </Point>
      </Placemark>
      <Placemark>
        <name>Dressmann Vimmerby</name>
        <description>Dressmann Vimmerby, Vimmerby</description>
        <styleUrl>#icon-22</styleUrl>
        <Point>
          <coordinates>
            15.853699,57.666659,0
          </coordinates>
        </Point>
      </Placemark>
      <Placemark>
        <name>Dressmann Köping</name>
        <description>Dressmann Köping, Köping</description>
        <styleUrl>#icon-22</styleUrl>
        <Point>
          <coordinates>
            15.976705,59.519405,0
          </coordinates>
        </Point>
      </Placemark>
      <Placemark>
        <name>Dressmann Ingelsta Shopping</name>
        <description>Dressmann Ingelsta Shopping, Norrköping</description>
        <styleUrl>#icon-22</styleUrl>
        <Point>
          <coordinates>
            16.165039,58.622867,0
          </coordinates>
        </Point>
      </Placemark>
      <Placemark>
        <name>Dressmann Avesta</name>
        <description>Dressmann Avesta, Avesta</description>
        <styleUrl>#icon-22</styleUrl>
        <Point>
          <coordinates>
            16.168253,60.145882,0
          </coordinates>
        </Point>
      </Placemark>
      <Placemark>
        <name>Dressmann Norrköping</name>
        <description>Dressmann Norrköping, Norrköping</description>
        <styleUrl>#icon-22</styleUrl>
        <Point>
          <coordinates>
            16.188788,58.587482,0
          </coordinates>
        </Point>
      </Placemark>
      <Placemark>
        <name>Dressmann Katrineholm</name>
        <description>Dressmann Katrineholm, Katrineholm</description>
        <styleUrl>#icon-22</styleUrl>
        <Point>
          <coordinates>
            16.20863,58.994924,0
          </coordinates>
        </Point>
      </Placemark>
      <Placemark>
        <name>Dressmann Mirum Galleria</name>
        <description>Dressmann Mirum Galleria, Norrköping</description>
        <styleUrl>#icon-22</styleUrl>
        <Point>
          <coordinates>
            16.20959,58.573399,0
          </coordinates>
        </Point>
      </Placemark>
      <Placemark>
        <name>Dressmann XL Kalmar Hansa</name>
        <description>Dressmann XL Kalmar Hansa, Kalmar</description>
        <styleUrl>#icon-22</styleUrl>
        <Point>
          <coordinates>
            16.319807,56.686984,0
          </coordinates>
        </Point>
      </Placemark>
      <Placemark>
        <name>Dressmann Kalmar Hansa</name>
        <description>Dressmann Kalmar Hansa, Kalmar</description>
        <styleUrl>#icon-22</styleUrl>
        <Point>
          <coordinates>
            16.319807,56.686984,0
          </coordinates>
        </Point>
      </Placemark>
      <Placemark>
        <name>Dressmann Kalmar Giraffen Shopping</name>
        <description>Dressmann Kalmar Giraffen Shopping, Kalmar</description>
        <styleUrl>#icon-22</styleUrl>
        <Point>
          <coordinates>
            16.337701,56.670618,0
          </coordinates>
        </Point>
      </Placemark>
      <Placemark>
        <name>Dressmann Bollnäs</name>
        <description>Dressmann Bollnäs, Bollnäs</description>
        <styleUrl>#icon-22</styleUrl>
        <Point>
          <coordinates>
            16.393757,61.348615,0
          </coordinates>
        </Point>
      </Placemark>
      <Placemark>
        <name>Dressmann Oskarshamn</name>
        <description>Dressmann Oskarshamn, Oskarshamn</description>
        <styleUrl>#icon-22</styleUrl>
        <Point>
          <coordinates>
            16.44666,57.265517,0
          </coordinates>
        </Point>
      </Placemark>
      <Placemark>
        <name>Dressmann Erikslund</name>
        <description>Dressmann Erikslund, Västerås</description>
        <styleUrl>#icon-22</styleUrl>
        <Point>
          <coordinates>
            16.454807,59.609976,0
          </coordinates>
        </Point>
      </Placemark>
      <Placemark>
        <name>Dressmann Öland</name>
        <description>Dressmann Öland, Färjestaden</description>
        <styleUrl>#icon-22</styleUrl>
        <Point>
          <coordinates>
            16.469813,56.652044,0
          </coordinates>
        </Point>
      </Placemark>
      <Placemark>
        <name>Dressmann Tuna Park</name>
        <description>Dressmann Tuna Park, Eskilstuna</description>
        <styleUrl>#icon-22</styleUrl>
        <Point>
          <coordinates>
            16.470114,59.371344,0
          </coordinates>
        </Point>
      </Placemark>
      <Placemark>
        <name>Dressmann Eskilstuna</name>
        <description>Dressmann Eskilstuna, Eskilstuna</description>
        <styleUrl>#icon-22</styleUrl>
        <Point>
          <coordinates>
            16.510365,59.371672,0
          </coordinates>
        </Point>
      </Placemark>
      <Placemark>
        <name>Dressmann XL Västerås</name>
        <description>Dressmann XL Västerås, Västerås</description>
        <styleUrl>#icon-22</styleUrl>
        <Point>
          <coordinates>
            16.544913,59.611241,0
          </coordinates>
        </Point>
      </Placemark>
      <Placemark>
        <name>Dressmann Sala</name>
        <description>Dressmann Sala, Sala</description>
        <styleUrl>#icon-22</styleUrl>
        <Point>
          <coordinates>
            16.605667,59.920296,0
          </coordinates>
        </Point>
      </Placemark>
      <Placemark>
        <name>Dressmann Hälla</name>
        <description>Dressmann Hälla, Västerås</description>
        <styleUrl>#icon-22</styleUrl>
        <Point>
          <coordinates>
            16.622302,59.610308,0
          </coordinates>
        </Point>
      </Placemark>
      <Placemark>
        <name>Dressmann Västervik</name>
        <description>Dressmann Västervik, Västervik</description>
        <styleUrl>#icon-22</styleUrl>
        <Point>
          <coordinates>
            16.638978,57.758271,0
          </coordinates>
        </Point>
      </Placemark>
      <Placemark>
        <name>Dressmann XL Valbo</name>
        <description>Dressmann XL Valbo, Valbo</description>
        <styleUrl>#icon-22</styleUrl>
        <Point>
          <coordinates>
            16.989866,60.633993,0
          </coordinates>
        </Point>
      </Placemark>
      <Placemark>
        <name>Dressmann Valbo</name>
        <description>Dressmann Valbo, Valbo</description>
        <styleUrl>#icon-22</styleUrl>
        <Point>
          <coordinates>
            16.992016,60.632938,0
          </coordinates>
        </Point>
      </Placemark>
      <Placemark>
        <name>Dressmann Nyköping</name>
        <description>Dressmann Nyköping, Nyköping</description>
        <styleUrl>#icon-22</styleUrl>
        <Point>
          <coordinates>
            17.006303,58.751965,0
          </coordinates>
        </Point>
      </Placemark>
      <Placemark>
        <name>Dressmann Strängnäs</name>
        <description>Dressmann Strängnäs, Strängnäs</description>
        <styleUrl>#icon-22</styleUrl>
        <Point>
          <coordinates>
            17.027203,59.376199,0
          </coordinates>
        </Point>
      </Placemark>
      <Placemark>
        <name>Dressmann Söderhamn</name>
        <description>Dressmann Söderhamn, Söderhamn</description>
        <styleUrl>#icon-22</styleUrl>
        <Point>
          <coordinates>
            17.057131,61.302865,0
          </coordinates>
        </Point>
      </Placemark>
      <Placemark>
        <name>Dressmann Enköping</name>
        <description>Dressmann Enköping, Enköping</description>
        <styleUrl>#icon-22</styleUrl>
        <Point>
          <coordinates>
            17.080647,59.628386,0
          </coordinates>
        </Point>
      </Placemark>
      <Placemark>
        <name>Dressmann Hudiksvall</name>
        <description>Dressmann Hudiksvall, Hudiksvall</description>
        <styleUrl>#icon-22</styleUrl>
        <Point>
          <coordinates>
            17.104182,61.728225,0
          </coordinates>
        </Point>
      </Placemark>
      <Placemark>
        <name>Dressmann Gävle</name>
        <description>Dressmann Gävle, Gävle</description>
        <styleUrl>#icon-22</styleUrl>
        <Point>
          <coordinates>
            17.141202,60.673911,0
          </coordinates>
        </Point>
      </Placemark>
      <Placemark>
        <name>Dressmann Sollefteå</name>
        <description>Dressmann Sollefteå, Sollefteå</description>
        <styleUrl>#icon-22</styleUrl>
        <Point>
          <coordinates>
            17.268558,63.167863,0
          </coordinates>
        </Point>
      </Placemark>
      <Placemark>
        <name>Dressmann XL Sundsvall Birsta City</name>
        <description>Dressmann XL Sundsvall Birsta City, Sundsvall</description>
        <styleUrl>#icon-22</styleUrl>
        <Point>
          <coordinates>
            17.335877,62.447125,0
          </coordinates>
        </Point>
      </Placemark>
      <Placemark>
        <name>Dressmann Birsta City</name>
        <description>Dressmann Birsta City, Sundsvall</description>
        <styleUrl>#icon-22</styleUrl>
        <Point>
          <coordinates>
            17.335877,62.447125,0
          </coordinates>
        </Point>
      </Placemark>
      <Placemark>
        <name>Dressmann Bålsta</name>
        <description>Dressmann Bålsta, Bålsta</description>
        <styleUrl>#icon-22</styleUrl>
        <Point>
          <coordinates>
            17.529251,59.567602,0
          </coordinates>
        </Point>
      </Placemark>
      <Placemark>
        <name>Dressmann Södertälje</name>
        <description>Dressmann Södertälje, Södertälje</description>
        <styleUrl>#icon-22</styleUrl>
        <Point>
          <coordinates>
            17.626747,59.196261,0
          </coordinates>
        </Point>
      </Placemark>
      <Placemark>
        <name>Dressmann Uppsala</name>
        <description>Dressmann Uppsala, Uppsala</description>
        <styleUrl>#icon-22</styleUrl>
        <Point>
          <coordinates>
            17.637519,59.859524,0
          </coordinates>
        </Point>
      </Placemark>
      <Placemark>
        <name>Dressmann Gränby</name>
        <description>Dressmann Gränby, Uppsala</description>
        <styleUrl>#icon-22</styleUrl>
        <Point>
          <coordinates>
            17.670852,59.877083,0
          </coordinates>
        </Point>
      </Placemark>
      <Placemark>
        <name>Dressmann XL Uppsala</name>
        <description>Dressmann XL Uppsala, Uppsala</description>
        <styleUrl>#icon-22</styleUrl>
        <Point>
          <coordinates>
            17.693974,59.845467,0
          </coordinates>
        </Point>
      </Placemark>
      <Placemark>
        <name>Dressmann Tumba</name>
        <description>Dressmann Tumba, Tumba</description>
        <styleUrl>#icon-22</styleUrl>
        <Point>
          <coordinates>
            17.835103,59.199165,0
          </coordinates>
        </Point>
      </Placemark>
      <Placemark>
        <name>Dressmann Jakobsberg</name>
        <description>Dressmann Jakobsberg, Järfälla</description>
        <styleUrl>#icon-22</styleUrl>
        <Point>
          <coordinates>
            17.837224,59.424059,0
          </coordinates>
        </Point>
      </Placemark>
      <Placemark>
        <name>Dressmann Märsta Centrum</name>
        <description>Dressmann Märsta Centrum, Stockholm</description>
        <styleUrl>#icon-22</styleUrl>
        <Point>
          <coordinates>
            17.855776,59.620727,0
          </coordinates>
        </Point>
      </Placemark>
      <Placemark>
        <name>Dressmann Barkarby</name>
        <description>Dressmann Barkarby, Järfälla</description>
        <styleUrl>#icon-22</styleUrl>
        <Point>
          <coordinates>
            17.858192,59.416177,0
          </coordinates>
        </Point>
      </Placemark>
      <Placemark>
        <name>Dressmann Vällingby</name>
        <description>Dressmann Vällingby, Vällingby</description>
        <styleUrl>#icon-22</styleUrl>
        <Point>
          <coordinates>
            17.873982,59.362715,0
          </coordinates>
        </Point>
      </Placemark>
      <Placemark>
        <name>Dressmann XL Skärholmen</name>
        <description>Dressmann XL Skärholmen, Skärholmen</description>
        <styleUrl>#icon-22</styleUrl>
        <Point>
          <coordinates>
            17.907159,59.275006,0
          </coordinates>
        </Point>
      </Placemark>
      <Placemark>
        <name>Dressmann Skärholmen</name>
        <description>Dressmann Skärholmen, Skärholmen</description>
        <styleUrl>#icon-22</styleUrl>
        <Point>
          <coordinates>
            17.907986,59.275155,0
          </coordinates>
        </Point>
      </Placemark>
      <Placemark>
        <name>Dressmann Upplands Väsby</name>
        <description>Dressmann Upplands Väsby, Upplands</description>
        <styleUrl>#icon-22</styleUrl>
        <Point>
          <coordinates>
            17.909925,59.518665,0
          </coordinates>
        </Point>
      </Placemark>
      <Placemark>
        <name>Dressmann Kungens Kurva</name>
        <description>Dressmann Kungens Kurva, Kurva</description>
        <styleUrl>#icon-22</styleUrl>
        <Point>
          <coordinates>
            17.916782,59.270194,0
          </coordinates>
        </Point>
      </Placemark>
      <Placemark>
        <name>Dressmann Härnösand</name>
        <description>Dressmann Härnösand, Härnösand</description>
        <styleUrl>#icon-22</styleUrl>
        <Point>
          <coordinates>
            17.939278,62.631639,0
          </coordinates>
        </Point>
      </Placemark>
      <Placemark>
        <name>Dressmann XL Kista Galleria</name>
        <description>Dressmann XL Kista Galleria, Kista</description>
        <styleUrl>#icon-22</styleUrl>
        <Point>
          <coordinates>
            17.944321,59.403369,0
          </coordinates>
        </Point>
      </Placemark>
      <Placemark>
        <name>Dressmann Kista Galleria</name>
        <description>Dressmann Kista Galleria, Kista</description>
        <styleUrl>#icon-22</styleUrl>
        <Point>
          <coordinates>
            17.944321,59.403369,0
          </coordinates>
        </Point>
      </Placemark>
      <Placemark>
        <name>Dressmann Nynäshamn</name>
        <description>Dressmann Nynäshamn, Nynäshamn</description>
        <styleUrl>#icon-22</styleUrl>
        <Point>
          <coordinates>
            17.947439,58.903433,0
          </coordinates>
        </Point>
      </Placemark>
      <Placemark>
        <name>Dressmann Sollentuna Centrum</name>
        <description>Dressmann Sollentuna Centrum, Sollentuna</description>
        <styleUrl>#icon-22</styleUrl>
        <Point>
          <coordinates>
            17.951123,59.428387,0
          </coordinates>
        </Point>
      </Placemark>
      <Placemark>
        <name>Dressmann Bromma</name>
        <description>Dressmann Bromma, Bromma</description>
        <styleUrl>#icon-22</styleUrl>
        <Point>
          <coordinates>
            17.955186,59.355605,0
          </coordinates>
        </Point>
      </Placemark>
      <Placemark>
        <name>Dressmann Huddinge</name>
        <description>Dressmann Huddinge, Huddinge</description>
        <styleUrl>#icon-22</styleUrl>
        <Point>
          <coordinates>
            17.981343,59.235454,0
          </coordinates>
        </Point>
      </Placemark>
      <Placemark>
        <name>Dressmann Mall of Scandinavia</name>
        <description>Dressmann Mall of Scandinavia, Solna</description>
        <styleUrl>#icon-22</styleUrl>
        <Point>
          <coordinates>
            17.99573,59.373682,0
          </coordinates>
        </Point>
      </Placemark>
      <Placemark>
        <name>Dressmann Solna</name>
        <description>Dressmann Solna, Solna</description>
        <styleUrl>#icon-22</styleUrl>
        <Point>
          <coordinates>
            17.999446,59.360473,0
          </coordinates>
        </Point>
      </Placemark>
      <Placemark>
        <name>Dressmann Liljeholmen</name>
        <description>Dressmann Liljeholmen, Stockholm</description>
        <styleUrl>#icon-22</styleUrl>
        <Point>
          <coordinates>
            18.021806,59.309995,0
          </coordinates>
        </Point>
      </Placemark>
      <Placemark>
        <name>Dressmann Odenplan</name>
        <description>Dressmann Odenplan, Stockholm</description>
        <styleUrl>#icon-22</styleUrl>
        <Point>
          <coordinates>
            18.051259,59.343272,0
          </coordinates>
        </Point>
      </Placemark>
      <Placemark>
        <name>Dressmann XL Stockholm City</name>
        <description>Dressmann XL Stockholm City, Stockholm</description>
        <styleUrl>#icon-22</styleUrl>
        <Point>
          <coordinates>
            18.059121,59.331278,0
          </coordinates>
        </Point>
      </Placemark>
      <Placemark>
        <name>Dressmann Drottninggatan 56</name>
        <description>Dressmann Drottninggatan 56, Stockholm</description>
        <styleUrl>#icon-22</styleUrl>
        <Point>
          <coordinates>
            18.062002,59.332848,0
          </coordinates>
        </Point>
      </Placemark>
      <Placemark>
        <name>Dressmann Täby</name>
        <description>Dressmann Täby, Täby</description>
        <styleUrl>#icon-22</styleUrl>
        <Point>
          <coordinates>
            18.06646,59.442097,0
          </coordinates>
        </Point>
      </Placemark>
      <Placemark>
        <name>Dressmann Götgatan</name>
        <description>Dressmann Götgatan, Stockholm</description>
        <styleUrl>#icon-22</styleUrl>
        <Point>
          <coordinates>
            18.073457,59.313724,0
          </coordinates>
        </Point>
      </Placemark>
      <Placemark>
        <name>Dressmann Globen</name>
        <description>Dressmann Globen, Johanneshov</description>
        <styleUrl>#icon-22</styleUrl>
        <Point>
          <coordinates>
            18.083066,59.293748,0
          </coordinates>
        </Point>
      </Placemark>
      <Placemark>
        <name>Dressmann Farsta</name>
        <description>Dressmann Farsta, Farsta</description>
        <styleUrl>#icon-22</styleUrl>
        <Point>
          <coordinates>
            18.091986,59.242339,0
          </coordinates>
        </Point>
      </Placemark>
      <Placemark>
        <name>Dressmann Lidingö</name>
        <description>Dressmann Lidingö, Lidingö</description>
        <styleUrl>#icon-22</styleUrl>
        <Point>
          <coordinates>
            18.135147,59.366055,0
          </coordinates>
        </Point>
      </Placemark>
      <Placemark>
        <name>Dressmann Haninge Port 73</name>
        <description>Dressmann Haninge Port 73, Handen</description>
        <styleUrl>#icon-22</styleUrl>
        <Point>
          <coordinates>
            18.149224,59.179241,0
          </coordinates>
        </Point>
      </Placemark>
      <Placemark>
        <name>Dressmann Haninge Centrum</name>
        <description>Dressmann Haninge Centrum, Haninge</description>
        <styleUrl>#icon-22</styleUrl>
        <Point>
          <coordinates>
            18.151245,59.204867,0
          </coordinates>
        </Point>
      </Placemark>
      <Placemark>
        <name>Dressmann Nacka</name>
        <description>Dressmann Nacka, Nacka</description>
        <styleUrl>#icon-22</styleUrl>
        <Point>
          <coordinates>
            18.16439,59.309419,0
          </coordinates>
        </Point>
      </Placemark>
      <Placemark>
        <name>Dressmann Tyresö</name>
        <description>Dressmann Tyresö, Tyresö</description>
        <styleUrl>#icon-22</styleUrl>
        <Point>
          <coordinates>
            18.228917,59.244194,0
          </coordinates>
        </Point>
      </Placemark>
      <Placemark>
        <name>Dressmann Åkersberga</name>
        <description>Dressmann Åkersberga, Åkersberga</description>
        <styleUrl>#icon-22</styleUrl>
        <Point>
          <coordinates>
            18.297806,59.479799,0
          </coordinates>
        </Point>
      </Placemark>
      <Placemark>
        <name>Dressmann Visby</name>
        <description>Dressmann Visby, Visby</description>
        <styleUrl>#icon-22</styleUrl>
        <Point>
          <coordinates>
            18.299596,57.637843,0
          </coordinates>
        </Point>
      </Placemark>
      <Placemark>
        <name>Dressmann Värmdö</name>
        <description>Dressmann Värmdö, Gustavsberg</description>
        <styleUrl>#icon-22</styleUrl>
        <Point>
          <coordinates>
            18.427295,59.313528,0
          </coordinates>
        </Point>
      </Placemark>
      <Placemark>
        <name>Dressmann Lycksele</name>
        <description>Dressmann Lycksele, Lycksele</description>
        <styleUrl>#icon-22</styleUrl>
        <Point>
          <coordinates>
            18.676687,64.594933,0
          </coordinates>
        </Point>
      </Placemark>
      <Placemark>
        <name>Dressmann Norrtälje</name>
        <description>Dressmann Norrtälje, Norrtälje</description>
        <styleUrl>#icon-22</styleUrl>
        <Point>
          <coordinates>
            18.699431,59.757463,0
          </coordinates>
        </Point>
      </Placemark>
      <Placemark>
        <name>Dressmann Örnsköldsvik</name>
        <description>Dressmann Örnsköldsvik, Örnsköldsvik</description>
        <styleUrl>#icon-22</styleUrl>
        <Point>
          <coordinates>
            18.712987,63.290854,0
          </coordinates>
        </Point>
      </Placemark>
      <Placemark>
        <name>Dressmann Kiruna</name>
        <description>Dressmann Kiruna, Kiruna</description>
        <styleUrl>#icon-22</styleUrl>
        <Point>
          <coordinates>
            20.2282,67.854502,0
          </coordinates>
        </Point>
      </Placemark>
      <Placemark>
        <name>Dressmann Avion Köpcentrum</name>
        <description>Dressmann Avion Köpcentrum, Umeå</description>
        <styleUrl>#icon-22</styleUrl>
        <Point>
          <coordinates>
            20.254772,63.80552,0
          </coordinates>
        </Point>
      </Placemark>
      <Placemark>
        <name>Dressmann XL Avion Shopping</name>
        <description>Dressmann XL Avion Shopping, Umeå</description>
        <styleUrl>#icon-22</styleUrl>
        <Point>
          <coordinates>
            20.254772,63.80552,0
          </coordinates>
        </Point>
      </Placemark>
      <Placemark>
        <name>Dressmann Umeå Ersboda</name>
        <description>Dressmann Umeå Ersboda, Umeå</description>
        <styleUrl>#icon-22</styleUrl>
        <Point>
          <coordinates>
            20.299914,63.850599,0
          </coordinates>
        </Point>
      </Placemark>
      <Placemark>
        <name>Dressmann Gällivare</name>
        <description>Dressmann Gällivare, Gällivare</description>
        <styleUrl>#icon-22</styleUrl>
        <Point>
          <coordinates>
            20.656718,67.134321,0
          </coordinates>
        </Point>
      </Placemark>
      <Placemark>
        <name>Dressmann Skellefteå City</name>
        <description>Dressmann Skellefteå City, Skellefteå</description>
        <styleUrl>#icon-22</styleUrl>
        <Point>
          <coordinates>
            20.954606,64.750793,0
          </coordinates>
        </Point>
      </Placemark>
      <Placemark>
        <name>Dressmann Skellefteå Solbacken</name>
        <description>Dressmann Skellefteå Solbacken, Skellefteå</description>
        <styleUrl>#icon-22</styleUrl>
        <Point>
          <coordinates>
            21.023512,64.765023,0
          </coordinates>
        </Point>
      </Placemark>
      <Placemark>
        <name>Dressmann Piteå</name>
        <description>Dressmann Piteå, Piteå</description>
        <styleUrl>#icon-22</styleUrl>
        <Point>
          <coordinates>
            21.478591,65.317692,0
          </coordinates>
        </Point>
      </Placemark>
      <Placemark>
        <name>Dressmann Boden</name>
        <description>Dressmann Boden, Boden</description>
        <styleUrl>#icon-22</styleUrl>
        <Point>
          <coordinates>
            21.689473,65.825339,0
          </coordinates>
        </Point>
      </Placemark>
      <Placemark>
        <name>Dressmann Luleå Storheden</name>
        <description>Dressmann Luleå Storheden, Luleå</description>
        <styleUrl>#icon-22</styleUrl>
        <Point>
          <coordinates>
            22.046531,65.61907,0
          </coordinates>
        </Point>
      </Placemark>
      <Placemark>
        <name>Dressmann XL Luleå</name>
        <description>Dressmann XL Luleå, Luleå</description>
        <styleUrl>#icon-22</styleUrl>
        <Point>
          <coordinates>
            22.046531,65.61907,0
          </coordinates>
        </Point>
      </Placemark>
      <Placemark>
        <name>Dressmann Luleå City</name>
        <description>Dressmann Luleå City, Luleå</description>
        <styleUrl>#icon-22</styleUrl>
        <Point>
          <coordinates>
            22.153866,65.584257,0
          </coordinates>
        </Point>
      </Placemark>
    </Folder>
  </Document>
</kml>