<?xml version="1.0" encoding="UTF-8"?>
<kml xmlns="http://www.opengis.net/kml/2.2">
  <Document>
    <name><![CDATA[Frasses]]></name>
    <description/>
    <Style id="icon-22-normal"><IconStyle><scale>1.1</scale><Icon><href>https://www.gstatic.com/mapspro/images/stock/22-blue-dot.png</href></Icon><hotSpot x="16" xunits="pixels" y="32" yunits="insetPixels"/></IconStyle><LabelStyle><scale>0</scale></LabelStyle></Style>
    <Style id="icon-22-highlight"><IconStyle><scale>1.1</scale><Icon><href>https://www.gstatic.com/mapspro/images/stock/22-blue-dot.png</href></Icon><hotSpot x="16" xunits="pixels" y="32" yunits="insetPixels"/></IconStyle><LabelStyle><scale>1.1</scale></LabelStyle></Style>
    <StyleMap id="icon-22"><Pair><key>normal</key><styleUrl>#icon-22-normal</styleUrl></Pair><Pair><key>highlight</key><styleUrl>#icon-22-highlight</styleUrl></Pair></StyleMap>
    <Folder>
      <name><![CDATA[Frasses]]></name>
      <Placemark>
        <name><![CDATA[Frasses Sveg]]></name>
        <description><![CDATA[Frasses Sveg, Sveg, Sverige]]></description>
        <Point><coordinates>14.359312,62.033062,0</coordinates></Point>
        <styleUrl>#icon-22</styleUrl>
      </Placemark>
      <Placemark>
        <name><![CDATA[Frasses Krokom]]></name>
        <description><![CDATA[Frasses Krokom, Krokom, Sverige]]></description>
        <Point><coordinates>14.448187,63.326437,0</coordinates></Point>
        <styleUrl>#icon-22</styleUrl>
      </Placemark>
      <Placemark>
        <name><![CDATA[Frasses Karlskoga]]></name>
        <description><![CDATA[Frasses Karlskoga, Karlskoga, Sverige]]></description>
        <Point><coordinates>14.571938,59.328563,0</coordinates></Point>
        <styleUrl>#icon-22</styleUrl>
      </Placemark>
      <Placemark>
        <name><![CDATA[Frasses Strömsund]]></name>
        <description><![CDATA[Frasses Strömsund, Strömsund, Sverige]]></description>
        <Point><coordinates>15.555563,63.849563,0</coordinates></Point>
        <styleUrl>#icon-22</styleUrl>
      </Placemark>
      <Placemark>
        <name><![CDATA[Frasses Hoting]]></name>
        <description><![CDATA[Frasses Hoting, Hoting, Sverige]]></description>
        <Point><coordinates>16.172187,64.107563,0</coordinates></Point>
        <styleUrl>#icon-22</styleUrl>
      </Placemark>
      <Placemark>
        <name><![CDATA[Frasses Söderköping]]></name>
        <description><![CDATA[Frasses Söderköping, Söderköping, Sverige]]></description>
        <Point><coordinates>16.335563,58.475188,0</coordinates></Point>
        <styleUrl>#icon-22</styleUrl>
      </Placemark>
      <Placemark>
        <name><![CDATA[Frasses Kalmar]]></name>
        <description><![CDATA[Frasses Kalmar, Kalmar, Sverige]]></description>
        <Point><coordinates>16.352438,56.662813,0</coordinates></Point>
        <styleUrl>#icon-22</styleUrl>
      </Placemark>
      <Placemark>
        <name><![CDATA[Frasses Mönsterås]]></name>
        <description><![CDATA[Frasses Mönsterås, Mönsterås, Sverige]]></description>
        <Point><coordinates>16.436312,57.036313,0</coordinates></Point>
        <styleUrl>#icon-22</styleUrl>
      </Placemark>
      <Placemark>
        <name><![CDATA[Frasses Vilhelmina]]></name>
        <description><![CDATA[Frasses Vilhelmina, Vilhelmina, Sverige]]></description>
        <Point><coordinates>16.659188,64.624562,0</coordinates></Point>
        <styleUrl>#icon-22</styleUrl>
      </Placemark>
      <Placemark>
        <name><![CDATA[Frasses Hudiksvall]]></name>
        <description><![CDATA[Frasses Hudiksvall, Hudiksvall, Sverige]]></description>
        <Point><coordinates>17.103813,61.738062,0</coordinates></Point>
        <styleUrl>#icon-22</styleUrl>
      </Placemark>
      <Placemark>
        <name><![CDATA[Frasses Storuman]]></name>
        <description><![CDATA[Frasses Storuman, Storuman, Sverige]]></description>
        <Point><coordinates>17.122359,65.108962,0</coordinates></Point>
        <styleUrl>#icon-22</styleUrl>
      </Placemark>
      <Placemark>
        <name><![CDATA[Frasses Uppsala]]></name>
        <description><![CDATA[Frasses Uppsala, Uppsala, Sverige]]></description>
        <Point><coordinates>17.629937,59.810187,0</coordinates></Point>
        <styleUrl>#icon-22</styleUrl>
      </Placemark>
      <Placemark>
        <name><![CDATA[Frasses Arjeplog]]></name>
        <description><![CDATA[Frasses Arjeplog, Arjeplog, Sverige]]></description>
        <Point><coordinates>17.888312,66.051187,0</coordinates></Point>
        <styleUrl>#icon-22</styleUrl>
      </Placemark>
      <Placemark>
        <name><![CDATA[Frasses Lycksele]]></name>
        <description><![CDATA[Frasses Lycksele, Lycksele, Sverige]]></description>
        <Point><coordinates>18.679938,64.591813,0</coordinates></Point>
        <styleUrl>#icon-22</styleUrl>
      </Placemark>
      <Placemark>
        <name><![CDATA[Frasses Norrtälje]]></name>
        <description><![CDATA[Frasses Norrtälje, Norrtälje, Sverige]]></description>
        <Point><coordinates>18.688938,59.768062,0</coordinates></Point>
        <styleUrl>#icon-22</styleUrl>
      </Placemark>
      <Placemark>
        <name><![CDATA[Frasses Malå]]></name>
        <description><![CDATA[Frasses Malå, Malå, Sverige]]></description>
        <Point><coordinates>18.746563,65.179063,0</coordinates></Point>
        <styleUrl>#icon-22</styleUrl>
      </Placemark>
      <Placemark>
        <name><![CDATA[Frasses Arvidsjaur A-Grillen]]></name>
        <description><![CDATA[Frasses Arvidsjaur A-Grillen, Arvidsjaur, Sverige]]></description>
        <Point><coordinates>19.179688,65.591188,0</coordinates></Point>
        <styleUrl>#icon-22</styleUrl>
      </Placemark>
      <Placemark>
        <name><![CDATA[Frasses Norsjö]]></name>
        <description><![CDATA[Frasses Norsjö, Norsjö, Sverige]]></description>
        <Point><coordinates>19.483313,64.911563,0</coordinates></Point>
        <styleUrl>#icon-22</styleUrl>
      </Placemark>
      <Placemark>
        <name><![CDATA[Frasses Vindeln]]></name>
        <description><![CDATA[Frasses Vindeln, Vindeln, Sverige]]></description>
        <Point><coordinates>19.715688,64.203563,0</coordinates></Point>
        <styleUrl>#icon-22</styleUrl>
      </Placemark>
      <Placemark>
        <name><![CDATA[Frasses Vännäs]]></name>
        <description><![CDATA[Frasses Vännäs, Vännäs, Sverige]]></description>
        <Point><coordinates>19.753563,63.908938,0</coordinates></Point>
        <styleUrl>#icon-22</styleUrl>
      </Placemark>
      <Placemark>
        <name><![CDATA[Frasses Umeå Grubbe]]></name>
        <description><![CDATA[Frasses Umeå Grubbe, Umeå, Sverige]]></description>
        <Point><coordinates>20.219187,63.832687,0</coordinates></Point>
        <styleUrl>#icon-22</styleUrl>
      </Placemark>
      <Placemark>
        <name><![CDATA[Frasses Kiruna]]></name>
        <description><![CDATA[Frasses Kiruna, Kiruna, Sverige]]></description>
        <Point><coordinates>20.254188,67.844687,0</coordinates></Point>
        <styleUrl>#icon-22</styleUrl>
      </Placemark>
      <Placemark>
        <name><![CDATA[Frasses Gällivare]]></name>
        <description><![CDATA[Frasses Gällivare, Gällivare, Sverige]]></description>
        <Point><coordinates>20.659062,67.149062,0</coordinates></Point>
        <styleUrl>#icon-22</styleUrl>
      </Placemark>
      <Placemark>
        <name><![CDATA[Frasses Bygdeå]]></name>
        <description><![CDATA[Frasses Bygdeå, Bygdeå, Sverige]]></description>
        <Point><coordinates>20.849562,64.061562,0</coordinates></Point>
        <styleUrl>#icon-22</styleUrl>
      </Placemark>
      <Placemark>
        <name><![CDATA[Frasses Piteå]]></name>
        <description><![CDATA[Frasses Piteå, Piteå, Sverige]]></description>
        <Point><coordinates>21.420938,65.320813,0</coordinates></Point>
        <styleUrl>#icon-22</styleUrl>
      </Placemark>
      <Placemark>
        <name><![CDATA[Frasses Boden]]></name>
        <description><![CDATA[Frasses Boden, Boden, Sverige]]></description>
        <Point><coordinates>21.688063,65.825187,0</coordinates></Point>
        <styleUrl>#icon-22</styleUrl>
      </Placemark>
      <Placemark>
        <name><![CDATA[Frasses Luleå]]></name>
        <description><![CDATA[Frasses Luleå, Luleå, Sverige]]></description>
        <Point><coordinates>22.189062,65.580187,0</coordinates></Point>
        <styleUrl>#icon-22</styleUrl>
      </Placemark>
      <Placemark>
        <name><![CDATA[Frasses Pajala]]></name>
        <description><![CDATA[Frasses Pajala, Pajala, Sverige]]></description>
        <Point><coordinates>23.371437,67.210687,0</coordinates></Point>
        <styleUrl>#icon-22</styleUrl>
      </Placemark>
    </Folder>
  </Document>
</kml>