<?xml version="1.0" encoding="UTF-8"?>
<kml xmlns="http://www.opengis.net/kml/2.2">
  <Document>
    <name><![CDATA[Guldfynd]]></name>
    <description/>
    <Style id="icon-22-normal"><IconStyle><scale>1.1</scale><Icon><href>https://www.gstatic.com/mapspro/images/stock/22-blue-dot.png</href></Icon><hotSpot x="16" xunits="pixels" y="32" yunits="insetPixels"/></IconStyle><LabelStyle><scale>0</scale></LabelStyle></Style>
    <Style id="icon-22-highlight"><IconStyle><scale>1.1</scale><Icon><href>https://www.gstatic.com/mapspro/images/stock/22-blue-dot.png</href></Icon><hotSpot x="16" xunits="pixels" y="32" yunits="insetPixels"/></IconStyle><LabelStyle><scale>1.1</scale></LabelStyle></Style>
    <StyleMap id="icon-22"><Pair><key>normal</key><styleUrl>#icon-22-normal</styleUrl></Pair><Pair><key>highlight</key><styleUrl>#icon-22-highlight</styleUrl></Pair></StyleMap>
    <Folder>
      <name><![CDATA[Guldfynd]]></name>
      <Placemark>
        <name><![CDATA[Guldfynd Nordby]]></name>
        <description><![CDATA[Guldfynd Nordby, Strömstad]]></description>
        <Point><coordinates>11.205438,59.064812,0</coordinates></Point>
        <styleUrl>#icon-22</styleUrl>
      </Placemark>
      <Placemark>
        <name><![CDATA[Guldfynd Torp]]></name>
        <description><![CDATA[Guldfynd Torp, Uddevalla]]></description>
        <Point><coordinates>11.812188,58.353313,0</coordinates></Point>
        <styleUrl>#icon-22</styleUrl>
      </Placemark>
      <Placemark>
        <name><![CDATA[Guldfynd]]></name>
        <description><![CDATA[Guldfynd, Stenungsund]]></description>
        <Point><coordinates>11.816813,58.069063,0</coordinates></Point>
        <styleUrl>#icon-22</styleUrl>
      </Placemark>
      <Placemark>
        <name><![CDATA[Guldfynd Frölunda]]></name>
        <description><![CDATA[Guldfynd Frölunda, Västra Frölunda]]></description>
        <Point><coordinates>11.911812,57.651937,0</coordinates></Point>
        <styleUrl>#icon-22</styleUrl>
      </Placemark>
      <Placemark>
        <name><![CDATA[Guldfynd Backaplan]]></name>
        <description><![CDATA[Guldfynd Backaplan, Göteborg]]></description>
        <Point><coordinates>11.951187,57.721812,0</coordinates></Point>
        <styleUrl>#icon-22</styleUrl>
      </Placemark>
      <Placemark>
        <name><![CDATA[Guldfynd Kungspassagen]]></name>
        <description><![CDATA[Guldfynd Kungspassagen, Göteborg]]></description>
        <Point><coordinates>11.967813,57.704687,0</coordinates></Point>
        <styleUrl>#icon-22</styleUrl>
      </Placemark>
      <Placemark>
        <name><![CDATA[Guldfynd]]></name>
        <description><![CDATA[Guldfynd, Kungälv]]></description>
        <Point><coordinates>11.968187,57.873438,0</coordinates></Point>
        <styleUrl>#icon-22</styleUrl>
      </Placemark>
      <Placemark>
        <name><![CDATA[Guldfynd Nordstan]]></name>
        <description><![CDATA[Guldfynd Nordstan, Göteborg]]></description>
        <Point><coordinates>11.969313,57.708062,0</coordinates></Point>
        <styleUrl>#icon-22</styleUrl>
      </Placemark>
      <Placemark>
        <name><![CDATA[Guldfynd]]></name>
        <description><![CDATA[Guldfynd, Mölndal]]></description>
        <Point><coordinates>12.012937,57.655062,0</coordinates></Point>
        <styleUrl>#icon-22</styleUrl>
      </Placemark>
      <Placemark>
        <name><![CDATA[Guldfynd]]></name>
        <description><![CDATA[Guldfynd, Kungsbacka]]></description>
        <Point><coordinates>12.073937,57.492687,0</coordinates></Point>
        <styleUrl>#icon-22</styleUrl>
      </Placemark>
      <Placemark>
        <name><![CDATA[Guldfynd Partille]]></name>
        <description><![CDATA[Guldfynd Partille, Partille]]></description>
        <Point><coordinates>12.105313,57.737938,0</coordinates></Point>
        <styleUrl>#icon-22</styleUrl>
      </Placemark>
      <Placemark>
        <name><![CDATA[Guldfynd]]></name>
        <description><![CDATA[Guldfynd, Varberg]]></description>
        <Point><coordinates>12.248563,57.105312,0</coordinates></Point>
        <styleUrl>#icon-22</styleUrl>
      </Placemark>
      <Placemark>
        <name><![CDATA[Guldfynd]]></name>
        <description><![CDATA[Guldfynd, Charlottenberg]]></description>
        <Point><coordinates>12.291062,59.881312,0</coordinates></Point>
        <styleUrl>#icon-22</styleUrl>
      </Placemark>
      <Placemark>
        <name><![CDATA[Guldfynd Oden]]></name>
        <description><![CDATA[Guldfynd Oden, Trollhättan]]></description>
        <Point><coordinates>12.291062,58.285187,0</coordinates></Point>
        <styleUrl>#icon-22</styleUrl>
      </Placemark>
      <Placemark>
        <name><![CDATA[Guldfynd Överby]]></name>
        <description><![CDATA[Guldfynd Överby, Trollhättan]]></description>
        <Point><coordinates>12.305813,58.312812,0</coordinates></Point>
        <styleUrl>#icon-22</styleUrl>
      </Placemark>
      <Placemark>
        <name><![CDATA[Guldfynd]]></name>
        <description><![CDATA[Guldfynd, Alingsås]]></description>
        <Point><coordinates>12.537063,57.930312,0</coordinates></Point>
        <styleUrl>#icon-22</styleUrl>
      </Placemark>
      <Placemark>
        <name><![CDATA[Guldfynd]]></name>
        <description><![CDATA[Guldfynd, Arvika]]></description>
        <Point><coordinates>12.592187,59.654812,0</coordinates></Point>
        <styleUrl>#icon-22</styleUrl>
      </Placemark>
      <Placemark>
        <name><![CDATA[Guldfynd Väla C]]></name>
        <description><![CDATA[Guldfynd Väla C, Ödåkra]]></description>
        <Point><coordinates>12.756687,56.092062,0</coordinates></Point>
        <styleUrl>#icon-22</styleUrl>
      </Placemark>
      <Placemark>
        <name><![CDATA[Guldfynd]]></name>
        <description><![CDATA[Guldfynd, Landskrona]]></description>
        <Point><coordinates>12.830813,55.870687,0</coordinates></Point>
        <styleUrl>#icon-22</styleUrl>
      </Placemark>
      <Placemark>
        <name><![CDATA[Guldfynd]]></name>
        <description><![CDATA[Guldfynd, Halmstad]]></description>
        <Point><coordinates>12.856188,56.674813,0</coordinates></Point>
        <styleUrl>#icon-22</styleUrl>
      </Placemark>
      <Placemark>
        <name><![CDATA[Guldfynd Hallarna]]></name>
        <description><![CDATA[Guldfynd Hallarna, Halmstad]]></description>
        <Point><coordinates>12.856562,56.674688,0</coordinates></Point>
        <styleUrl>#icon-22</styleUrl>
      </Placemark>
      <Placemark>
        <name><![CDATA[Guldfynd]]></name>
        <description><![CDATA[Guldfynd, Borås]]></description>
        <Point><coordinates>12.938937,57.720437,0</coordinates></Point>
        <styleUrl>#icon-22</styleUrl>
      </Placemark>
      <Placemark>
        <name><![CDATA[Guldfynd]]></name>
        <description><![CDATA[Guldfynd, Mellbystrand]]></description>
        <Point><coordinates>12.956563,56.502938,0</coordinates></Point>
        <styleUrl>#icon-22</styleUrl>
      </Placemark>
      <Placemark>
        <name><![CDATA[Guldfynd Emporia]]></name>
        <description><![CDATA[Guldfynd Emporia, Malmö]]></description>
        <Point><coordinates>12.973063,55.565188,0</coordinates></Point>
        <styleUrl>#icon-22</styleUrl>
      </Placemark>
      <Placemark>
        <name><![CDATA[Guldfynd]]></name>
        <description><![CDATA[Guldfynd, Löddeköpinge]]></description>
        <Point><coordinates>12.990188,55.768812,0</coordinates></Point>
        <styleUrl>#icon-22</styleUrl>
      </Placemark>
      <Placemark>
        <name><![CDATA[Guldfynd Södergatan]]></name>
        <description><![CDATA[Guldfynd Södergatan, Malmö]]></description>
        <Point><coordinates>13.001188,55.603687,0</coordinates></Point>
        <styleUrl>#icon-22</styleUrl>
      </Placemark>
      <Placemark>
        <name><![CDATA[Guldfynd Triangeln]]></name>
        <description><![CDATA[Guldfynd Triangeln, Malmö]]></description>
        <Point><coordinates>13.003063,55.595312,0</coordinates></Point>
        <styleUrl>#icon-22</styleUrl>
      </Placemark>
      <Placemark>
        <name><![CDATA[Guldfynd Mobilia]]></name>
        <description><![CDATA[Guldfynd Mobilia, Malmö]]></description>
        <Point><coordinates>13.004563,55.580437,0</coordinates></Point>
        <styleUrl>#icon-22</styleUrl>
      </Placemark>
      <Placemark>
        <name><![CDATA[Guldfynd Jägersro]]></name>
        <description><![CDATA[Guldfynd Jägersro, Malmö]]></description>
        <Point><coordinates>13.057562,55.570313,0</coordinates></Point>
        <styleUrl>#icon-22</styleUrl>
      </Placemark>
      <Placemark>
        <name><![CDATA[Guldfynd Burlöv]]></name>
        <description><![CDATA[Guldfynd Burlöv, Arlöv]]></description>
        <Point><coordinates>13.083938,55.640187,0</coordinates></Point>
        <styleUrl>#icon-22</styleUrl>
      </Placemark>
      <Placemark>
        <name><![CDATA[Guldfynd]]></name>
        <description><![CDATA[Guldfynd, Lidköping]]></description>
        <Point><coordinates>13.155188,58.504562,0</coordinates></Point>
        <styleUrl>#icon-22</styleUrl>
      </Placemark>
      <Placemark>
        <name><![CDATA[Guldfynd]]></name>
        <description><![CDATA[Guldfynd, Trelleborg]]></description>
        <Point><coordinates>13.158313,55.374562,0</coordinates></Point>
        <styleUrl>#icon-22</styleUrl>
      </Placemark>
      <Placemark>
        <name><![CDATA[Guldfynd Nova]]></name>
        <description><![CDATA[Guldfynd Nova, Lund]]></description>
        <Point><coordinates>13.159562,55.713563,0</coordinates></Point>
        <styleUrl>#icon-22</styleUrl>
      </Placemark>
      <Placemark>
        <name><![CDATA[Guldfynd]]></name>
        <description><![CDATA[Guldfynd, Lund]]></description>
        <Point><coordinates>13.191688,55.703312,0</coordinates></Point>
        <styleUrl>#icon-22</styleUrl>
      </Placemark>
      <Placemark>
        <name><![CDATA[Guldfynd Bergvik Köpcenter]]></name>
        <description><![CDATA[Guldfynd Bergvik Köpcenter, Karlstad]]></description>
        <Point><coordinates>13.425812,59.377938,0</coordinates></Point>
        <styleUrl>#icon-22</styleUrl>
      </Placemark>
      <Placemark>
        <name><![CDATA[Guldfynd Mitt i City]]></name>
        <description><![CDATA[Guldfynd Mitt i City, Karlstad]]></description>
        <Point><coordinates>13.500687,59.379438,0</coordinates></Point>
        <styleUrl>#icon-22</styleUrl>
      </Placemark>
      <Placemark>
        <name><![CDATA[Guldfynd]]></name>
        <description><![CDATA[Guldfynd, Hässleholm]]></description>
        <Point><coordinates>13.767437,56.158062,0</coordinates></Point>
        <styleUrl>#icon-22</styleUrl>
      </Placemark>
      <Placemark>
        <name><![CDATA[Guldfynd]]></name>
        <description><![CDATA[Guldfynd, Ystad]]></description>
        <Point><coordinates>13.821188,55.429688,0</coordinates></Point>
        <styleUrl>#icon-22</styleUrl>
      </Placemark>
      <Placemark>
        <name><![CDATA[Guldfynd]]></name>
        <description><![CDATA[Guldfynd, Mariestad]]></description>
        <Point><coordinates>13.823438,58.709063,0</coordinates></Point>
        <styleUrl>#icon-22</styleUrl>
      </Placemark>
      <Placemark>
        <name><![CDATA[Guldfynd]]></name>
        <description><![CDATA[Guldfynd, Skövde]]></description>
        <Point><coordinates>13.845063,58.389938,0</coordinates></Point>
        <styleUrl>#icon-22</styleUrl>
      </Placemark>
      <Placemark>
        <name><![CDATA[Guldfynd]]></name>
        <description><![CDATA[Guldfynd, Ljungby]]></description>
        <Point><coordinates>13.941063,56.834563,0</coordinates></Point>
        <styleUrl>#icon-22</styleUrl>
      </Placemark>
      <Placemark>
        <name><![CDATA[Guldfynd]]></name>
        <description><![CDATA[Guldfynd, Värnamo]]></description>
        <Point><coordinates>14.041562,57.184562,0</coordinates></Point>
        <styleUrl>#icon-22</styleUrl>
      </Placemark>
      <Placemark>
        <name><![CDATA[Guldfynd]]></name>
        <description><![CDATA[Guldfynd, Kristianstad]]></description>
        <Point><coordinates>14.156813,56.029063,0</coordinates></Point>
        <styleUrl>#icon-22</styleUrl>
      </Placemark>
      <Placemark>
        <name><![CDATA[Guldfynd]]></name>
        <description><![CDATA[Guldfynd, Jönköping]]></description>
        <Point><coordinates>14.172438,57.781813,0</coordinates></Point>
        <styleUrl>#icon-22</styleUrl>
      </Placemark>
      <Placemark>
        <name><![CDATA[Guldfynd A6]]></name>
        <description><![CDATA[Guldfynd A6, Jönköping]]></description>
        <Point><coordinates>14.203812,57.773812,0</coordinates></Point>
        <styleUrl>#icon-22</styleUrl>
      </Placemark>
      <Placemark>
        <name><![CDATA[Guldfynd]]></name>
        <description><![CDATA[Guldfynd, Karlskoga]]></description>
        <Point><coordinates>14.522438,59.327438,0</coordinates></Point>
        <styleUrl>#icon-22</styleUrl>
      </Placemark>
      <Placemark>
        <name><![CDATA[Guldfynd]]></name>
        <description><![CDATA[Guldfynd, Mora]]></description>
        <Point><coordinates>14.538563,61.004562,0</coordinates></Point>
        <styleUrl>#icon-22</styleUrl>
      </Placemark>
      <Placemark>
        <name><![CDATA[Guldfynd]]></name>
        <description><![CDATA[Guldfynd, Växjö]]></description>
        <Point><coordinates>14.806437,56.878937,0</coordinates></Point>
        <styleUrl>#icon-22</styleUrl>
      </Placemark>
      <Placemark>
        <name><![CDATA[Guldfynd]]></name>
        <description><![CDATA[Guldfynd, Karlshamn]]></description>
        <Point><coordinates>14.860563,56.172562,0</coordinates></Point>
        <styleUrl>#icon-22</styleUrl>
      </Placemark>
      <Placemark>
        <name><![CDATA[Guldfynd]]></name>
        <description><![CDATA[Guldfynd, Motala]]></description>
        <Point><coordinates>15.035312,58.537063,0</coordinates></Point>
        <styleUrl>#icon-22</styleUrl>
      </Placemark>
      <Placemark>
        <name><![CDATA[Guldfynd Marieberg]]></name>
        <description><![CDATA[Guldfynd Marieberg, Örebro]]></description>
        <Point><coordinates>15.138063,59.217687,0</coordinates></Point>
        <styleUrl>#icon-22</styleUrl>
      </Placemark>
      <Placemark>
        <name><![CDATA[Guldfynd]]></name>
        <description><![CDATA[Guldfynd, Ludvika]]></description>
        <Point><coordinates>15.185562,60.150188,0</coordinates></Point>
        <styleUrl>#icon-22</styleUrl>
      </Placemark>
      <Placemark>
        <name><![CDATA[Guldfynd Krämaren]]></name>
        <description><![CDATA[Guldfynd Krämaren, Örebro]]></description>
        <Point><coordinates>15.209938,59.269063,0</coordinates></Point>
        <styleUrl>#icon-22</styleUrl>
      </Placemark>
      <Placemark>
        <name><![CDATA[Guldfynd]]></name>
        <description><![CDATA[Guldfynd, Borlänge]]></description>
        <Point><coordinates>15.417938,60.484063,0</coordinates></Point>
        <styleUrl>#icon-22</styleUrl>
      </Placemark>
      <Placemark>
        <name><![CDATA[Guldfynd]]></name>
        <description><![CDATA[Guldfynd, Karlskrona]]></description>
        <Point><coordinates>15.583687,56.162063,0</coordinates></Point>
        <styleUrl>#icon-22</styleUrl>
      </Placemark>
      <Placemark>
        <name><![CDATA[Guldfynd Ikeahuset]]></name>
        <description><![CDATA[Guldfynd Ikeahuset, Linköping]]></description>
        <Point><coordinates>15.585562,58.432562,0</coordinates></Point>
        <styleUrl>#icon-22</styleUrl>
      </Placemark>
      <Placemark>
        <name><![CDATA[Guldfynd Gränden]]></name>
        <description><![CDATA[Guldfynd Gränden, Linköping]]></description>
        <Point><coordinates>15.626938,58.410062,0</coordinates></Point>
        <styleUrl>#icon-22</styleUrl>
      </Placemark>
      <Placemark>
        <name><![CDATA[Guldfynd]]></name>
        <description><![CDATA[Guldfynd, Falun]]></description>
        <Point><coordinates>15.632062,60.605563,0</coordinates></Point>
        <styleUrl>#icon-22</styleUrl>
      </Placemark>
      <Placemark>
        <name><![CDATA[Guldfynd Maxi]]></name>
        <description><![CDATA[Guldfynd Maxi, Norrköping]]></description>
        <Point><coordinates>16.157063,58.618313,0</coordinates></Point>
        <styleUrl>#icon-22</styleUrl>
      </Placemark>
      <Placemark>
        <name><![CDATA[Guldfynd]]></name>
        <description><![CDATA[Guldfynd, Avesta]]></description>
        <Point><coordinates>16.168312,60.145937,0</coordinates></Point>
        <styleUrl>#icon-22</styleUrl>
      </Placemark>
      <Placemark>
        <name><![CDATA[Guldfynd Spiralen]]></name>
        <description><![CDATA[Guldfynd Spiralen, Norrköping]]></description>
        <Point><coordinates>16.190438,58.586938,0</coordinates></Point>
        <styleUrl>#icon-22</styleUrl>
      </Placemark>
      <Placemark>
        <name><![CDATA[Guldfynd]]></name>
        <description><![CDATA[Guldfynd, Katrineholm]]></description>
        <Point><coordinates>16.208813,58.994813,0</coordinates></Point>
        <styleUrl>#icon-22</styleUrl>
      </Placemark>
      <Placemark>
        <name><![CDATA[Guldfynd Giraffen]]></name>
        <description><![CDATA[Guldfynd Giraffen, Kalmar]]></description>
        <Point><coordinates>16.336813,56.670437,0</coordinates></Point>
        <styleUrl>#icon-22</styleUrl>
      </Placemark>
      <Placemark>
        <name><![CDATA[Guldfynd Baronen]]></name>
        <description><![CDATA[Guldfynd Baronen, Kalmar]]></description>
        <Point><coordinates>16.365187,56.660812,0</coordinates></Point>
        <styleUrl>#icon-22</styleUrl>
      </Placemark>
      <Placemark>
        <name><![CDATA[Guldfynd]]></name>
        <description><![CDATA[Guldfynd, Bollnäs]]></description>
        <Point><coordinates>16.396313,61.348813,0</coordinates></Point>
        <styleUrl>#icon-22</styleUrl>
      </Placemark>
      <Placemark>
        <name><![CDATA[Guldfynd Erikslund]]></name>
        <description><![CDATA[Guldfynd Erikslund, Västerås]]></description>
        <Point><coordinates>16.457937,59.611187,0</coordinates></Point>
        <styleUrl>#icon-22</styleUrl>
      </Placemark>
      <Placemark>
        <name><![CDATA[Guldfynd Tunapark]]></name>
        <description><![CDATA[Guldfynd Tunapark, Eskilstuna]]></description>
        <Point><coordinates>16.470062,59.371313,0</coordinates></Point>
        <styleUrl>#icon-22</styleUrl>
      </Placemark>
      <Placemark>
        <name><![CDATA[Guldfynd City]]></name>
        <description><![CDATA[Guldfynd City, Eskilstuna]]></description>
        <Point><coordinates>16.511688,59.371313,0</coordinates></Point>
        <styleUrl>#icon-22</styleUrl>
      </Placemark>
      <Placemark>
        <name><![CDATA[Guldfynd]]></name>
        <description><![CDATA[Guldfynd, Sala]]></description>
        <Point><coordinates>16.605812,59.919313,0</coordinates></Point>
        <styleUrl>#icon-22</styleUrl>
      </Placemark>
      <Placemark>
        <name><![CDATA[Guldfynd Hälla]]></name>
        <description><![CDATA[Guldfynd Hälla, Västerås]]></description>
        <Point><coordinates>16.613312,59.611312,0</coordinates></Point>
        <styleUrl>#icon-22</styleUrl>
      </Placemark>
      <Placemark>
        <name><![CDATA[Guldfynd]]></name>
        <description><![CDATA[Guldfynd, Västervik]]></description>
        <Point><coordinates>16.639063,57.758063,0</coordinates></Point>
        <styleUrl>#icon-22</styleUrl>
      </Placemark>
      <Placemark>
        <name><![CDATA[Guldfynd]]></name>
        <description><![CDATA[Guldfynd, Sandviken]]></description>
        <Point><coordinates>16.776438,60.620687,0</coordinates></Point>
        <styleUrl>#icon-22</styleUrl>
      </Placemark>
      <Placemark>
        <name><![CDATA[Guldfynd Valbo]]></name>
        <description><![CDATA[Guldfynd Valbo, Gävle]]></description>
        <Point><coordinates>16.994687,60.633688,0</coordinates></Point>
        <styleUrl>#icon-22</styleUrl>
      </Placemark>
      <Placemark>
        <name><![CDATA[Guldfynd]]></name>
        <description><![CDATA[Guldfynd, Nyköping]]></description>
        <Point><coordinates>17.005562,58.752063,0</coordinates></Point>
        <styleUrl>#icon-22</styleUrl>
      </Placemark>
      <Placemark>
        <name><![CDATA[Guldfynd]]></name>
        <description><![CDATA[Guldfynd, Strängnäs]]></description>
        <Point><coordinates>17.026313,59.377063,0</coordinates></Point>
        <styleUrl>#icon-22</styleUrl>
      </Placemark>
      <Placemark>
        <name><![CDATA[Guldfynd]]></name>
        <description><![CDATA[Guldfynd, Enköping]]></description>
        <Point><coordinates>17.078688,59.635687,0</coordinates></Point>
        <styleUrl>#icon-22</styleUrl>
      </Placemark>
      <Placemark>
        <name><![CDATA[Guldfynd]]></name>
        <description><![CDATA[Guldfynd, Hudiksvall]]></description>
        <Point><coordinates>17.105812,61.727563,0</coordinates></Point>
        <styleUrl>#icon-22</styleUrl>
      </Placemark>
      <Placemark>
        <name><![CDATA[Guldfynd Flanör]]></name>
        <description><![CDATA[Guldfynd Flanör, Gävle]]></description>
        <Point><coordinates>17.141438,60.675438,0</coordinates></Point>
        <styleUrl>#icon-22</styleUrl>
      </Placemark>
      <Placemark>
        <name><![CDATA[Guldfynd City]]></name>
        <description><![CDATA[Guldfynd City, Sundsvall]]></description>
        <Point><coordinates>17.305937,62.391437,0</coordinates></Point>
        <styleUrl>#icon-22</styleUrl>
      </Placemark>
      <Placemark>
        <name><![CDATA[Guldfynd Birsta]]></name>
        <description><![CDATA[Guldfynd Birsta, Sundsvall]]></description>
        <Point><coordinates>17.337313,62.446813,0</coordinates></Point>
        <styleUrl>#icon-22</styleUrl>
      </Placemark>
      <Placemark>
        <name><![CDATA[Guldfynd Kringlan]]></name>
        <description><![CDATA[Guldfynd Kringlan, Södertälje]]></description>
        <Point><coordinates>17.628062,59.196062,0</coordinates></Point>
        <styleUrl>#icon-22</styleUrl>
      </Placemark>
      <Placemark>
        <name><![CDATA[Guldfynd Forum Gallerian]]></name>
        <description><![CDATA[Guldfynd Forum Gallerian, Uppsala]]></description>
        <Point><coordinates>17.640813,59.857687,0</coordinates></Point>
        <styleUrl>#icon-22</styleUrl>
      </Placemark>
      <Placemark>
        <name><![CDATA[Guldfynd Gränby]]></name>
        <description><![CDATA[Guldfynd Gränby, Uppsala]]></description>
        <Point><coordinates>17.673063,59.877437,0</coordinates></Point>
        <styleUrl>#icon-22</styleUrl>
      </Placemark>
      <Placemark>
        <name><![CDATA[Guldfynd Hallunda]]></name>
        <description><![CDATA[Guldfynd Hallunda, Norsborg]]></description>
        <Point><coordinates>17.827813,59.244187,0</coordinates></Point>
        <styleUrl>#icon-22</styleUrl>
      </Placemark>
      <Placemark>
        <name><![CDATA[Guldfynd Jakobsberg C]]></name>
        <description><![CDATA[Guldfynd Jakobsberg C, Järfälla]]></description>
        <Point><coordinates>17.837438,59.422812,0</coordinates></Point>
        <styleUrl>#icon-22</styleUrl>
      </Placemark>
      <Placemark>
        <name><![CDATA[Guldfynd Vällingby C]]></name>
        <description><![CDATA[Guldfynd Vällingby C, Vällingby]]></description>
        <Point><coordinates>17.873312,59.363062,0</coordinates></Point>
        <styleUrl>#icon-22</styleUrl>
      </Placemark>
      <Placemark>
        <name><![CDATA[Guldfynd Skärholmen C]]></name>
        <description><![CDATA[Guldfynd Skärholmen C, Skärholmen]]></description>
        <Point><coordinates>17.907688,59.275312,0</coordinates></Point>
        <styleUrl>#icon-22</styleUrl>
      </Placemark>
      <Placemark>
        <name><![CDATA[Guldfynd Väsby C]]></name>
        <description><![CDATA[Guldfynd Väsby C, Väsby]]></description>
        <Point><coordinates>17.911812,59.519063,0</coordinates></Point>
        <styleUrl>#icon-22</styleUrl>
      </Placemark>
      <Placemark>
        <name><![CDATA[Guldfynd Kista Galleria]]></name>
        <description><![CDATA[Guldfynd Kista Galleria, Kista]]></description>
        <Point><coordinates>17.944437,59.403063,0</coordinates></Point>
        <styleUrl>#icon-22</styleUrl>
      </Placemark>
      <Placemark>
        <name><![CDATA[Guldfynd Sollentuna C]]></name>
        <description><![CDATA[Guldfynd Sollentuna C, Sollentuna]]></description>
        <Point><coordinates>17.951563,59.428313,0</coordinates></Point>
        <styleUrl>#icon-22</styleUrl>
      </Placemark>
      <Placemark>
        <name><![CDATA[Guldfynd]]></name>
        <description><![CDATA[Guldfynd, Huddinge]]></description>
        <Point><coordinates>17.980688,59.236312,0</coordinates></Point>
        <styleUrl>#icon-22</styleUrl>
      </Placemark>
      <Placemark>
        <name><![CDATA[Guldfynd Solna C]]></name>
        <description><![CDATA[Guldfynd Solna C, Solna]]></description>
        <Point><coordinates>17.999063,59.360563,0</coordinates></Point>
        <styleUrl>#icon-22</styleUrl>
      </Placemark>
      <Placemark>
        <name><![CDATA[Guldfynd Mall of Scandinavia]]></name>
        <description><![CDATA[Guldfynd Mall of Scandinavia, Solna]]></description>
        <Point><coordinates>18.002812,59.370188,0</coordinates></Point>
        <styleUrl>#icon-22</styleUrl>
      </Placemark>
      <Placemark>
        <name><![CDATA[Guldfynd Liljeholmen]]></name>
        <description><![CDATA[Guldfynd Liljeholmen, Stockholm]]></description>
        <Point><coordinates>18.023187,59.309812,0</coordinates></Point>
        <styleUrl>#icon-22</styleUrl>
      </Placemark>
      <Placemark>
        <name><![CDATA[Guldfynd St. Eriksgatan]]></name>
        <description><![CDATA[Guldfynd St. Eriksgatan, Stockholm]]></description>
        <Point><coordinates>18.032438,59.333813,0</coordinates></Point>
        <styleUrl>#icon-22</styleUrl>
      </Placemark>
      <Placemark>
        <name><![CDATA[Guldfynd Mörby C]]></name>
        <description><![CDATA[Guldfynd Mörby C, Danderyd]]></description>
        <Point><coordinates>18.037062,59.397437,0</coordinates></Point>
        <styleUrl>#icon-22</styleUrl>
      </Placemark>
      <Placemark>
        <name><![CDATA[Guldfynd Drottninggatan]]></name>
        <description><![CDATA[Guldfynd Drottninggatan, Stockholm]]></description>
        <Point><coordinates>18.062438,59.333312,0</coordinates></Point>
        <styleUrl>#icon-22</styleUrl>
      </Placemark>
      <Placemark>
        <name><![CDATA[Guldfynd Sergel]]></name>
        <description><![CDATA[Guldfynd Sergel, Stockholm]]></description>
        <Point><coordinates>18.063063,59.333562,0</coordinates></Point>
        <styleUrl>#icon-22</styleUrl>
      </Placemark>
      <Placemark>
        <name><![CDATA[Guldfynd Gallerian]]></name>
        <description><![CDATA[Guldfynd Gallerian, Stockholm]]></description>
        <Point><coordinates>18.067188,59.331187,0</coordinates></Point>
        <styleUrl>#icon-22</styleUrl>
      </Placemark>
      <Placemark>
        <name><![CDATA[Guldfynd Täby C]]></name>
        <description><![CDATA[Guldfynd Täby C, Täby]]></description>
        <Point><coordinates>18.072313,59.444312,0</coordinates></Point>
        <styleUrl>#icon-22</styleUrl>
      </Placemark>
      <Placemark>
        <name><![CDATA[Guldfynd Ringen]]></name>
        <description><![CDATA[Guldfynd Ringen, Stockholm]]></description>
        <Point><coordinates>18.075938,59.308312,0</coordinates></Point>
        <styleUrl>#icon-22</styleUrl>
      </Placemark>
      <Placemark>
        <name><![CDATA[Guldfynd Globen]]></name>
        <description><![CDATA[Guldfynd Globen, Stockholm]]></description>
        <Point><coordinates>18.080937,59.293188,0</coordinates></Point>
        <styleUrl>#icon-22</styleUrl>
      </Placemark>
      <Placemark>
        <name><![CDATA[Guldfynd Fältöversten]]></name>
        <description><![CDATA[Guldfynd Fältöversten, Stockholm]]></description>
        <Point><coordinates>18.091188,59.339687,0</coordinates></Point>
        <styleUrl>#icon-22</styleUrl>
      </Placemark>
      <Placemark>
        <name><![CDATA[Guldfynd Farsta C]]></name>
        <description><![CDATA[Guldfynd Farsta C, Farsta]]></description>
        <Point><coordinates>18.091437,59.243063,0</coordinates></Point>
        <styleUrl>#icon-22</styleUrl>
      </Placemark>
      <Placemark>
        <name><![CDATA[Guldfynd Sickla]]></name>
        <description><![CDATA[Guldfynd Sickla, Nacka]]></description>
        <Point><coordinates>18.125437,59.305813,0</coordinates></Point>
        <styleUrl>#icon-22</styleUrl>
      </Placemark>
      <Placemark>
        <name><![CDATA[Guldfynd]]></name>
        <description><![CDATA[Guldfynd, Haninge]]></description>
        <Point><coordinates>18.139688,59.169313,0</coordinates></Point>
        <styleUrl>#icon-22</styleUrl>
      </Placemark>
      <Placemark>
        <name><![CDATA[Guldfynd Forum]]></name>
        <description><![CDATA[Guldfynd Forum, Nacka]]></description>
        <Point><coordinates>18.164063,59.309812,0</coordinates></Point>
        <styleUrl>#icon-22</styleUrl>
      </Placemark>
      <Placemark>
        <name><![CDATA[Guldfynd]]></name>
        <description><![CDATA[Guldfynd, Tyresö]]></description>
        <Point><coordinates>18.229438,59.244937,0</coordinates></Point>
        <styleUrl>#icon-22</styleUrl>
      </Placemark>
      <Placemark>
        <name><![CDATA[Guldfynd]]></name>
        <description><![CDATA[Guldfynd, Åkersberga]]></description>
        <Point><coordinates>18.298313,59.480187,0</coordinates></Point>
        <styleUrl>#icon-22</styleUrl>
      </Placemark>
      <Placemark>
        <name><![CDATA[Guldfynd]]></name>
        <description><![CDATA[Guldfynd, Visby]]></description>
        <Point><coordinates>18.300812,57.637687,0</coordinates></Point>
        <styleUrl>#icon-22</styleUrl>
      </Placemark>
      <Placemark>
        <name><![CDATA[Guldfynd]]></name>
        <description><![CDATA[Guldfynd, Örnsköldsvik]]></description>
        <Point><coordinates>18.715438,63.290312,0</coordinates></Point>
        <styleUrl>#icon-22</styleUrl>
      </Placemark>
      <Placemark>
        <name><![CDATA[Guldfynd Avion Shopping]]></name>
        <description><![CDATA[Guldfynd Avion Shopping, Umeå]]></description>
        <Point><coordinates>20.253937,63.806687,0</coordinates></Point>
        <styleUrl>#icon-22</styleUrl>
      </Placemark>
      <Placemark>
        <name><![CDATA[Guldfynd Utopia]]></name>
        <description><![CDATA[Guldfynd Utopia, Umeå]]></description>
        <Point><coordinates>20.264063,63.825812,0</coordinates></Point>
        <styleUrl>#icon-22</styleUrl>
      </Placemark>
      <Placemark>
        <name><![CDATA[Guldfynd]]></name>
        <description><![CDATA[Guldfynd, Skellefteå]]></description>
        <Point><coordinates>20.952188,64.750812,0</coordinates></Point>
        <styleUrl>#icon-22</styleUrl>
      </Placemark>
      <Placemark>
        <name><![CDATA[Guldfynd]]></name>
        <description><![CDATA[Guldfynd, Piteå]]></description>
        <Point><coordinates>21.481813,65.315938,0</coordinates></Point>
        <styleUrl>#icon-22</styleUrl>
      </Placemark>
      <Placemark>
        <name><![CDATA[Guldfynd]]></name>
        <description><![CDATA[Guldfynd, Luleå]]></description>
        <Point><coordinates>22.156438,65.584437,0</coordinates></Point>
        <styleUrl>#icon-22</styleUrl>
      </Placemark>
    </Folder>
  </Document>
</kml>