<?xml version="1.0" encoding="UTF-8"?>
<kml xmlns="http://www.opengis.net/kml/2.2">
  <Document>
    <name><![CDATA[Hemköp]]></name>
    <description/>
    <Style id="icon-22-normal"><IconStyle><scale>1.1</scale><Icon><href>https://www.gstatic.com/mapspro/images/stock/22-blue-dot.png</href></Icon><hotSpot x="16" xunits="pixels" y="32" yunits="insetPixels"/></IconStyle><LabelStyle><scale>0</scale></LabelStyle></Style>
    <Style id="icon-22-highlight"><IconStyle><scale>1.1</scale><Icon><href>https://www.gstatic.com/mapspro/images/stock/22-blue-dot.png</href></Icon><hotSpot x="16" xunits="pixels" y="32" yunits="insetPixels"/></IconStyle><LabelStyle><scale>1.1</scale></LabelStyle></Style>
    <StyleMap id="icon-22"><Pair><key>normal</key><styleUrl>#icon-22-normal</styleUrl></Pair><Pair><key>highlight</key><styleUrl>#icon-22-highlight</styleUrl></Pair></StyleMap>
    <Folder>
      <name><![CDATA[Hemköp]]></name>
      <Placemark>
        <name><![CDATA[Hemköp Munkedal]]></name>
        <description><![CDATA[Hemköp Munkedal, Munkedal]]></description>
        <Point><coordinates>11.472475,58.608056,0</coordinates></Point>
        <styleUrl>#icon-22</styleUrl>
      </Placemark>
      <Placemark>
        <name><![CDATA[Hemköp Ellös]]></name>
        <description><![CDATA[Hemköp Ellös, Ellös]]></description>
        <Point><coordinates>11.475898,58.178201,0</coordinates></Point>
        <styleUrl>#icon-22</styleUrl>
      </Placemark>
      <Placemark>
        <name><![CDATA[Hemköp Hönö]]></name>
        <description><![CDATA[Hemköp Hönö, Hönö]]></description>
        <Point><coordinates>11.645816,57.682983,0</coordinates></Point>
        <styleUrl>#icon-22</styleUrl>
      </Placemark>
      <Placemark>
        <name><![CDATA[Hemköp Göteborg, Torslanda]]></name>
        <description><![CDATA[Hemköp Göteborg, Torslanda, Göteborg]]></description>
        <Point><coordinates>11.76763,57.723958,0</coordinates></Point>
        <styleUrl>#icon-22</styleUrl>
      </Placemark>
      <Placemark>
        <name><![CDATA[Hemköp Svanesund]]></name>
        <description><![CDATA[Hemköp Svanesund, Svanesund]]></description>
        <Point><coordinates>11.821533,58.142457,0</coordinates></Point>
        <styleUrl>#icon-22</styleUrl>
      </Placemark>
      <Placemark>
        <name><![CDATA[Hemköp Göteborg, Påvelund]]></name>
        <description><![CDATA[Hemköp Göteborg, Påvelund, Göteborg]]></description>
        <Point><coordinates>11.874277,57.664686,0</coordinates></Point>
        <styleUrl>#icon-22</styleUrl>
      </Placemark>
      <Placemark>
        <name><![CDATA[Hemköp Göteborg, Långedrag]]></name>
        <description><![CDATA[Hemköp Göteborg, Långedrag, Göteborg]]></description>
        <Point><coordinates>11.879939,57.671396,0</coordinates></Point>
        <styleUrl>#icon-22</styleUrl>
      </Placemark>
      <Placemark>
        <name><![CDATA[Hemköp Frölunda Torg]]></name>
        <description><![CDATA[Hemköp Frölunda Torg, Frölunda]]></description>
        <Point><coordinates>11.909324,57.650909,0</coordinates></Point>
        <styleUrl>#icon-22</styleUrl>
      </Placemark>
      <Placemark>
        <name><![CDATA[Hemköp Göteborg, Högsbo]]></name>
        <description><![CDATA[Hemköp Göteborg, Högsbo, Göteborg]]></description>
        <Point><coordinates>11.912735,57.673159,0</coordinates></Point>
        <styleUrl>#icon-22</styleUrl>
      </Placemark>
      <Placemark>
        <name><![CDATA[Hemköp Göteborg, Majorna]]></name>
        <description><![CDATA[Hemköp Göteborg, Majorna, Göteborg]]></description>
        <Point><coordinates>11.918365,57.692966,0</coordinates></Point>
        <styleUrl>#icon-22</styleUrl>
      </Placemark>
      <Placemark>
        <name><![CDATA[Hemköp Göteborg, Stigbergstorget]]></name>
        <description><![CDATA[Hemköp Göteborg, Stigbergstorget, Göteborg]]></description>
        <Point><coordinates>11.934843,57.698755,0</coordinates></Point>
        <styleUrl>#icon-22</styleUrl>
      </Placemark>
      <Placemark>
        <name><![CDATA[Hemköp Göteborg, Masthuggstorget]]></name>
        <description><![CDATA[Hemköp Göteborg, Masthuggstorget, Göteborg]]></description>
        <Point><coordinates>11.9431,57.698461,0</coordinates></Point>
        <styleUrl>#icon-22</styleUrl>
      </Placemark>
      <Placemark>
        <name><![CDATA[Hemköp Kullavik]]></name>
        <description><![CDATA[Hemköp Kullavik, Kullavik]]></description>
        <Point><coordinates>11.946114,57.546096,0</coordinates></Point>
        <styleUrl>#icon-22</styleUrl>
      </Placemark>
      <Placemark>
        <name><![CDATA[Hemköp Göteborg, Nordenskiöldsgatan]]></name>
        <description><![CDATA[Hemköp Göteborg, Nordenskiöldsgatan, Göteborg]]></description>
        <Point><coordinates>11.950884,57.692795,0</coordinates></Point>
        <styleUrl>#icon-22</styleUrl>
      </Placemark>
      <Placemark>
        <name><![CDATA[Hemköp Göteborg, Linnégatan]]></name>
        <description><![CDATA[Hemköp Göteborg, Linnégatan, Göteborg]]></description>
        <Point><coordinates>11.952131,57.695531,0</coordinates></Point>
        <styleUrl>#icon-22</styleUrl>
      </Placemark>
      <Placemark>
        <name><![CDATA[Hemköp Göteborg, Annedal]]></name>
        <description><![CDATA[Hemköp Göteborg, Annedal, Göteborg]]></description>
        <Point><coordinates>11.959122,57.693278,0</coordinates></Point>
        <styleUrl>#icon-22</styleUrl>
      </Placemark>
      <Placemark>
        <name><![CDATA[Hemköp Billdal]]></name>
        <description><![CDATA[Hemköp Billdal, Billdal]]></description>
        <Point><coordinates>11.960996,57.560953,0</coordinates></Point>
        <styleUrl>#icon-22</styleUrl>
      </Placemark>
      <Placemark>
        <name><![CDATA[Hemköp Göteborg, Hvitfeldtsplatsen]]></name>
        <description><![CDATA[Hemköp Göteborg, Hvitfeldtsplatsen, Göteborg]]></description>
        <Point><coordinates>11.961182,57.701567,0</coordinates></Point>
        <styleUrl>#icon-22</styleUrl>
      </Placemark>
      <Placemark>
        <name><![CDATA[Hemköp Särö]]></name>
        <description><![CDATA[Hemköp Särö, Särö]]></description>
        <Point><coordinates>11.966286,57.520461,0</coordinates></Point>
        <styleUrl>#icon-22</styleUrl>
      </Placemark>
      <Placemark>
        <name><![CDATA[Hemköp Göteborg, Nordstan]]></name>
        <description><![CDATA[Hemköp Göteborg, Nordstan, Göteborg]]></description>
        <Point><coordinates>11.967278,57.708731,0</coordinates></Point>
        <styleUrl>#icon-22</styleUrl>
      </Placemark>
      <Placemark>
        <name><![CDATA[Hemköp Göteborg, Vasagatan]]></name>
        <description><![CDATA[Hemköp Göteborg, Vasagatan, Göteborg]]></description>
        <Point><coordinates>11.968144,57.698596,0</coordinates></Point>
        <styleUrl>#icon-22</styleUrl>
      </Placemark>
      <Placemark>
        <name><![CDATA[Hemköp Göteborg, Guldheden]]></name>
        <description><![CDATA[Hemköp Göteborg, Guldheden, Göteborg]]></description>
        <Point><coordinates>11.97183,57.683763,0</coordinates></Point>
        <styleUrl>#icon-22</styleUrl>
      </Placemark>
      <Placemark>
        <name><![CDATA[Hemköp Göteborg, Selma Lagerlöfs Torg]]></name>
        <description><![CDATA[Hemköp Göteborg, Selma Lagerlöfs Torg, Göteborg]]></description>
        <Point><coordinates>11.982529,57.749929,0</coordinates></Point>
        <styleUrl>#icon-22</styleUrl>
      </Placemark>
      <Placemark>
        <name><![CDATA[Hemköp Hedemora]]></name>
        <description><![CDATA[Hemköp Hedemora, Hedemora]]></description>
        <Point><coordinates>11.9865,57.696994,0</coordinates></Point>
        <styleUrl>#icon-22</styleUrl>
      </Placemark>
      <Placemark>
        <name><![CDATA[Hemköp Mölndal, Bifrost]]></name>
        <description><![CDATA[Hemköp Mölndal, Bifrost, Mölndal]]></description>
        <Point><coordinates>11.991533,57.661845,0</coordinates></Point>
        <styleUrl>#icon-22</styleUrl>
      </Placemark>
      <Placemark>
        <name><![CDATA[Hemköp Partille, Sävedalen]]></name>
        <description><![CDATA[Hemköp Partille, Sävedalen, Partille]]></description>
        <Point><coordinates>12.011051,57.666793,0</coordinates></Point>
        <styleUrl>#icon-22</styleUrl>
      </Placemark>
      <Placemark>
        <name><![CDATA[Hemköp Mölndal City]]></name>
        <description><![CDATA[Hemköp Mölndal City, Mölndal]]></description>
        <Point><coordinates>12.012318,57.655063,0</coordinates></Point>
        <styleUrl>#icon-22</styleUrl>
      </Placemark>
      <Placemark>
        <name><![CDATA[Hemköp Onsala]]></name>
        <description><![CDATA[Hemköp Onsala, Onsala]]></description>
        <Point><coordinates>12.019156,57.413442,0</coordinates></Point>
        <styleUrl>#icon-22</styleUrl>
      </Placemark>
      <Placemark>
        <name><![CDATA[Hemköp Göteborg, Kortedala]]></name>
        <description><![CDATA[Hemköp Göteborg, Kortedala, Göteborg]]></description>
        <Point><coordinates>12.031739,57.752373,0</coordinates></Point>
        <styleUrl>#icon-22</styleUrl>
      </Placemark>
      <Placemark>
        <name><![CDATA[Hemköp Kungsbacka]]></name>
        <description><![CDATA[Hemköp Kungsbacka, Kungsbacka]]></description>
        <Point><coordinates>12.076657,57.486564,0</coordinates></Point>
        <styleUrl>#icon-22</styleUrl>
      </Placemark>
      <Placemark>
        <name><![CDATA[Hemköp Kungsbacka, Hålabäck]]></name>
        <description><![CDATA[Hemköp Kungsbacka, Hålabäck, Kungsbacka]]></description>
        <Point><coordinates>12.087582,57.484709,0</coordinates></Point>
        <styleUrl>#icon-22</styleUrl>
      </Placemark>
      <Placemark>
        <name><![CDATA[Hemköp Mölnlycke]]></name>
        <description><![CDATA[Hemköp Mölnlycke, Mölnlycke]]></description>
        <Point><coordinates>12.114032,57.658068,0</coordinates></Point>
        <styleUrl>#icon-22</styleUrl>
      </Placemark>
      <Placemark>
        <name><![CDATA[Hemköp Trollhättan, Kungsgatan]]></name>
        <description><![CDATA[Hemköp Trollhättan, Kungsgatan, Trollhättan]]></description>
        <Point><coordinates>12.29385,58.287053,0</coordinates></Point>
        <styleUrl>#icon-22</styleUrl>
      </Placemark>
      <Placemark>
        <name><![CDATA[Hemköp Trollhättan, Hjortmossen]]></name>
        <description><![CDATA[Hemköp Trollhättan, Hjortmossen, Trollhättan]]></description>
        <Point><coordinates>12.294644,58.275787,0</coordinates></Point>
        <styleUrl>#icon-22</styleUrl>
      </Placemark>
      <Placemark>
        <name><![CDATA[Hemköp Vänersborg, Sundsgatan]]></name>
        <description><![CDATA[Hemköp Vänersborg, Sundsgatan, Vänersborg]]></description>
        <Point><coordinates>12.323403,58.379382,0</coordinates></Point>
        <styleUrl>#icon-22</styleUrl>
      </Placemark>
      <Placemark>
        <name><![CDATA[Hemköp Veddige]]></name>
        <description><![CDATA[Hemköp Veddige, Veddige]]></description>
        <Point><coordinates>12.333777,57.266683,0</coordinates></Point>
        <styleUrl>#icon-22</styleUrl>
      </Placemark>
      <Placemark>
        <name><![CDATA[Hemköp Vänersborg, Torpa]]></name>
        <description><![CDATA[Hemköp Vänersborg, Torpa, Vänersborg]]></description>
        <Point><coordinates>12.335414,58.363727,0</coordinates></Point>
        <styleUrl>#icon-22</styleUrl>
      </Placemark>
      <Placemark>
        <name><![CDATA[Hemköp Mellerud, Torget]]></name>
        <description><![CDATA[Hemköp Mellerud, Torget, Mellerud]]></description>
        <Point><coordinates>12.453129,58.6993,0</coordinates></Point>
        <styleUrl>#icon-22</styleUrl>
      </Placemark>
      <Placemark>
        <name><![CDATA[Hemköp Mellerud, Kvarnkullen]]></name>
        <description><![CDATA[Hemköp Mellerud, Kvarnkullen, Mellerud]]></description>
        <Point><coordinates>12.464208,58.697669,0</coordinates></Point>
        <styleUrl>#icon-22</styleUrl>
      </Placemark>
      <Placemark>
        <name><![CDATA[Hemköp Alingsås]]></name>
        <description><![CDATA[Hemköp Alingsås, Alingsås]]></description>
        <Point><coordinates>12.525598,57.926175,0</coordinates></Point>
        <styleUrl>#icon-22</styleUrl>
      </Placemark>
      <Placemark>
        <name><![CDATA[Hemköp Bollebygd]]></name>
        <description><![CDATA[Hemköp Bollebygd, Borås]]></description>
        <Point><coordinates>12.570183,57.667851,0</coordinates></Point>
        <styleUrl>#icon-22</styleUrl>
      </Placemark>
      <Placemark>
        <name><![CDATA[Hemköp Helsingborg, Laröd]]></name>
        <description><![CDATA[Hemköp Helsingborg, Laröd, Helsingborg]]></description>
        <Point><coordinates>12.654806,56.091142,0</coordinates></Point>
        <styleUrl>#icon-22</styleUrl>
      </Placemark>
      <Placemark>
        <name><![CDATA[Hemköp Haverdal]]></name>
        <description><![CDATA[Hemköp Haverdal, Haverdal]]></description>
        <Point><coordinates>12.666972,56.732341,0</coordinates></Point>
        <styleUrl>#icon-22</styleUrl>
      </Placemark>
      <Placemark>
        <name><![CDATA[Hemköp Grästorp]]></name>
        <description><![CDATA[Hemköp Grästorp, Grästorp]]></description>
        <Point><coordinates>12.676439,58.333454,0</coordinates></Point>
        <styleUrl>#icon-22</styleUrl>
      </Placemark>
      <Placemark>
        <name><![CDATA[Hemköp Kinna]]></name>
        <description><![CDATA[Hemköp Kinna, Kinna]]></description>
        <Point><coordinates>12.696122,57.506744,0</coordinates></Point>
        <styleUrl>#icon-22</styleUrl>
      </Placemark>
      <Placemark>
        <name><![CDATA[Hemköp Helsingborg]]></name>
        <description><![CDATA[Hemköp Helsingborg, Helsingborg]]></description>
        <Point><coordinates>12.701202,56.057177,0</coordinates></Point>
        <styleUrl>#icon-22</styleUrl>
      </Placemark>
      <Placemark>
        <name><![CDATA[Hemköp Nossebro]]></name>
        <description><![CDATA[Hemköp Nossebro, Nossebro]]></description>
        <Point><coordinates>12.721548,58.187752,0</coordinates></Point>
        <styleUrl>#icon-22</styleUrl>
      </Placemark>
      <Placemark>
        <name><![CDATA[Hemköp Helsingborg, Rydebäck]]></name>
        <description><![CDATA[Hemköp Helsingborg, Rydebäck, Helsingborg]]></description>
        <Point><coordinates>12.775027,55.96629,0</coordinates></Point>
        <styleUrl>#icon-22</styleUrl>
      </Placemark>
      <Placemark>
        <name><![CDATA[Hemköp Vårgårda]]></name>
        <description><![CDATA[Hemköp Vårgårda, Vårgårda]]></description>
        <Point><coordinates>12.804854,58.032168,0</coordinates></Point>
        <styleUrl>#icon-22</styleUrl>
      </Placemark>
      <Placemark>
        <name><![CDATA[Hemköp Halmstad, Brogatan]]></name>
        <description><![CDATA[Hemköp Halmstad, Brogatan, Halmstad]]></description>
        <Point><coordinates>12.856584,56.67445,0</coordinates></Point>
        <styleUrl>#icon-22</styleUrl>
      </Placemark>
      <Placemark>
        <name><![CDATA[Hemköp Oskarström]]></name>
        <description><![CDATA[Hemköp Oskarström, Oskarström]]></description>
        <Point><coordinates>12.960037,56.805719,0</coordinates></Point>
        <styleUrl>#icon-22</styleUrl>
      </Placemark>
      <Placemark>
        <name><![CDATA[Hemköp Malmö, Kronprinsen]]></name>
        <description><![CDATA[Hemköp Malmö, Kronprinsen, Malmö]]></description>
        <Point><coordinates>12.98486,55.59885,0</coordinates></Point>
        <styleUrl>#icon-22</styleUrl>
      </Placemark>
      <Placemark>
        <name><![CDATA[Hemköp Sälen, Tandåhallen]]></name>
        <description><![CDATA[Hemköp Sälen, Tandåhallen, Tandådalen]]></description>
        <Point><coordinates>12.992001,61.179732,0</coordinates></Point>
        <styleUrl>#icon-22</styleUrl>
      </Placemark>
      <Placemark>
        <name><![CDATA[Hemköp Malmö, Triangeln]]></name>
        <description><![CDATA[Hemköp Malmö, Triangeln, Malmö]]></description>
        <Point><coordinates>13.003514,55.595346,0</coordinates></Point>
        <styleUrl>#icon-22</styleUrl>
      </Placemark>
      <Placemark>
        <name><![CDATA[Hemköp Herrljunga]]></name>
        <description><![CDATA[Hemköp Herrljunga, Herrljunga]]></description>
        <Point><coordinates>13.020894,58.075913,0</coordinates></Point>
        <styleUrl>#icon-22</styleUrl>
      </Placemark>
      <Placemark>
        <name><![CDATA[Hemköp Malmö, Värnhemstorget]]></name>
        <description><![CDATA[Hemköp Malmö, Värnhemstorget, Malmö]]></description>
        <Point><coordinates>13.022955,55.606135,0</coordinates></Point>
        <styleUrl>#icon-22</styleUrl>
      </Placemark>
      <Placemark>
        <name><![CDATA[Hemköp Lomma]]></name>
        <description><![CDATA[Hemköp Lomma, Lomma]]></description>
        <Point><coordinates>13.070503,55.673507,0</coordinates></Point>
        <styleUrl>#icon-22</styleUrl>
      </Placemark>
      <Placemark>
        <name><![CDATA[Hemköp Lidköping]]></name>
        <description><![CDATA[Hemköp Lidköping, Lidköping]]></description>
        <Point><coordinates>13.153775,58.503374,0</coordinates></Point>
        <styleUrl>#icon-22</styleUrl>
      </Placemark>
      <Placemark>
        <name><![CDATA[Hemköp Lund, Karhögstorg]]></name>
        <description><![CDATA[Hemköp Lund, Karhögstorg, Lund]]></description>
        <Point><coordinates>13.191499,55.694538,0</coordinates></Point>
        <styleUrl>#icon-22</styleUrl>
      </Placemark>
      <Placemark>
        <name><![CDATA[Hemköp Ljungbyhed]]></name>
        <description><![CDATA[Hemköp Ljungbyhed, Ljungbyhed]]></description>
        <Point><coordinates>13.234589,56.073526,0</coordinates></Point>
        <styleUrl>#icon-22</styleUrl>
      </Placemark>
      <Placemark>
        <name><![CDATA[Hemköp Dalby]]></name>
        <description><![CDATA[Hemköp Dalby, Dalby]]></description>
        <Point><coordinates>13.349108,55.664369,0</coordinates></Point>
        <styleUrl>#icon-22</styleUrl>
      </Placemark>
      <Placemark>
        <name><![CDATA[Hemköp Karlstad]]></name>
        <description><![CDATA[Hemköp Karlstad, Karlstad]]></description>
        <Point><coordinates>13.497401,59.3793,0</coordinates></Point>
        <styleUrl>#icon-22</styleUrl>
      </Placemark>
      <Placemark>
        <name><![CDATA[Hemköp Tyringe]]></name>
        <description><![CDATA[Hemköp Tyringe, Tyringe]]></description>
        <Point><coordinates>13.60492,56.160993,0</coordinates></Point>
        <styleUrl>#icon-22</styleUrl>
      </Placemark>
      <Placemark>
        <name><![CDATA[Hemköp Anderstorp]]></name>
        <description><![CDATA[Hemköp Anderstorp, Anderstorp]]></description>
        <Point><coordinates>13.627623,57.275367,0</coordinates></Point>
        <styleUrl>#icon-22</styleUrl>
      </Placemark>
      <Placemark>
        <name><![CDATA[Hemköp Malung]]></name>
        <description><![CDATA[Hemköp Malung, Malung]]></description>
        <Point><coordinates>13.711268,60.684927,0</coordinates></Point>
        <styleUrl>#icon-22</styleUrl>
      </Placemark>
      <Placemark>
        <name><![CDATA[Hemköp Ystad]]></name>
        <description><![CDATA[Hemköp Ystad, Ystad]]></description>
        <Point><coordinates>13.81863,55.432118,0</coordinates></Point>
        <styleUrl>#icon-22</styleUrl>
      </Placemark>
      <Placemark>
        <name><![CDATA[Hemköp Skövde, Rydshallen]]></name>
        <description><![CDATA[Hemköp Skövde, Rydshallen, Skövde]]></description>
        <Point><coordinates>13.871377,58.426011,0</coordinates></Point>
        <styleUrl>#icon-22</styleUrl>
      </Placemark>
      <Placemark>
        <name><![CDATA[Hemköp Ljungby]]></name>
        <description><![CDATA[Hemköp Ljungby, Ljungby]]></description>
        <Point><coordinates>13.933017,56.832354,0</coordinates></Point>
        <styleUrl>#icon-22</styleUrl>
      </Placemark>
      <Placemark>
        <name><![CDATA[Hemköp Tollarp]]></name>
        <description><![CDATA[Hemköp Tollarp, Tollarp]]></description>
        <Point><coordinates>13.974173,55.933999,0</coordinates></Point>
        <styleUrl>#icon-22</styleUrl>
      </Placemark>
      <Placemark>
        <name><![CDATA[Hemköp Värnamo City]]></name>
        <description><![CDATA[Hemköp Värnamo City, Värnamo]]></description>
        <Point><coordinates>14.045769,57.184647,0</coordinates></Point>
        <styleUrl>#icon-22</styleUrl>
      </Placemark>
      <Placemark>
        <name><![CDATA[Hemköp Skillingaryd]]></name>
        <description><![CDATA[Hemköp Skillingaryd, Skillingaryd]]></description>
        <Point><coordinates>14.095346,57.428288,0</coordinates></Point>
        <styleUrl>#icon-22</styleUrl>
      </Placemark>
      <Placemark>
        <name><![CDATA[Hemköp Jönköping]]></name>
        <description><![CDATA[Hemköp Jönköping, Jönköping]]></description>
        <Point><coordinates>14.163205,57.782814,0</coordinates></Point>
        <styleUrl>#icon-22</styleUrl>
      </Placemark>
      <Placemark>
        <name><![CDATA[Hemköp Dala-Järna]]></name>
        <description><![CDATA[Hemköp Dala-Järna, Dala-Järna]]></description>
        <Point><coordinates>14.372685,60.547579,0</coordinates></Point>
        <styleUrl>#icon-22</styleUrl>
      </Placemark>
      <Placemark>
        <name><![CDATA[Hemköp Vrigstad]]></name>
        <description><![CDATA[Hemköp Vrigstad, Vrigstad]]></description>
        <Point><coordinates>14.476475,57.355052,0</coordinates></Point>
        <styleUrl>#icon-22</styleUrl>
      </Placemark>
      <Placemark>
        <name><![CDATA[Hemköp Östersund, Storsjön]]></name>
        <description><![CDATA[Hemköp Östersund, Storsjön, Östersund]]></description>
        <Point><coordinates>14.656911,63.171222,0</coordinates></Point>
        <styleUrl>#icon-22</styleUrl>
      </Placemark>
      <Placemark>
        <name><![CDATA[Hemköp Växjö, Högstorp]]></name>
        <description><![CDATA[Hemköp Växjö, Högstorp, Växjö]]></description>
        <Point><coordinates>14.834753,56.879299,0</coordinates></Point>
        <styleUrl>#icon-22</styleUrl>
      </Placemark>
      <Placemark>
        <name><![CDATA[Hemköp Tranås]]></name>
        <description><![CDATA[Hemköp Tranås, Tranås]]></description>
        <Point><coordinates>14.975685,58.037654,0</coordinates></Point>
        <styleUrl>#icon-22</styleUrl>
      </Placemark>
      <Placemark>
        <name><![CDATA[Hemköp Leksand]]></name>
        <description><![CDATA[Hemköp Leksand, Leksand]]></description>
        <Point><coordinates>14.99718,60.733088,0</coordinates></Point>
        <styleUrl>#icon-22</styleUrl>
      </Placemark>
      <Placemark>
        <name><![CDATA[Hemköp Insjön]]></name>
        <description><![CDATA[Hemköp Insjön, Insjön]]></description>
        <Point><coordinates>15.089832,60.675389,0</coordinates></Point>
        <styleUrl>#icon-22</styleUrl>
      </Placemark>
      <Placemark>
        <name><![CDATA[Hemköp Mjölby Lundby]]></name>
        <description><![CDATA[Hemköp Mjölby Lundby, Mjölby]]></description>
        <Point><coordinates>15.11947,58.31931,0</coordinates></Point>
        <styleUrl>#icon-22</styleUrl>
      </Placemark>
      <Placemark>
        <name><![CDATA[Hemköp Rättvik]]></name>
        <description><![CDATA[Hemköp Rättvik, Rättvik]]></description>
        <Point><coordinates>15.120273,60.882709,0</coordinates></Point>
        <styleUrl>#icon-22</styleUrl>
      </Placemark>
      <Placemark>
        <name><![CDATA[Hemköp Ludvika, Karlavägen]]></name>
        <description><![CDATA[Hemköp Ludvika, Karlavägen, Ludvika]]></description>
        <Point><coordinates>15.185372,60.151384,0</coordinates></Point>
        <styleUrl>#icon-22</styleUrl>
      </Placemark>
      <Placemark>
        <name><![CDATA[Hemköp Örebro, Lucullus]]></name>
        <description><![CDATA[Hemköp Örebro, Lucullus, Örebro]]></description>
        <Point><coordinates>15.215206,59.276426,0</coordinates></Point>
        <styleUrl>#icon-22</styleUrl>
      </Placemark>
      <Placemark>
        <name><![CDATA[Hemköp Lindesberg]]></name>
        <description><![CDATA[Hemköp Lindesberg, Lindesberg]]></description>
        <Point><coordinates>15.22171,59.598846,0</coordinates></Point>
        <styleUrl>#icon-22</styleUrl>
      </Placemark>
      <Placemark>
        <name><![CDATA[Hemköp Borlänge, Paradiset]]></name>
        <description><![CDATA[Hemköp Borlänge, Paradiset, Borlänge]]></description>
        <Point><coordinates>15.398722,60.49375,0</coordinates></Point>
        <styleUrl>#icon-22</styleUrl>
      </Placemark>
      <Placemark>
        <name><![CDATA[Hemköp Borlänge, Södra Backa]]></name>
        <description><![CDATA[Hemköp Borlänge, Södra Backa, Borlänge]]></description>
        <Point><coordinates>15.441177,60.47114,0</coordinates></Point>
        <styleUrl>#icon-22</styleUrl>
      </Placemark>
      <Placemark>
        <name><![CDATA[Hemköp Ljungsbro]]></name>
        <description><![CDATA[Hemköp Ljungsbro, Ljungsbro]]></description>
        <Point><coordinates>15.499826,58.509686,0</coordinates></Point>
        <styleUrl>#icon-22</styleUrl>
      </Placemark>
      <Placemark>
        <name><![CDATA[Hemköp Linköping Ryd]]></name>
        <description><![CDATA[Hemköp Linköping Ryd, Linköping]]></description>
        <Point><coordinates>15.562681,58.408832,0</coordinates></Point>
        <styleUrl>#icon-22</styleUrl>
      </Placemark>
      <Placemark>
        <name><![CDATA[Hemköp Karlskrona]]></name>
        <description><![CDATA[Hemköp Karlskrona, Karlskrona]]></description>
        <Point><coordinates>15.588187,56.162372,0</coordinates></Point>
        <styleUrl>#icon-22</styleUrl>
      </Placemark>
      <Placemark>
        <name><![CDATA[Hemköp Fellingsbro]]></name>
        <description><![CDATA[Hemköp Fellingsbro, Fellingsbro]]></description>
        <Point><coordinates>15.593144,59.434324,0</coordinates></Point>
        <styleUrl>#icon-22</styleUrl>
      </Placemark>
      <Placemark>
        <name><![CDATA[Hemköp Linköping Lucullus]]></name>
        <description><![CDATA[Hemköp Linköping Lucullus, Linköping]]></description>
        <Point><coordinates>15.620371,58.41076,0</coordinates></Point>
        <styleUrl>#icon-22</styleUrl>
      </Placemark>
      <Placemark>
        <name><![CDATA[Hemköp Linköping, City]]></name>
        <description><![CDATA[Hemköp Linköping, City, Linköping]]></description>
        <Point><coordinates>15.627729,58.411349,0</coordinates></Point>
        <styleUrl>#icon-22</styleUrl>
      </Placemark>
      <Placemark>
        <name><![CDATA[Hemköp Kisa]]></name>
        <description><![CDATA[Hemköp Kisa, Kisa]]></description>
        <Point><coordinates>15.632989,57.988624,0</coordinates></Point>
        <styleUrl>#icon-22</styleUrl>
      </Placemark>
      <Placemark>
        <name><![CDATA[Hemköp Falun, City]]></name>
        <description><![CDATA[Hemköp Falun, City, Falun]]></description>
        <Point><coordinates>15.633528,60.605173,0</coordinates></Point>
        <styleUrl>#icon-22</styleUrl>
      </Placemark>
      <Placemark>
        <name><![CDATA[Hemköp Falun, Hosjö]]></name>
        <description><![CDATA[Hemköp Falun, Hosjö, Falun]]></description>
        <Point><coordinates>15.732848,60.590075,0</coordinates></Point>
        <styleUrl>#icon-22</styleUrl>
      </Placemark>
      <Placemark>
        <name><![CDATA[Hemköp Köping]]></name>
        <description><![CDATA[Hemköp Köping, Köping]]></description>
        <Point><coordinates>15.998056,59.513584,0</coordinates></Point>
        <styleUrl>#icon-22</styleUrl>
      </Placemark>
      <Placemark>
        <name><![CDATA[Hemköp Alfta]]></name>
        <description><![CDATA[Hemköp Alfta, Alfta]]></description>
        <Point><coordinates>16.054292,61.346086,0</coordinates></Point>
        <styleUrl>#icon-22</styleUrl>
      </Placemark>
      <Placemark>
        <name><![CDATA[Hemköp Avesta]]></name>
        <description><![CDATA[Hemköp Avesta, Avesta]]></description>
        <Point><coordinates>16.160226,60.142627,0</coordinates></Point>
        <styleUrl>#icon-22</styleUrl>
      </Placemark>
      <Placemark>
        <name><![CDATA[Hemköp Norrköping Kungsgatan]]></name>
        <description><![CDATA[Hemköp Norrköping Kungsgatan, Norrköping]]></description>
        <Point><coordinates>16.178348,58.591505,0</coordinates></Point>
        <styleUrl>#icon-22</styleUrl>
      </Placemark>
      <Placemark>
        <name><![CDATA[Hemköp Norrköping Lasarettsgatan]]></name>
        <description><![CDATA[Hemköp Norrköping Lasarettsgatan, Norrköping]]></description>
        <Point><coordinates>16.179315,58.583879,0</coordinates></Point>
        <styleUrl>#icon-22</styleUrl>
      </Placemark>
      <Placemark>
        <name><![CDATA[Hemköp Kolbäck]]></name>
        <description><![CDATA[Hemköp Kolbäck, Kolbäck]]></description>
        <Point><coordinates>16.233033,59.565375,0</coordinates></Point>
        <styleUrl>#icon-22</styleUrl>
      </Placemark>
      <Placemark>
        <name><![CDATA[Hemköp Norrköping Lindö]]></name>
        <description><![CDATA[Hemköp Norrköping Lindö, Norrköping]]></description>
        <Point><coordinates>16.24524,58.601666,0</coordinates></Point>
        <styleUrl>#icon-22</styleUrl>
      </Placemark>
      <Placemark>
        <name><![CDATA[Hemköp Söderköping]]></name>
        <description><![CDATA[Hemköp Söderköping, Söderköping]]></description>
        <Point><coordinates>16.313751,58.483045,0</coordinates></Point>
        <styleUrl>#icon-22</styleUrl>
      </Placemark>
      <Placemark>
        <name><![CDATA[Hemköp Torshälla]]></name>
        <description><![CDATA[Hemköp Torshälla, Torshälla]]></description>
        <Point><coordinates>16.484914,59.418378,0</coordinates></Point>
        <styleUrl>#icon-22</styleUrl>
      </Placemark>
      <Placemark>
        <name><![CDATA[Hemköp Eskilstuna, City]]></name>
        <description><![CDATA[Hemköp Eskilstuna, City, Eskilstuna]]></description>
        <Point><coordinates>16.516809,59.370615,0</coordinates></Point>
        <styleUrl>#icon-22</styleUrl>
      </Placemark>
      <Placemark>
        <name><![CDATA[Hemköp Eskilstuna, Smeden]]></name>
        <description><![CDATA[Hemköp Eskilstuna, Smeden, Eskilstuna]]></description>
        <Point><coordinates>16.529879,59.37502,0</coordinates></Point>
        <styleUrl>#icon-22</styleUrl>
      </Placemark>
      <Placemark>
        <name><![CDATA[Hemköp Västerås]]></name>
        <description><![CDATA[Hemköp Västerås, Västerås]]></description>
        <Point><coordinates>16.539962,59.608577,0</coordinates></Point>
        <styleUrl>#icon-22</styleUrl>
      </Placemark>
      <Placemark>
        <name><![CDATA[Hemköp Delsbo]]></name>
        <description><![CDATA[Hemköp Delsbo, Delsbo]]></description>
        <Point><coordinates>16.553798,61.800739,0</coordinates></Point>
        <styleUrl>#icon-22</styleUrl>
      </Placemark>
      <Placemark>
        <name><![CDATA[Hemköp Valdemarsvik]]></name>
        <description><![CDATA[Hemköp Valdemarsvik, Valdemarsvik]]></description>
        <Point><coordinates>16.578045,58.216145,0</coordinates></Point>
        <styleUrl>#icon-22</styleUrl>
      </Placemark>
      <Placemark>
        <name><![CDATA[Hemköp Västerås Malmaberg]]></name>
        <description><![CDATA[Hemköp Västerås Malmaberg, Västerås]]></description>
        <Point><coordinates>16.582017,59.62656,0</coordinates></Point>
        <styleUrl>#icon-22</styleUrl>
      </Placemark>
      <Placemark>
        <name><![CDATA[Hemköp Västervik]]></name>
        <description><![CDATA[Hemköp Västervik, Västervik]]></description>
        <Point><coordinates>16.634787,57.757717,0</coordinates></Point>
        <styleUrl>#icon-22</styleUrl>
      </Placemark>
      <Placemark>
        <name><![CDATA[Hemköp Borgholm]]></name>
        <description><![CDATA[Hemköp Borgholm, Borgholm]]></description>
        <Point><coordinates>16.664675,56.875893,0</coordinates></Point>
        <styleUrl>#icon-22</styleUrl>
      </Placemark>
      <Placemark>
        <name><![CDATA[Hemköp Hudiksvall]]></name>
        <description><![CDATA[Hemköp Hudiksvall, Hudiksvall]]></description>
        <Point><coordinates>17.103335,61.729233,0</coordinates></Point>
        <styleUrl>#icon-22</styleUrl>
      </Placemark>
      <Placemark>
        <name><![CDATA[Hemköp Sundsvall, Granlo]]></name>
        <description><![CDATA[Hemköp Sundsvall, Granlo, Sundsvall]]></description>
        <Point><coordinates>17.265411,62.401634,0</coordinates></Point>
        <styleUrl>#icon-22</styleUrl>
      </Placemark>
      <Placemark>
        <name><![CDATA[Hemköp Sundsvall, City]]></name>
        <description><![CDATA[Hemköp Sundsvall, City, Sundsvall]]></description>
        <Point><coordinates>17.306949,62.391985,0</coordinates></Point>
        <styleUrl>#icon-22</styleUrl>
      </Placemark>
      <Placemark>
        <name><![CDATA[Hemköp Gnesta]]></name>
        <description><![CDATA[Hemköp Gnesta, Gnesta]]></description>
        <Point><coordinates>17.32651,59.039943,0</coordinates></Point>
        <styleUrl>#icon-22</styleUrl>
      </Placemark>
      <Placemark>
        <name><![CDATA[Hemköp Vagnhärad]]></name>
        <description><![CDATA[Hemköp Vagnhärad, Vagnhärad]]></description>
        <Point><coordinates>17.485391,58.945841,0</coordinates></Point>
        <styleUrl>#icon-22</styleUrl>
      </Placemark>
      <Placemark>
        <name><![CDATA[Hemköp Bålsta]]></name>
        <description><![CDATA[Hemköp Bålsta, Bålsta]]></description>
        <Point><coordinates>17.5121,59.576884,0</coordinates></Point>
        <styleUrl>#icon-22</styleUrl>
      </Placemark>
      <Placemark>
        <name><![CDATA[Hemköp Tierp]]></name>
        <description><![CDATA[Hemköp Tierp, Tierp]]></description>
        <Point><coordinates>17.513327,60.344217,0</coordinates></Point>
        <styleUrl>#icon-22</styleUrl>
      </Placemark>
      <Placemark>
        <name><![CDATA[Hemköp Björklinge]]></name>
        <description><![CDATA[Hemköp Björklinge, Björklinge]]></description>
        <Point><coordinates>17.55201,60.029363,0</coordinates></Point>
        <styleUrl>#icon-22</styleUrl>
      </Placemark>
      <Placemark>
        <name><![CDATA[Hemköp Uppsala, Västertorg]]></name>
        <description><![CDATA[Hemköp Uppsala, Västertorg, Uppsala]]></description>
        <Point><coordinates>17.602507,59.840786,0</coordinates></Point>
        <styleUrl>#icon-22</styleUrl>
      </Placemark>
      <Placemark>
        <name><![CDATA[Hemköp Södertälje, Ellbe Livs]]></name>
        <description><![CDATA[Hemköp Södertälje, Ellbe Livs, Södertälje]]></description>
        <Point><coordinates>17.631276,59.210798,0</coordinates></Point>
        <styleUrl>#icon-22</styleUrl>
      </Placemark>
      <Placemark>
        <name><![CDATA[Hemköp Uppsala, Svava]]></name>
        <description><![CDATA[Hemköp Uppsala, Svava, Uppsala]]></description>
        <Point><coordinates>17.64255,59.857999,0</coordinates></Point>
        <styleUrl>#icon-22</styleUrl>
      </Placemark>
      <Placemark>
        <name><![CDATA[Hemköp Kramfors]]></name>
        <description><![CDATA[Hemköp Kramfors, Kramfors]]></description>
        <Point><coordinates>17.778883,62.931023,0</coordinates></Point>
        <styleUrl>#icon-22</styleUrl>
      </Placemark>
      <Placemark>
        <name><![CDATA[Hemköp Stäket]]></name>
        <description><![CDATA[Hemköp Stäket, Stäket]]></description>
        <Point><coordinates>17.811915,59.469326,0</coordinates></Point>
        <styleUrl>#icon-22</styleUrl>
      </Placemark>
      <Placemark>
        <name><![CDATA[Hemköp Stockholm, Hässelby Strand]]></name>
        <description><![CDATA[Hemköp Stockholm, Hässelby Strand, Hässelby]]></description>
        <Point><coordinates>17.832622,59.360357,0</coordinates></Point>
        <styleUrl>#icon-22</styleUrl>
      </Placemark>
      <Placemark>
        <name><![CDATA[Hemköp Tumba, Storvreten]]></name>
        <description><![CDATA[Hemköp Tumba, Storvreten, Tumba]]></description>
        <Point><coordinates>17.83617,59.1918,0</coordinates></Point>
        <styleUrl>#icon-22</styleUrl>
      </Placemark>
      <Placemark>
        <name><![CDATA[Hemköp Stockholm, Jakobsbergs Centrum]]></name>
        <description><![CDATA[Hemköp Stockholm, Jakobsbergs Centrum, Jakobsberg]]></description>
        <Point><coordinates>17.836656,59.423601,0</coordinates></Point>
        <styleUrl>#icon-22</styleUrl>
      </Placemark>
      <Placemark>
        <name><![CDATA[Hemköp Stockholm, Vällingby]]></name>
        <description><![CDATA[Hemköp Stockholm, Vällingby, Vällingby]]></description>
        <Point><coordinates>17.873013,59.361795,0</coordinates></Point>
        <styleUrl>#icon-22</styleUrl>
      </Placemark>
      <Placemark>
        <name><![CDATA[Hemköp Stockholm, Blackeberg C]]></name>
        <description><![CDATA[Hemköp Stockholm, Blackeberg C, Blackeberg]]></description>
        <Point><coordinates>17.884884,59.347775,0</coordinates></Point>
        <styleUrl>#icon-22</styleUrl>
      </Placemark>
      <Placemark>
        <name><![CDATA[Hemköp Stockholm, Upplands Väsby]]></name>
        <description><![CDATA[Hemköp Stockholm, Upplands Väsby, Upplands Väsby]]></description>
        <Point><coordinates>17.889377,59.516426,0</coordinates></Point>
        <styleUrl>#icon-22</styleUrl>
      </Placemark>
      <Placemark>
        <name><![CDATA[Hemköp Tullinge]]></name>
        <description><![CDATA[Hemköp Tullinge, Tullinge]]></description>
        <Point><coordinates>17.905695,59.207049,0</coordinates></Point>
        <styleUrl>#icon-22</styleUrl>
      </Placemark>
      <Placemark>
        <name><![CDATA[Hemköp Stockholm, Ängby Torg]]></name>
        <description><![CDATA[Hemköp Stockholm, Ängby Torg, Stockholm]]></description>
        <Point><coordinates>17.908458,59.347145,0</coordinates></Point>
        <styleUrl>#icon-22</styleUrl>
      </Placemark>
      <Placemark>
        <name><![CDATA[Hemköp Sollentuna, Rotehallen]]></name>
        <description><![CDATA[Hemköp Sollentuna, Rotehallen, Sollentuna]]></description>
        <Point><coordinates>17.911926,59.476795,0</coordinates></Point>
        <styleUrl>#icon-22</styleUrl>
      </Placemark>
      <Placemark>
        <name><![CDATA[Hemköp Stockholm, Bredäng]]></name>
        <description><![CDATA[Hemköp Stockholm, Bredäng, Bredäng]]></description>
        <Point><coordinates>17.934966,59.295476,0</coordinates></Point>
        <styleUrl>#icon-22</styleUrl>
      </Placemark>
      <Placemark>
        <name><![CDATA[Hemköp Härnösand]]></name>
        <description><![CDATA[Hemköp Härnösand, Härnösand]]></description>
        <Point><coordinates>17.939378,62.631603,0</coordinates></Point>
        <styleUrl>#icon-22</styleUrl>
      </Placemark>
      <Placemark>
        <name><![CDATA[Hemköp Sundbyberg, Rissne]]></name>
        <description><![CDATA[Hemköp Sundbyberg, Rissne, Sundbyberg]]></description>
        <Point><coordinates>17.940392,59.376252,0</coordinates></Point>
        <styleUrl>#icon-22</styleUrl>
      </Placemark>
      <Placemark>
        <name><![CDATA[Hemköp Stockholm, Fruängen C]]></name>
        <description><![CDATA[Hemköp Stockholm, Fruängen C, Fruängen]]></description>
        <Point><coordinates>17.964221,59.285669,0</coordinates></Point>
        <styleUrl>#icon-22</styleUrl>
      </Placemark>
      <Placemark>
        <name><![CDATA[Hemköp Stockholm, Gesters]]></name>
        <description><![CDATA[Hemköp Stockholm, Gesters, Stockholm]]></description>
        <Point><coordinates>17.967721,59.293134,0</coordinates></Point>
        <styleUrl>#icon-22</styleUrl>
      </Placemark>
      <Placemark>
        <name><![CDATA[Hemköp Huddinge, Matbörsen]]></name>
        <description><![CDATA[Hemköp Huddinge, Matbörsen, Huddinge]]></description>
        <Point><coordinates>17.970924,59.253684,0</coordinates></Point>
        <styleUrl>#icon-22</styleUrl>
      </Placemark>
      <Placemark>
        <name><![CDATA[Hemköp Sundbyberg, Sturegatan]]></name>
        <description><![CDATA[Hemköp Sundbyberg, Sturegatan, Sundbyberg]]></description>
        <Point><coordinates>17.973368,59.361231,0</coordinates></Point>
        <styleUrl>#icon-22</styleUrl>
      </Placemark>
      <Placemark>
        <name><![CDATA[Hemköp Stockholm, Huddinge Centrum]]></name>
        <description><![CDATA[Hemköp Stockholm, Huddinge Centrum, Huddinge]]></description>
        <Point><coordinates>17.98105,59.236335,0</coordinates></Point>
        <styleUrl>#icon-22</styleUrl>
      </Placemark>
      <Placemark>
        <name><![CDATA[Hemköp Solna, Huvudsta C]]></name>
        <description><![CDATA[Hemköp Solna, Huvudsta C, Solna]]></description>
        <Point><coordinates>17.98702,59.349695,0</coordinates></Point>
        <styleUrl>#icon-22</styleUrl>
      </Placemark>
      <Placemark>
        <name><![CDATA[Hemköp Stockholm, Telefonplan]]></name>
        <description><![CDATA[Hemköp Stockholm, Telefonplan, Stockholm]]></description>
        <Point><coordinates>17.997019,59.298971,0</coordinates></Point>
        <styleUrl>#icon-22</styleUrl>
      </Placemark>
      <Placemark>
        <name><![CDATA[Hemköp Solna, Rapidköp]]></name>
        <description><![CDATA[Hemköp Solna, Rapidköp, Solna]]></description>
        <Point><coordinates>17.997611,59.353827,0</coordinates></Point>
        <styleUrl>#icon-22</styleUrl>
      </Placemark>
      <Placemark>
        <name><![CDATA[Hemköp Sollentuna, Sjöbergshallen]]></name>
        <description><![CDATA[Hemköp Sollentuna, Sjöbergshallen, Sollentuna]]></description>
        <Point><coordinates>17.999167,59.430526,0</coordinates></Point>
        <styleUrl>#icon-22</styleUrl>
      </Placemark>
      <Placemark>
        <name><![CDATA[Hemköp Solna, Ulriksdal]]></name>
        <description><![CDATA[Hemköp Solna, Ulriksdal, Ulriksdal]]></description>
        <Point><coordinates>17.99924,59.380831,0</coordinates></Point>
        <styleUrl>#icon-22</styleUrl>
      </Placemark>
      <Placemark>
        <name><![CDATA[Hemköp Solna Centrum]]></name>
        <description><![CDATA[Hemköp Solna Centrum, Solna]]></description>
        <Point><coordinates>18.000854,59.359522,0</coordinates></Point>
        <styleUrl>#icon-22</styleUrl>
      </Placemark>
      <Placemark>
        <name><![CDATA[Hemköp Stockholm, Älvsjöhallen]]></name>
        <description><![CDATA[Hemköp Stockholm, Älvsjöhallen, Älvsjö]]></description>
        <Point><coordinates>18.00229,59.278624,0</coordinates></Point>
        <styleUrl>#icon-22</styleUrl>
      </Placemark>
      <Placemark>
        <name><![CDATA[Hemköp Stockholm, Götahallen]]></name>
        <description><![CDATA[Hemköp Stockholm, Götahallen, Stockholm]]></description>
        <Point><coordinates>18.01348,59.280827,0</coordinates></Point>
        <styleUrl>#icon-22</styleUrl>
      </Placemark>
      <Placemark>
        <name><![CDATA[Hemköp Solna, Frösunda Boulevard]]></name>
        <description><![CDATA[Hemköp Solna, Frösunda Boulevard, Solna]]></description>
        <Point><coordinates>18.016114,59.371818,0</coordinates></Point>
        <styleUrl>#icon-22</styleUrl>
      </Placemark>
      <Placemark>
        <name><![CDATA[Hemköp Stockholm, Matpressen]]></name>
        <description><![CDATA[Hemköp Stockholm, Matpressen, Stockholm]]></description>
        <Point><coordinates>18.017817,59.328079,0</coordinates></Point>
        <styleUrl>#icon-22</styleUrl>
      </Placemark>
      <Placemark>
        <name><![CDATA[Hemköp Stockholm, Örby]]></name>
        <description><![CDATA[Hemköp Stockholm, Örby, Stockholm]]></description>
        <Point><coordinates>18.024922,59.274316,0</coordinates></Point>
        <styleUrl>#icon-22</styleUrl>
      </Placemark>
      <Placemark>
        <name><![CDATA[Hemköp Stockholm, Sjövikshallen]]></name>
        <description><![CDATA[Hemköp Stockholm, Sjövikshallen, Stockholm]]></description>
        <Point><coordinates>18.029581,59.307291,0</coordinates></Point>
        <styleUrl>#icon-22</styleUrl>
      </Placemark>
      <Placemark>
        <name><![CDATA[Hemköp Stockholm, Hornstull]]></name>
        <description><![CDATA[Hemköp Stockholm, Hornstull, Stockholm]]></description>
        <Point><coordinates>18.034058,59.316286,0</coordinates></Point>
        <styleUrl>#icon-22</styleUrl>
      </Placemark>
      <Placemark>
        <name><![CDATA[Hemköp Stockholm, Mörby]]></name>
        <description><![CDATA[Hemköp Stockholm, Mörby, Danderyd]]></description>
        <Point><coordinates>18.036646,59.397872,0</coordinates></Point>
        <styleUrl>#icon-22</styleUrl>
      </Placemark>
      <Placemark>
        <name><![CDATA[Hemköp Stockholm, Odenplan]]></name>
        <description><![CDATA[Hemköp Stockholm, Odenplan, Stockholm]]></description>
        <Point><coordinates>18.046018,59.343056,0</coordinates></Point>
        <styleUrl>#icon-22</styleUrl>
      </Placemark>
      <Placemark>
        <name><![CDATA[Hemköp Stockholm, Wasahallen]]></name>
        <description><![CDATA[Hemköp Stockholm, Wasahallen, Stockholm]]></description>
        <Point><coordinates>18.051555,59.339985,0</coordinates></Point>
        <styleUrl>#icon-22</styleUrl>
      </Placemark>
      <Placemark>
        <name><![CDATA[Hemköp Stockholm, Mariahallen]]></name>
        <description><![CDATA[Hemköp Stockholm, Mariahallen, Stockholm]]></description>
        <Point><coordinates>18.057318,59.318249,0</coordinates></Point>
        <styleUrl>#icon-22</styleUrl>
      </Placemark>
      <Placemark>
        <name><![CDATA[Hemköp Stockholm, City]]></name>
        <description><![CDATA[Hemköp Stockholm, City, Stockholm]]></description>
        <Point><coordinates>18.064488,59.332788,0</coordinates></Point>
        <styleUrl>#icon-22</styleUrl>
      </Placemark>
      <Placemark>
        <name><![CDATA[Hemköp Stockholm, Fatburen]]></name>
        <description><![CDATA[Hemköp Stockholm, Fatburen, Stockholm]]></description>
        <Point><coordinates>18.065493,59.314645,0</coordinates></Point>
        <styleUrl>#icon-22</styleUrl>
      </Placemark>
      <Placemark>
        <name><![CDATA[Hemköp Täby Centrum]]></name>
        <description><![CDATA[Hemköp Täby Centrum, Täby]]></description>
        <Point><coordinates>18.071526,59.445094,0</coordinates></Point>
        <styleUrl>#icon-22</styleUrl>
      </Placemark>
      <Placemark>
        <name><![CDATA[Hemköp Stockholm, Skanstull]]></name>
        <description><![CDATA[Hemköp Stockholm, Skanstull, Stockholm]]></description>
        <Point><coordinates>18.075518,59.307179,0</coordinates></Point>
        <styleUrl>#icon-22</styleUrl>
      </Placemark>
      <Placemark>
        <name><![CDATA[Hemköp Stockholm, Östermalmstorg]]></name>
        <description><![CDATA[Hemköp Stockholm, Östermalmstorg, Stockholm]]></description>
        <Point><coordinates>18.07846,59.336347,0</coordinates></Point>
        <styleUrl>#icon-22</styleUrl>
      </Placemark>
      <Placemark>
        <name><![CDATA[Hemköp Stockholm, Gullmarsplan]]></name>
        <description><![CDATA[Hemköp Stockholm, Gullmarsplan, Stockholm]]></description>
        <Point><coordinates>18.07906,59.298464,0</coordinates></Point>
        <styleUrl>#icon-22</styleUrl>
      </Placemark>
      <Placemark>
        <name><![CDATA[Hemköp Täby, Alléns Livs]]></name>
        <description><![CDATA[Hemköp Täby, Alléns Livs, Täby]]></description>
        <Point><coordinates>18.085191,59.427388,0</coordinates></Point>
        <styleUrl>#icon-22</styleUrl>
      </Placemark>
      <Placemark>
        <name><![CDATA[Hemköp Stockholm, Matglädjen]]></name>
        <description><![CDATA[Hemköp Stockholm, Matglädjen, Stockholm]]></description>
        <Point><coordinates>18.086326,59.342967,0</coordinates></Point>
        <styleUrl>#icon-22</styleUrl>
      </Placemark>
      <Placemark>
        <name><![CDATA[Hemköp Stockholm, Fältöversten]]></name>
        <description><![CDATA[Hemköp Stockholm, Fältöversten, Stockholm]]></description>
        <Point><coordinates>18.091325,59.337679,0</coordinates></Point>
        <styleUrl>#icon-22</styleUrl>
      </Placemark>
      <Placemark>
        <name><![CDATA[Hemköp Stockholm, Farsta]]></name>
        <description><![CDATA[Hemköp Stockholm, Farsta, Farsta]]></description>
        <Point><coordinates>18.091325,59.243004,0</coordinates></Point>
        <styleUrl>#icon-22</styleUrl>
      </Placemark>
      <Placemark>
        <name><![CDATA[Hemköp Täby, Näsby Park]]></name>
        <description><![CDATA[Hemköp Täby, Näsby Park, Täby]]></description>
        <Point><coordinates>18.094869,59.430189,0</coordinates></Point>
        <styleUrl>#icon-22</styleUrl>
      </Placemark>
      <Placemark>
        <name><![CDATA[Hemköp Västerhaninge C]]></name>
        <description><![CDATA[Hemköp Västerhaninge C, Västerhaninge]]></description>
        <Point><coordinates>18.107008,59.123007,0</coordinates></Point>
        <styleUrl>#icon-22</styleUrl>
      </Placemark>
      <Placemark>
        <name><![CDATA[Hemköp Stockholm, Sköndal C]]></name>
        <description><![CDATA[Hemköp Stockholm, Sköndal C, Sköndal]]></description>
        <Point><coordinates>18.114186,59.255463,0</coordinates></Point>
        <styleUrl>#icon-22</styleUrl>
      </Placemark>
      <Placemark>
        <name><![CDATA[Hemköp Stockholm, Skarpnäck]]></name>
        <description><![CDATA[Hemköp Stockholm, Skarpnäck, Enskede]]></description>
        <Point><coordinates>18.122067,59.263259,0</coordinates></Point>
        <styleUrl>#icon-22</styleUrl>
      </Placemark>
      <Placemark>
        <name><![CDATA[Hemköp Haninge C]]></name>
        <description><![CDATA[Hemköp Haninge C, Haninge]]></description>
        <Point><coordinates>18.139651,59.168735,0</coordinates></Point>
        <styleUrl>#icon-22</styleUrl>
      </Placemark>
      <Placemark>
        <name><![CDATA[Hemköp Haninge, Vendelsö]]></name>
        <description><![CDATA[Hemköp Haninge, Vendelsö, Haninge]]></description>
        <Point><coordinates>18.191514,59.199801,0</coordinates></Point>
        <styleUrl>#icon-22</styleUrl>
      </Placemark>
      <Placemark>
        <name><![CDATA[Hemköp Tyresö, Arno Livs]]></name>
        <description><![CDATA[Hemköp Tyresö, Arno Livs, Tyresö]]></description>
        <Point><coordinates>18.200365,59.223287,0</coordinates></Point>
        <styleUrl>#icon-22</styleUrl>
      </Placemark>
      <Placemark>
        <name><![CDATA[Hemköp Lidingö, Brevik C]]></name>
        <description><![CDATA[Hemköp Lidingö, Brevik C, Lidingö]]></description>
        <Point><coordinates>18.205204,59.348292,0</coordinates></Point>
        <styleUrl>#icon-22</styleUrl>
      </Placemark>
      <Placemark>
        <name><![CDATA[Hemköp Lännersta]]></name>
        <description><![CDATA[Hemköp Lännersta, Lännersta]]></description>
        <Point><coordinates>18.26045,59.31402,0</coordinates></Point>
        <styleUrl>#icon-22</styleUrl>
      </Placemark>
      <Placemark>
        <name><![CDATA[Hemköp Åkersberga, Favoriten]]></name>
        <description><![CDATA[Hemköp Åkersberga, Favoriten, Åkersberga]]></description>
        <Point><coordinates>18.331252,59.472144,0</coordinates></Point>
        <styleUrl>#icon-22</styleUrl>
      </Placemark>
      <Placemark>
        <name><![CDATA[Hemköp Östhammar]]></name>
        <description><![CDATA[Hemköp Östhammar, Östhammar]]></description>
        <Point><coordinates>18.36212,60.260227,0</coordinates></Point>
        <styleUrl>#icon-22</styleUrl>
      </Placemark>
      <Placemark>
        <name><![CDATA[Hemköp Värmdö]]></name>
        <description><![CDATA[Hemköp Värmdö, Värmdö]]></description>
        <Point><coordinates>18.421648,59.311806,0</coordinates></Point>
        <styleUrl>#icon-22</styleUrl>
      </Placemark>
      <Placemark>
        <name><![CDATA[Hemköp Domsjö]]></name>
        <description><![CDATA[Hemköp Domsjö, Domsjö]]></description>
        <Point><coordinates>18.691043,63.267225,0</coordinates></Point>
        <styleUrl>#icon-22</styleUrl>
      </Placemark>
      <Placemark>
        <name><![CDATA[Hemköp Örnsköldsvik, Stora torget]]></name>
        <description><![CDATA[Hemköp Örnsköldsvik, Stora torget, Örnsköldsvik]]></description>
        <Point><coordinates>18.715445,63.289165,0</coordinates></Point>
        <styleUrl>#icon-22</styleUrl>
      </Placemark>
    </Folder>
  </Document>
</kml>