<?xml version="1.0" encoding="UTF-8"?>
<kml xmlns="http://www.opengis.net/kml/2.2">
  <Document>
    <name><![CDATA[Hemmakväll]]></name>
    <description/>
    <Style id="icon-22-normal"><IconStyle><scale>1.1</scale><Icon><href>https://www.gstatic.com/mapspro/images/stock/22-blue-dot.png</href></Icon><hotSpot x="16" xunits="pixels" y="32" yunits="insetPixels"/></IconStyle><LabelStyle><scale>0</scale></LabelStyle></Style>
    <Style id="icon-22-highlight"><IconStyle><scale>1.1</scale><Icon><href>https://www.gstatic.com/mapspro/images/stock/22-blue-dot.png</href></Icon><hotSpot x="16" xunits="pixels" y="32" yunits="insetPixels"/></IconStyle><LabelStyle><scale>1.1</scale></LabelStyle></Style>
    <StyleMap id="icon-22"><Pair><key>normal</key><styleUrl>#icon-22-normal</styleUrl></Pair><Pair><key>highlight</key><styleUrl>#icon-22-highlight</styleUrl></Pair></StyleMap>
    <Folder>
      <name><![CDATA[Hemmakväll]]></name>
      <Placemark>
        <name><![CDATA[Hemmakväll Stenungsund]]></name>
        <description><![CDATA[Hemmakväll Stenungsund, Stenungsund, Sverige]]></description>
        <Point><coordinates>11.817984,58.068614,0</coordinates></Point>
        <styleUrl>#icon-22</styleUrl>
      </Placemark>
      <Placemark>
        <name><![CDATA[Hemmakväll Frölunda Torg]]></name>
        <description><![CDATA[Hemmakväll Frölunda Torg, Västra Frölunda, Sverige]]></description>
        <Point><coordinates>11.910338,57.650893,0</coordinates></Point>
        <styleUrl>#icon-22</styleUrl>
      </Placemark>
      <Placemark>
        <name><![CDATA[Hemmakväll Uddevalla]]></name>
        <description><![CDATA[Hemmakväll Uddevalla, Uddevalla, Sverige]]></description>
        <Point><coordinates>11.934468,58.349845,0</coordinates></Point>
        <styleUrl>#icon-22</styleUrl>
      </Placemark>
      <Placemark>
        <name><![CDATA[Hemmakväll Kongahälla]]></name>
        <description><![CDATA[Hemmakväll Kongahälla, Kungälv, Sverige]]></description>
        <Point><coordinates>11.967844,57.874702,0</coordinates></Point>
        <styleUrl>#icon-22</styleUrl>
      </Placemark>
      <Placemark>
        <name><![CDATA[Hemmakväll Göteborg]]></name>
        <description><![CDATA[Hemmakväll Göteborg, Göteborg, Sverige]]></description>
        <Point><coordinates>11.984009,57.709781,0</coordinates></Point>
        <styleUrl>#icon-22</styleUrl>
      </Placemark>
      <Placemark>
        <name><![CDATA[Hemmakväll Mölndal]]></name>
        <description><![CDATA[Hemmakväll Mölndal, Mölndal, Sverige]]></description>
        <Point><coordinates>12.016106,57.656692,0</coordinates></Point>
        <styleUrl>#icon-22</styleUrl>
      </Placemark>
      <Placemark>
        <name><![CDATA[Hemmakväll Kungsbacka]]></name>
        <description><![CDATA[Hemmakväll Kungsbacka, Kungsbacka, Sverige]]></description>
        <Point><coordinates>12.077751,57.486279,0</coordinates></Point>
        <styleUrl>#icon-22</styleUrl>
      </Placemark>
      <Placemark>
        <name><![CDATA[Hemmakväll Mölnlycke]]></name>
        <description><![CDATA[Hemmakväll Mölnlycke, Mölnlycke, Sverige]]></description>
        <Point><coordinates>12.114502,57.664274,0</coordinates></Point>
        <styleUrl>#icon-22</styleUrl>
      </Placemark>
      <Placemark>
        <name><![CDATA[Hemmakväll Varberg]]></name>
        <description><![CDATA[Hemmakväll Varberg, Varberg, Sverige]]></description>
        <Point><coordinates>12.247528,57.106002,0</coordinates></Point>
        <styleUrl>#icon-22</styleUrl>
      </Placemark>
      <Placemark>
        <name><![CDATA[Hemmakväll Trollhättan]]></name>
        <description><![CDATA[Hemmakväll Trollhättan, Trollhättan, Sverige]]></description>
        <Point><coordinates>12.28958,58.284827,0</coordinates></Point>
        <styleUrl>#icon-22</styleUrl>
      </Placemark>
      <Placemark>
        <name><![CDATA[Hemmakväll Värnersborg]]></name>
        <description><![CDATA[Hemmakväll Värnersborg, Vänersborg, Sverige]]></description>
        <Point><coordinates>12.322439,58.380574,0</coordinates></Point>
        <styleUrl>#icon-22</styleUrl>
      </Placemark>
      <Placemark>
        <name><![CDATA[Hemmakväll Värnersborg]]></name>
        <description><![CDATA[Hemmakväll Värnersborg, Vänersborg, Sverige]]></description>
        <Point><coordinates>12.322445,58.38058,0</coordinates></Point>
        <styleUrl>#icon-22</styleUrl>
      </Placemark>
      <Placemark>
        <name><![CDATA[Hemmakväll Falkenberg]]></name>
        <description><![CDATA[Hemmakväll Falkenberg, Falkenberg, Sverige]]></description>
        <Point><coordinates>12.493055,56.905973,0</coordinates></Point>
        <styleUrl>#icon-22</styleUrl>
      </Placemark>
      <Placemark>
        <name><![CDATA[Hemmakväll Helsingborg]]></name>
        <description><![CDATA[Hemmakväll Helsingborg, Helsingborg, Sverige]]></description>
        <Point><coordinates>12.696609,56.055647,0</coordinates></Point>
        <styleUrl>#icon-22</styleUrl>
      </Placemark>
      <Placemark>
        <name><![CDATA[Helsingborg Söder]]></name>
        <description><![CDATA[Helsingborg Söder, Helsingborg, Sverige]]></description>
        <Point><coordinates>12.700741,56.041126,0</coordinates></Point>
        <styleUrl>#icon-22</styleUrl>
      </Placemark>
      <Placemark>
        <name><![CDATA[Hemmakväll Maria Park]]></name>
        <description><![CDATA[Hemmakväll Maria Park, Helsingborg, Sverige]]></description>
        <Point><coordinates>12.70564,56.081155,0</coordinates></Point>
        <styleUrl>#icon-22</styleUrl>
      </Placemark>
      <Placemark>
        <name><![CDATA[Hemmakväll Väla]]></name>
        <description><![CDATA[Hemmakväll Väla, Ödåkra, Sverige]]></description>
        <Point><coordinates>12.757102,56.091522,0</coordinates></Point>
        <styleUrl>#icon-22</styleUrl>
      </Placemark>
      <Placemark>
        <name><![CDATA[Hemmakväll Landskrona]]></name>
        <description><![CDATA[Hemmakväll Landskrona, Landskrona, Sverige]]></description>
        <Point><coordinates>12.832168,55.870492,0</coordinates></Point>
        <styleUrl>#icon-22</styleUrl>
      </Placemark>
      <Placemark>
        <name><![CDATA[Hemmakväll Halmstad]]></name>
        <description><![CDATA[Hemmakväll Halmstad, Halmstad, Sverige]]></description>
        <Point><coordinates>12.8584,56.678102,0</coordinates></Point>
        <styleUrl>#icon-22</styleUrl>
      </Placemark>
      <Placemark>
        <name><![CDATA[Hemmakväll Ängelholm]]></name>
        <description><![CDATA[Hemmakväll Ängelholm, Ängelholm, Sverige]]></description>
        <Point><coordinates>12.862564,56.244187,0</coordinates></Point>
        <styleUrl>#icon-22</styleUrl>
      </Placemark>
      <Placemark>
        <name><![CDATA[Halmstad Hallarna]]></name>
        <description><![CDATA[Halmstad Hallarna, Halmstad, Sverige]]></description>
        <Point><coordinates>12.909338,56.655399,0</coordinates></Point>
        <styleUrl>#icon-22</styleUrl>
      </Placemark>
      <Placemark>
        <name><![CDATA[Hemmakväll Limhamn]]></name>
        <description><![CDATA[Hemmakväll Limhamn, Limhamn, Sverige]]></description>
        <Point><coordinates>12.930202,55.581987,0</coordinates></Point>
        <styleUrl>#icon-22</styleUrl>
      </Placemark>
      <Placemark>
        <name><![CDATA[Hemmakväll Borås]]></name>
        <description><![CDATA[Hemmakväll Borås, Borås, Sverige]]></description>
        <Point><coordinates>12.938106,57.720544,0</coordinates></Point>
        <styleUrl>#icon-22</styleUrl>
      </Placemark>
      <Placemark>
        <name><![CDATA[Hemmakväll Höllviken]]></name>
        <description><![CDATA[Hemmakväll Höllviken, Höllviken, Sverige]]></description>
        <Point><coordinates>12.965358,55.42707,0</coordinates></Point>
        <styleUrl>#icon-22</styleUrl>
      </Placemark>
      <Placemark>
        <name><![CDATA[Hemmakväll Malmö]]></name>
        <description><![CDATA[Hemmakväll Malmö, Malmö, Sverige]]></description>
        <Point><coordinates>12.972794,55.597985,0</coordinates></Point>
        <styleUrl>#icon-22</styleUrl>
      </Placemark>
      <Placemark>
        <name><![CDATA[Hemmakväll Emporia]]></name>
        <description><![CDATA[Hemmakväll Emporia, Malmö, Sverige]]></description>
        <Point><coordinates>12.973536,55.56438,0</coordinates></Point>
        <styleUrl>#icon-22</styleUrl>
      </Placemark>
      <Placemark>
        <name><![CDATA[Hemmakväll Emporia]]></name>
        <description><![CDATA[Hemmakväll Emporia, Malmö, Sverige]]></description>
        <Point><coordinates>12.974616,55.563615,0</coordinates></Point>
        <styleUrl>#icon-22</styleUrl>
      </Placemark>
      <Placemark>
        <name><![CDATA[Hemmakväll Triangeln]]></name>
        <description><![CDATA[Hemmakväll Triangeln, Malmö, Sverige]]></description>
        <Point><coordinates>13.001429,55.595163,0</coordinates></Point>
        <styleUrl>#icon-22</styleUrl>
      </Placemark>
      <Placemark>
        <name><![CDATA[Hemmakväll Malmö]]></name>
        <description><![CDATA[Hemmakväll Malmö, Malmö, Sverige]]></description>
        <Point><coordinates>13.007349,55.600302,0</coordinates></Point>
        <styleUrl>#icon-22</styleUrl>
      </Placemark>
      <Placemark>
        <name><![CDATA[Hemmakväll Trelleborg]]></name>
        <description><![CDATA[Hemmakväll Trelleborg, Trelleborg, Sverige]]></description>
        <Point><coordinates>13.153719,55.374293,0</coordinates></Point>
        <styleUrl>#icon-22</styleUrl>
      </Placemark>
      <Placemark>
        <name><![CDATA[Hemmakväll Lidköping]]></name>
        <description><![CDATA[Hemmakväll Lidköping, Lidköping, Sverige]]></description>
        <Point><coordinates>13.162216,58.502774,0</coordinates></Point>
        <styleUrl>#icon-22</styleUrl>
      </Placemark>
      <Placemark>
        <name><![CDATA[Hemmakväll Lund]]></name>
        <description><![CDATA[Hemmakväll Lund, Lund, Sverige]]></description>
        <Point><coordinates>13.195189,55.700902,0</coordinates></Point>
        <styleUrl>#icon-22</styleUrl>
      </Placemark>
      <Placemark>
        <name><![CDATA[Hemmakväll Staffanstorp]]></name>
        <description><![CDATA[Hemmakväll Staffanstorp, Staffanstorp, Sverige]]></description>
        <Point><coordinates>13.21432,55.640648,0</coordinates></Point>
        <styleUrl>#icon-22</styleUrl>
      </Placemark>
      <Placemark>
        <name><![CDATA[Hemmakväll Karlstad]]></name>
        <description><![CDATA[Hemmakväll Karlstad, Karlstad, Sverige]]></description>
        <Point><coordinates>13.504791,59.38133,0</coordinates></Point>
        <styleUrl>#icon-22</styleUrl>
      </Placemark>
      <Placemark>
        <name><![CDATA[Hemmakväll Hässleholm]]></name>
        <description><![CDATA[Hemmakväll Hässleholm, Hässleholm, Sverige]]></description>
        <Point><coordinates>13.767429,56.156869,0</coordinates></Point>
        <styleUrl>#icon-22</styleUrl>
      </Placemark>
      <Placemark>
        <name><![CDATA[Hemmakväll Mariestad]]></name>
        <description><![CDATA[Hemmakväll Mariestad, Mariestad, Sverige]]></description>
        <Point><coordinates>13.823022,58.709857,0</coordinates></Point>
        <styleUrl>#icon-22</styleUrl>
      </Placemark>
      <Placemark>
        <name><![CDATA[Hemmakväll Ystad]]></name>
        <description><![CDATA[Hemmakväll Ystad, Ystad, Sverige]]></description>
        <Point><coordinates>13.825139,55.43028,0</coordinates></Point>
        <styleUrl>#icon-22</styleUrl>
      </Placemark>
      <Placemark>
        <name><![CDATA[Hemmakväll Skövde City]]></name>
        <description><![CDATA[Hemmakväll Skövde City, Skövde, Sverige]]></description>
        <Point><coordinates>13.84764,58.390463,0</coordinates></Point>
        <styleUrl>#icon-22</styleUrl>
      </Placemark>
      <Placemark>
        <name><![CDATA[Hemmakväll Kristianstad]]></name>
        <description><![CDATA[Hemmakväll Kristianstad, Kristianstad, Sverige]]></description>
        <Point><coordinates>14.157624,56.030819,0</coordinates></Point>
        <styleUrl>#icon-22</styleUrl>
      </Placemark>
      <Placemark>
        <name><![CDATA[Hemmakväll Jönköping]]></name>
        <description><![CDATA[Hemmakväll Jönköping, Jönköping, Sverige]]></description>
        <Point><coordinates>14.173736,57.781363,0</coordinates></Point>
        <styleUrl>#icon-22</styleUrl>
      </Placemark>
      <Placemark>
        <name><![CDATA[Hemmakväll C4 Kristianstad]]></name>
        <description><![CDATA[Hemmakväll C4 Kristianstad, Kristianstad, Sverige]]></description>
        <Point><coordinates>14.197162,56.023064,0</coordinates></Point>
        <styleUrl>#icon-22</styleUrl>
      </Placemark>
      <Placemark>
        <name><![CDATA[Hemmakväll Jönköping Asecs]]></name>
        <description><![CDATA[Hemmakväll Jönköping Asecs, Jönköping, Sverige]]></description>
        <Point><coordinates>14.203352,57.773344,0</coordinates></Point>
        <styleUrl>#icon-22</styleUrl>
      </Placemark>
      <Placemark>
        <name><![CDATA[Hemmakväll Östersund]]></name>
        <description><![CDATA[Hemmakväll Östersund, Östersund, Sverige]]></description>
        <Point><coordinates>14.635506,63.176885,0</coordinates></Point>
        <styleUrl>#icon-22</styleUrl>
      </Placemark>
      <Placemark>
        <name><![CDATA[Hemmakväll Nässjö]]></name>
        <description><![CDATA[Hemmakväll Nässjö, Nässjö, Sverige]]></description>
        <Point><coordinates>14.698455,57.650795,0</coordinates></Point>
        <styleUrl>#icon-22</styleUrl>
      </Placemark>
      <Placemark>
        <name><![CDATA[Hemmakväll Växjö]]></name>
        <description><![CDATA[Hemmakväll Växjö, Växjö, Sverige]]></description>
        <Point><coordinates>14.772625,56.877218,0</coordinates></Point>
        <styleUrl>#icon-22</styleUrl>
      </Placemark>
      <Placemark>
        <name><![CDATA[Hemmakväll Växjö]]></name>
        <description><![CDATA[Hemmakväll Växjö, Växjö, Sverige]]></description>
        <Point><coordinates>14.799937,56.879059,0</coordinates></Point>
        <styleUrl>#icon-22</styleUrl>
      </Placemark>
      <Placemark>
        <name><![CDATA[Hemmakväll Karlshamn]]></name>
        <description><![CDATA[Hemmakväll Karlshamn, Karlshamn, Sverige]]></description>
        <Point><coordinates>14.861496,56.172468,0</coordinates></Point>
        <styleUrl>#icon-22</styleUrl>
      </Placemark>
      <Placemark>
        <name><![CDATA[Hemmakväll Örebro]]></name>
        <description><![CDATA[Hemmakväll Örebro, Örebro, Sverige]]></description>
        <Point><coordinates>15.211073,59.270935,0</coordinates></Point>
        <styleUrl>#icon-22</styleUrl>
      </Placemark>
      <Placemark>
        <name><![CDATA[Hemmakväll Borlänge]]></name>
        <description><![CDATA[Hemmakväll Borlänge, Borlänge, Sverige]]></description>
        <Point><coordinates>15.433536,60.487295,0</coordinates></Point>
        <styleUrl>#icon-22</styleUrl>
      </Placemark>
      <Placemark>
        <name><![CDATA[Hemmakväll Karlskrona]]></name>
        <description><![CDATA[Hemmakväll Karlskrona, Karlskrona, Sverige]]></description>
        <Point><coordinates>15.586071,56.162745,0</coordinates></Point>
        <styleUrl>#icon-22</styleUrl>
      </Placemark>
      <Placemark>
        <name><![CDATA[Hemmakväll Linköping]]></name>
        <description><![CDATA[Hemmakväll Linköping, Linköping, Sverige]]></description>
        <Point><coordinates>15.622169,58.412525,0</coordinates></Point>
        <styleUrl>#icon-22</styleUrl>
      </Placemark>
      <Placemark>
        <name><![CDATA[Hemmakväll Falun]]></name>
        <description><![CDATA[Hemmakväll Falun, Falun, Sverige]]></description>
        <Point><coordinates>15.628732,60.605606,0</coordinates></Point>
        <styleUrl>#icon-22</styleUrl>
      </Placemark>
      <Placemark>
        <name><![CDATA[Hemmakväll Norrköping]]></name>
        <description><![CDATA[Hemmakväll Norrköping, Norrköping, Sverige]]></description>
        <Point><coordinates>16.18846,58.587764,0</coordinates></Point>
        <styleUrl>#icon-22</styleUrl>
      </Placemark>
      <Placemark>
        <name><![CDATA[Hemmakväll Kalmar]]></name>
        <description><![CDATA[Hemmakväll Kalmar, Kalmar, Sverige]]></description>
        <Point><coordinates>16.361539,56.664347,0</coordinates></Point>
        <styleUrl>#icon-22</styleUrl>
      </Placemark>
      <Placemark>
        <name><![CDATA[Hemmakväll Västerås]]></name>
        <description><![CDATA[Hemmakväll Västerås, Västerås, Sverige]]></description>
        <Point><coordinates>16.546464,59.609411,0</coordinates></Point>
        <styleUrl>#icon-22</styleUrl>
      </Placemark>
      <Placemark>
        <name><![CDATA[Hemmakväll Västervik]]></name>
        <description><![CDATA[Hemmakväll Västervik, Västervik, Sverige]]></description>
        <Point><coordinates>16.636966,57.759903,0</coordinates></Point>
        <styleUrl>#icon-22</styleUrl>
      </Placemark>
      <Placemark>
        <name><![CDATA[Hemmakväll Hudiksvall]]></name>
        <description><![CDATA[Hemmakväll Hudiksvall, Hudiksvall, Sverige]]></description>
        <Point><coordinates>17.109492,61.727183,0</coordinates></Point>
        <styleUrl>#icon-22</styleUrl>
      </Placemark>
      <Placemark>
        <name><![CDATA[Hemmakväll Sundsvall City]]></name>
        <description><![CDATA[Hemmakväll Sundsvall City, Sundsvall, Sverige]]></description>
        <Point><coordinates>17.304806,62.390727,0</coordinates></Point>
        <styleUrl>#icon-22</styleUrl>
      </Placemark>
      <Placemark>
        <name><![CDATA[Hemmakväll Uppsala]]></name>
        <description><![CDATA[Hemmakväll Uppsala, Uppsala, Sverige]]></description>
        <Point><coordinates>17.635606,59.856857,0</coordinates></Point>
        <styleUrl>#icon-22</styleUrl>
      </Placemark>
      <Placemark>
        <name><![CDATA[Hemmakväll Kista Galleria]]></name>
        <description><![CDATA[Hemmakväll Kista Galleria, Kista, Sverige]]></description>
        <Point><coordinates>17.945734,59.40231,0</coordinates></Point>
        <styleUrl>#icon-22</styleUrl>
      </Placemark>
      <Placemark>
        <name><![CDATA[Hemmakväll Sundbyberg]]></name>
        <description><![CDATA[Hemmakväll Sundbyberg, Sundbyberg, Sverige]]></description>
        <Point><coordinates>17.975181,59.360948,0</coordinates></Point>
        <styleUrl>#icon-22</styleUrl>
      </Placemark>
      <Placemark>
        <name><![CDATA[Hemmakväll Hammarby sjöstad]]></name>
        <description><![CDATA[Hemmakväll Hammarby sjöstad, Stockholm, Sverige]]></description>
        <Point><coordinates>18.101849,59.302657,0</coordinates></Point>
        <styleUrl>#icon-22</styleUrl>
      </Placemark>
      <Placemark>
        <name><![CDATA[Hemmakväll Tyresö]]></name>
        <description><![CDATA[Hemmakväll Tyresö, Tyresö, Sverige]]></description>
        <Point><coordinates>18.230549,59.243373,0</coordinates></Point>
        <styleUrl>#icon-22</styleUrl>
      </Placemark>
      <Placemark>
        <name><![CDATA[Hemmakväll Visby]]></name>
        <description><![CDATA[Hemmakväll Visby, Visby, Sverige]]></description>
        <Point><coordinates>18.301411,57.63651,0</coordinates></Point>
        <styleUrl>#icon-22</styleUrl>
      </Placemark>
      <Placemark>
        <name><![CDATA[Hemmakväll Norrtälje]]></name>
        <description><![CDATA[Hemmakväll Norrtälje, Norrtälje, Sverige]]></description>
        <Point><coordinates>18.703627,59.759637,0</coordinates></Point>
        <styleUrl>#icon-22</styleUrl>
      </Placemark>
      <Placemark>
        <name><![CDATA[Hemmakväll Örnsköldsvik]]></name>
        <description><![CDATA[Hemmakväll Örnsköldsvik, Örnsköldsvik, Sverige]]></description>
        <Point><coordinates>18.718902,63.287849,0</coordinates></Point>
        <styleUrl>#icon-22</styleUrl>
      </Placemark>
      <Placemark>
        <name><![CDATA[Hemmakväll Umeå]]></name>
        <description><![CDATA[Hemmakväll Umeå, Umeå, Sverige]]></description>
        <Point><coordinates>20.264277,63.824759,0</coordinates></Point>
        <styleUrl>#icon-22</styleUrl>
      </Placemark>
      <Placemark>
        <name><![CDATA[Hemmakväll Skellefteå]]></name>
        <description><![CDATA[Hemmakväll Skellefteå, Skellefteå, Sverige]]></description>
        <Point><coordinates>20.946007,64.750971,0</coordinates></Point>
        <styleUrl>#icon-22</styleUrl>
      </Placemark>
      <Placemark>
        <name><![CDATA[Hemmakväll Piteå]]></name>
        <description><![CDATA[Hemmakväll Piteå, Piteå, Sverige]]></description>
        <Point><coordinates>21.478968,65.316526,0</coordinates></Point>
        <styleUrl>#icon-22</styleUrl>
      </Placemark>
      <Placemark>
        <name><![CDATA[Hemmakväll Luleå]]></name>
        <description><![CDATA[Hemmakväll Luleå, Luleå, Sverige]]></description>
        <Point><coordinates>22.158018,65.584698,0</coordinates></Point>
        <styleUrl>#icon-22</styleUrl>
      </Placemark>
    </Folder>
  </Document>
</kml>