<?xml version="1.0" encoding="UTF-8"?>
<kml xmlns="http://www.opengis.net/kml/2.2">
  <Document>
    <name><![CDATA[Intersport]]></name>
    <description/>
    <Style id="icon-22-normal"><IconStyle><scale>1.1</scale><Icon><href>https://www.gstatic.com/mapspro/images/stock/22-blue-dot.png</href></Icon><hotSpot x="16" xunits="pixels" y="32" yunits="insetPixels"/></IconStyle><LabelStyle><scale>0</scale></LabelStyle></Style>
    <Style id="icon-22-highlight"><IconStyle><scale>1.1</scale><Icon><href>https://www.gstatic.com/mapspro/images/stock/22-blue-dot.png</href></Icon><hotSpot x="16" xunits="pixels" y="32" yunits="insetPixels"/></IconStyle><LabelStyle><scale>1.1</scale></LabelStyle></Style>
    <StyleMap id="icon-22"><Pair><key>normal</key><styleUrl>#icon-22-normal</styleUrl></Pair><Pair><key>highlight</key><styleUrl>#icon-22-highlight</styleUrl></Pair></StyleMap>
    <Folder>
      <name><![CDATA[Intersport]]></name>
      <Placemark>
        <name><![CDATA[Intersport Strömstad City]]></name>
        <description><![CDATA[Intersport Strömstad City, Strömstad, Sverige]]></description>
        <Point><coordinates>11.186914,58.946334,0</coordinates></Point>
        <styleUrl>#icon-22</styleUrl>
      </Placemark>
      <Placemark>
        <name><![CDATA[Intersport Uddevalla Torp]]></name>
        <description><![CDATA[Intersport Uddevalla Torp, Uddevalla, Sverige]]></description>
        <Point><coordinates>11.810349,58.353317,0</coordinates></Point>
        <styleUrl>#icon-22</styleUrl>
      </Placemark>
      <Placemark>
        <name><![CDATA[Intersport Göteborg Högsbo 421]]></name>
        <description><![CDATA[Intersport Göteborg Högsbo 421, Västra frölunda, Sverige]]></description>
        <Point><coordinates>11.947863,57.650826,0</coordinates></Point>
        <styleUrl>#icon-22</styleUrl>
      </Placemark>
      <Placemark>
        <name><![CDATA[Intersport Göteborg Backaplan]]></name>
        <description><![CDATA[Intersport Göteborg Backaplan, Göteborg, Sverige]]></description>
        <Point><coordinates>11.95145,57.72157,0</coordinates></Point>
        <styleUrl>#icon-22</styleUrl>
      </Placemark>
      <Placemark>
        <name><![CDATA[Intersport Göteborg Nordstan]]></name>
        <description><![CDATA[Intersport Göteborg Nordstan, Göteborg, Sverige]]></description>
        <Point><coordinates>11.97024,57.70742,0</coordinates></Point>
        <styleUrl>#icon-22</styleUrl>
      </Placemark>
      <Placemark>
        <name><![CDATA[Intersport Kungsbacka Kungsmässan]]></name>
        <description><![CDATA[Intersport Kungsbacka Kungsmässan, Kungsbacka, Sverige]]></description>
        <Point><coordinates>12.07256,57.493369,0</coordinates></Point>
        <styleUrl>#icon-22</styleUrl>
      </Placemark>
      <Placemark>
        <name><![CDATA[Intersport Partille Allum]]></name>
        <description><![CDATA[Intersport Partille Allum, Partille, Sverige]]></description>
        <Point><coordinates>12.105,57.73751,0</coordinates></Point>
        <styleUrl>#icon-22</styleUrl>
      </Placemark>
      <Placemark>
        <name><![CDATA[Intersport Varberg Lassabacka]]></name>
        <description><![CDATA[Intersport Varberg Lassabacka, Varberg, Sverige]]></description>
        <Point><coordinates>12.25811,57.12217,0</coordinates></Point>
        <styleUrl>#icon-22</styleUrl>
      </Placemark>
      <Placemark>
        <name><![CDATA[Intersport Trollhättan Överby]]></name>
        <description><![CDATA[Intersport Trollhättan Överby, Trollhättan, Sverige]]></description>
        <Point><coordinates>12.308958,58.312668,0</coordinates></Point>
        <styleUrl>#icon-22</styleUrl>
      </Placemark>
      <Placemark>
        <name><![CDATA[Intersport Falkenberg]]></name>
        <description><![CDATA[Intersport Falkenberg, Falkenberg, Sverige]]></description>
        <Point><coordinates>12.49065,56.90429,0</coordinates></Point>
        <styleUrl>#icon-22</styleUrl>
      </Placemark>
      <Placemark>
        <name><![CDATA[Intersport Alingsås]]></name>
        <description><![CDATA[Intersport Alingsås, Alingsås, Sverige]]></description>
        <Point><coordinates>12.53629,57.93,0</coordinates></Point>
        <styleUrl>#icon-22</styleUrl>
      </Placemark>
      <Placemark>
        <name><![CDATA[Intersport Arvika]]></name>
        <description><![CDATA[Intersport Arvika, Arvika, Sverige]]></description>
        <Point><coordinates>12.59117,59.65535,0</coordinates></Point>
        <styleUrl>#icon-22</styleUrl>
      </Placemark>
      <Placemark>
        <name><![CDATA[Intersport Helsingborg Väla]]></name>
        <description><![CDATA[Intersport Helsingborg Väla, Ödåkra, Sverige]]></description>
        <Point><coordinates>12.757631,56.091591,0</coordinates></Point>
        <styleUrl>#icon-22</styleUrl>
      </Placemark>
      <Placemark>
        <name><![CDATA[Intersport Ängelholm Brännborn]]></name>
        <description><![CDATA[Intersport Ängelholm Brännborn, Ängelholm, Sverige]]></description>
        <Point><coordinates>12.88979,56.25356,0</coordinates></Point>
        <styleUrl>#icon-22</styleUrl>
      </Placemark>
      <Placemark>
        <name><![CDATA[Intersport Halmstad Stenalyckan]]></name>
        <description><![CDATA[Intersport Halmstad Stenalyckan, Halmstad, Sverige]]></description>
        <Point><coordinates>12.90802,56.66105,0</coordinates></Point>
        <styleUrl>#icon-22</styleUrl>
      </Placemark>
      <Placemark>
        <name><![CDATA[Intersport Borås Knallerian]]></name>
        <description><![CDATA[Intersport Borås Knallerian, Borås, Sverige]]></description>
        <Point><coordinates>12.938204,57.735226,0</coordinates></Point>
        <styleUrl>#icon-22</styleUrl>
      </Placemark>
      <Placemark>
        <name><![CDATA[Intersport Malmö Emporia]]></name>
        <description><![CDATA[Intersport Malmö Emporia, Malmö, Sverige]]></description>
        <Point><coordinates>12.9712,55.5636,0</coordinates></Point>
        <styleUrl>#icon-22</styleUrl>
      </Placemark>
      <Placemark>
        <name><![CDATA[Intersport Malmö Mobilia]]></name>
        <description><![CDATA[Intersport Malmö Mobilia, Malmö, Sverige]]></description>
        <Point><coordinates>13.00331,55.58117,0</coordinates></Point>
        <styleUrl>#icon-22</styleUrl>
      </Placemark>
      <Placemark>
        <name><![CDATA[Intersport Åre]]></name>
        <description><![CDATA[Intersport Åre, Åre, Sverige]]></description>
        <Point><coordinates>13.07458,63.39995,0</coordinates></Point>
        <styleUrl>#icon-22</styleUrl>
      </Placemark>
      <Placemark>
        <name><![CDATA[Intersport Malmö St Bernstorp]]></name>
        <description><![CDATA[Intersport Malmö St Bernstorp, Arlöv, Sverige]]></description>
        <Point><coordinates>13.101754,55.612887,0</coordinates></Point>
        <styleUrl>#icon-22</styleUrl>
      </Placemark>
      <Placemark>
        <name><![CDATA[Intersport Sunne]]></name>
        <description><![CDATA[Intersport Sunne, Sunne, Sverige]]></description>
        <Point><coordinates>13.14631,59.83694,0</coordinates></Point>
        <styleUrl>#icon-22</styleUrl>
      </Placemark>
      <Placemark>
        <name><![CDATA[Intersport Lidköping City]]></name>
        <description><![CDATA[Intersport Lidköping City, Lidköping, Sverige]]></description>
        <Point><coordinates>13.15529,58.50267,0</coordinates></Point>
        <styleUrl>#icon-22</styleUrl>
      </Placemark>
      <Placemark>
        <name><![CDATA[Intersport Trelleborg]]></name>
        <description><![CDATA[Intersport Trelleborg, Trelleborg, Sverige]]></description>
        <Point><coordinates>13.15788,55.37432,0</coordinates></Point>
        <styleUrl>#icon-22</styleUrl>
      </Placemark>
      <Placemark>
        <name><![CDATA[Intersport Sälen]]></name>
        <description><![CDATA[Intersport Sälen, Transtrand, Sverige]]></description>
        <Point><coordinates>13.280926,61.135747,0</coordinates></Point>
        <styleUrl>#icon-22</styleUrl>
      </Placemark>
      <Placemark>
        <name><![CDATA[Intersport Eslöv]]></name>
        <description><![CDATA[Intersport Eslöv, Eslöv, Sverige]]></description>
        <Point><coordinates>13.30448,55.83974,0</coordinates></Point>
        <styleUrl>#icon-22</styleUrl>
      </Placemark>
      <Placemark>
        <name><![CDATA[Intersport Karlstad Bergvik]]></name>
        <description><![CDATA[Intersport Karlstad Bergvik, Karlstad, Sverige]]></description>
        <Point><coordinates>13.430099,59.377436,0</coordinates></Point>
        <styleUrl>#icon-22</styleUrl>
      </Placemark>
      <Placemark>
        <name><![CDATA[Intersport Falköping]]></name>
        <description><![CDATA[Intersport Falköping, Falköping, Sverige]]></description>
        <Point><coordinates>13.55225,58.16171,0</coordinates></Point>
        <styleUrl>#icon-22</styleUrl>
      </Placemark>
      <Placemark>
        <name><![CDATA[Intersport Hässleholm City]]></name>
        <description><![CDATA[Intersport Hässleholm City, Hässleholm, Sverige]]></description>
        <Point><coordinates>13.76589,56.15743,0</coordinates></Point>
        <styleUrl>#icon-22</styleUrl>
      </Placemark>
      <Placemark>
        <name><![CDATA[Intersport Mariestad]]></name>
        <description><![CDATA[Intersport Mariestad, Mariestad, Sverige]]></description>
        <Point><coordinates>13.824122,58.710559,0</coordinates></Point>
        <styleUrl>#icon-22</styleUrl>
      </Placemark>
      <Placemark>
        <name><![CDATA[Intersport Skövde Stallsiken]]></name>
        <description><![CDATA[Intersport Skövde Stallsiken, Skövde, Sverige]]></description>
        <Point><coordinates>13.87255,58.40622,0</coordinates></Point>
        <styleUrl>#icon-22</styleUrl>
      </Placemark>
      <Placemark>
        <name><![CDATA[Intersport Ljungby]]></name>
        <description><![CDATA[Intersport Ljungby, Ljungby, Sverige]]></description>
        <Point><coordinates>13.90848,56.81416,0</coordinates></Point>
        <styleUrl>#icon-22</styleUrl>
      </Placemark>
      <Placemark>
        <name><![CDATA[Intersport Kristinehamn]]></name>
        <description><![CDATA[Intersport Kristinehamn, Kristinehamn, Sverige]]></description>
        <Point><coordinates>14.10716,59.30922,0</coordinates></Point>
        <styleUrl>#icon-22</styleUrl>
      </Placemark>
      <Placemark>
        <name><![CDATA[Intersport Kristianstad Härlöv]]></name>
        <description><![CDATA[Intersport Kristianstad Härlöv, Kristianstad, Sverige]]></description>
        <Point><coordinates>14.1176,56.024,0</coordinates></Point>
        <styleUrl>#icon-22</styleUrl>
      </Placemark>
      <Placemark>
        <name><![CDATA[Intersport Jönköping A6]]></name>
        <description><![CDATA[Intersport Jönköping A6, Jönköping, Sverige]]></description>
        <Point><coordinates>14.201331,57.769019,0</coordinates></Point>
        <styleUrl>#icon-22</styleUrl>
      </Placemark>
      <Placemark>
        <name><![CDATA[Intersport Karlskoga]]></name>
        <description><![CDATA[Intersport Karlskoga, Karlskoga, Sverige]]></description>
        <Point><coordinates>14.535047,59.326891,0</coordinates></Point>
        <styleUrl>#icon-22</styleUrl>
      </Placemark>
      <Placemark>
        <name><![CDATA[Intersport Mora]]></name>
        <description><![CDATA[Intersport Mora, Mora, Sverige]]></description>
        <Point><coordinates>14.602032,61.006033,0</coordinates></Point>
        <styleUrl>#icon-22</styleUrl>
      </Placemark>
      <Placemark>
        <name><![CDATA[Intersport Östersund]]></name>
        <description><![CDATA[Intersport Östersund, Östersund, Sverige]]></description>
        <Point><coordinates>14.69134,63.17133,0</coordinates></Point>
        <styleUrl>#icon-22</styleUrl>
      </Placemark>
      <Placemark>
        <name><![CDATA[Intersport Växjö Grand Samarkand]]></name>
        <description><![CDATA[Intersport Växjö Grand Samarkand, Växjö, Sverige]]></description>
        <Point><coordinates>14.7627,56.88513,0</coordinates></Point>
        <styleUrl>#icon-22</styleUrl>
      </Placemark>
      <Placemark>
        <name><![CDATA[Intersport Karlshamn]]></name>
        <description><![CDATA[Intersport Karlshamn, Karlshamn, Sverige]]></description>
        <Point><coordinates>14.86068,56.1705,0</coordinates></Point>
        <styleUrl>#icon-22</styleUrl>
      </Placemark>
      <Placemark>
        <name><![CDATA[Intersport Tranås]]></name>
        <description><![CDATA[Intersport Tranås, Tranås, Sverige]]></description>
        <Point><coordinates>14.97592,58.03479,0</coordinates></Point>
        <styleUrl>#icon-22</styleUrl>
      </Placemark>
      <Placemark>
        <name><![CDATA[Intersport Eksjö]]></name>
        <description><![CDATA[Intersport Eksjö, Eksjö, Sverige]]></description>
        <Point><coordinates>14.97905,57.66582,0</coordinates></Point>
        <styleUrl>#icon-22</styleUrl>
      </Placemark>
      <Placemark>
        <name><![CDATA[Intersport Vetlanda]]></name>
        <description><![CDATA[Intersport Vetlanda, Vetlanda, Sverige]]></description>
        <Point><coordinates>15.06677,57.44288,0</coordinates></Point>
        <styleUrl>#icon-22</styleUrl>
      </Placemark>
      <Placemark>
        <name><![CDATA[Intersport Mjölby]]></name>
        <description><![CDATA[Intersport Mjölby, Mjölby, Sverige]]></description>
        <Point><coordinates>15.1253,58.32604,0</coordinates></Point>
        <styleUrl>#icon-22</styleUrl>
      </Placemark>
      <Placemark>
        <name><![CDATA[Intersport Örebro Marieberg]]></name>
        <description><![CDATA[Intersport Örebro Marieberg, Örebro, Sverige]]></description>
        <Point><coordinates>15.142529,59.218178,0</coordinates></Point>
        <styleUrl>#icon-22</styleUrl>
      </Placemark>
      <Placemark>
        <name><![CDATA[Intersport Örebro City]]></name>
        <description><![CDATA[Intersport Örebro City, Örebro, Sverige]]></description>
        <Point><coordinates>15.21265,59.26969,0</coordinates></Point>
        <styleUrl>#icon-22</styleUrl>
      </Placemark>
      <Placemark>
        <name><![CDATA[Intersport Borlänge Norra backa]]></name>
        <description><![CDATA[Intersport Borlänge Norra backa, Borlänge, Sverige]]></description>
        <Point><coordinates>15.41966,60.47941,0</coordinates></Point>
        <styleUrl>#icon-22</styleUrl>
      </Placemark>
      <Placemark>
        <name><![CDATA[Intersport Linköping Ikano]]></name>
        <description><![CDATA[Intersport Linköping Ikano, Linköping, Sverige]]></description>
        <Point><coordinates>15.58631,58.43331,0</coordinates></Point>
        <styleUrl>#icon-22</styleUrl>
      </Placemark>
      <Placemark>
        <name><![CDATA[Intersport Linköping Gränden]]></name>
        <description><![CDATA[Intersport Linköping Gränden, Linköping, Sverige]]></description>
        <Point><coordinates>15.6269,58.40972,0</coordinates></Point>
        <styleUrl>#icon-22</styleUrl>
      </Placemark>
      <Placemark>
        <name><![CDATA[Intersport Karlskrona Amiralen]]></name>
        <description><![CDATA[Intersport Karlskrona Amiralen, Lyckeby, Sverige]]></description>
        <Point><coordinates>15.64169,56.19698,0</coordinates></Point>
        <styleUrl>#icon-22</styleUrl>
      </Placemark>
      <Placemark>
        <name><![CDATA[Intersport Falun I13]]></name>
        <description><![CDATA[Intersport Falun I13, Falun, Sverige]]></description>
        <Point><coordinates>15.6567,60.60732,0</coordinates></Point>
        <styleUrl>#icon-22</styleUrl>
      </Placemark>
      <Placemark>
        <name><![CDATA[Intersport Vimmerby]]></name>
        <description><![CDATA[Intersport Vimmerby, Vimmerby, Sverige]]></description>
        <Point><coordinates>15.85263,57.66578,0</coordinates></Point>
        <styleUrl>#icon-22</styleUrl>
      </Placemark>
      <Placemark>
        <name><![CDATA[Intersport Köping Big Inn]]></name>
        <description><![CDATA[Intersport Köping Big Inn, Köping, Sverige]]></description>
        <Point><coordinates>15.97416,59.52282,0</coordinates></Point>
        <styleUrl>#icon-22</styleUrl>
      </Placemark>
      <Placemark>
        <name><![CDATA[Intersport Avesta]]></name>
        <description><![CDATA[Intersport Avesta, Avesta, Sverige]]></description>
        <Point><coordinates>16.1682,60.1459,0</coordinates></Point>
        <styleUrl>#icon-22</styleUrl>
      </Placemark>
      <Placemark>
        <name><![CDATA[Intersport Katrineholm]]></name>
        <description><![CDATA[Intersport Katrineholm, Katrineholm, Sverige]]></description>
        <Point><coordinates>16.22905,59.00493,0</coordinates></Point>
        <styleUrl>#icon-22</styleUrl>
      </Placemark>
      <Placemark>
        <name><![CDATA[Intersport Kalmar Giraffen]]></name>
        <description><![CDATA[Intersport Kalmar Giraffen, Kalmar, Sverige]]></description>
        <Point><coordinates>16.255261,56.670053,0</coordinates></Point>
        <styleUrl>#icon-22</styleUrl>
      </Placemark>
      <Placemark>
        <name><![CDATA[Intersport Bollnäs]]></name>
        <description><![CDATA[Intersport Bollnäs, Bollnäs, Sverige]]></description>
        <Point><coordinates>16.39288,61.34875,0</coordinates></Point>
        <styleUrl>#icon-22</styleUrl>
      </Placemark>
      <Placemark>
        <name><![CDATA[Intersport Oskarshamn]]></name>
        <description><![CDATA[Intersport Oskarshamn, Oskarshamn, Sverige]]></description>
        <Point><coordinates>16.44709,57.26512,0</coordinates></Point>
        <styleUrl>#icon-22</styleUrl>
      </Placemark>
      <Placemark>
        <name><![CDATA[Intersport Västerås Erikslund]]></name>
        <description><![CDATA[Intersport Västerås Erikslund, Västerås, Sverige]]></description>
        <Point><coordinates>16.4537,59.609564,0</coordinates></Point>
        <styleUrl>#icon-22</styleUrl>
      </Placemark>
      <Placemark>
        <name><![CDATA[Intersport Sala]]></name>
        <description><![CDATA[Intersport Sala, Sala, Sverige]]></description>
        <Point><coordinates>16.60505,59.91953,0</coordinates></Point>
        <styleUrl>#icon-22</styleUrl>
      </Placemark>
      <Placemark>
        <name><![CDATA[Intersport Västervik]]></name>
        <description><![CDATA[Intersport Västervik, Västervik, Sverige]]></description>
        <Point><coordinates>16.63692,57.75981,0</coordinates></Point>
        <styleUrl>#icon-22</styleUrl>
      </Placemark>
      <Placemark>
        <name><![CDATA[Intersport Sandviken]]></name>
        <description><![CDATA[Intersport Sandviken, Sandviken, Sverige]]></description>
        <Point><coordinates>16.774535,60.623071,0</coordinates></Point>
        <styleUrl>#icon-22</styleUrl>
      </Placemark>
      <Placemark>
        <name><![CDATA[Intersport Nyköping Påljungshage]]></name>
        <description><![CDATA[Intersport Nyköping Påljungshage, Nyköping, Sverige]]></description>
        <Point><coordinates>17.017179,58.772083,0</coordinates></Point>
        <styleUrl>#icon-22</styleUrl>
      </Placemark>
      <Placemark>
        <name><![CDATA[Intersport Strängnäs Solberga]]></name>
        <description><![CDATA[Intersport Strängnäs Solberga, Strängnäs, Sverige]]></description>
        <Point><coordinates>17.0199,59.3365,0</coordinates></Point>
        <styleUrl>#icon-22</styleUrl>
      </Placemark>
      <Placemark>
        <name><![CDATA[Intersport Gävle Valbo]]></name>
        <description><![CDATA[Intersport Gävle Valbo, Valbo, Sverige]]></description>
        <Point><coordinates>17.02106,60.64787,0</coordinates></Point>
        <styleUrl>#icon-22</styleUrl>
      </Placemark>
      <Placemark>
        <name><![CDATA[Intersport Enköping Romberga]]></name>
        <description><![CDATA[Intersport Enköping Romberga, Enköping, Sverige]]></description>
        <Point><coordinates>17.082646,59.652198,0</coordinates></Point>
        <styleUrl>#icon-22</styleUrl>
      </Placemark>
      <Placemark>
        <name><![CDATA[Intersport Hudiksvall]]></name>
        <description><![CDATA[Intersport Hudiksvall, Hudiksvall, Sverige]]></description>
        <Point><coordinates>17.10491,61.72715,0</coordinates></Point>
        <styleUrl>#icon-22</styleUrl>
      </Placemark>
      <Placemark>
        <name><![CDATA[Intersport Gävle City]]></name>
        <description><![CDATA[Intersport Gävle City, Gävle, Sverige]]></description>
        <Point><coordinates>17.14139,60.67517,0</coordinates></Point>
        <styleUrl>#icon-22</styleUrl>
      </Placemark>
      <Placemark>
        <name><![CDATA[Intersport Sundsvall Birsta]]></name>
        <description><![CDATA[Intersport Sundsvall Birsta, Sundsvall, Sverige]]></description>
        <Point><coordinates>17.32677,62.44416,0</coordinates></Point>
        <styleUrl>#icon-22</styleUrl>
      </Placemark>
      <Placemark>
        <name><![CDATA[Intersport Södertälje Moraberg]]></name>
        <description><![CDATA[Intersport Södertälje Moraberg, Södertälje, Sverige]]></description>
        <Point><coordinates>17.66533,59.20272,0</coordinates></Point>
        <styleUrl>#icon-22</styleUrl>
      </Placemark>
      <Placemark>
        <name><![CDATA[Intersport Uppsala Boländerna]]></name>
        <description><![CDATA[Intersport Uppsala Boländerna, Uppsala, Sverige]]></description>
        <Point><coordinates>17.69184,59.84457,0</coordinates></Point>
        <styleUrl>#icon-22</styleUrl>
      </Placemark>
      <Placemark>
        <name><![CDATA[Intersport Kramfors]]></name>
        <description><![CDATA[Intersport Kramfors, Kramfors, Sverige]]></description>
        <Point><coordinates>17.7782,62.93171,0</coordinates></Point>
        <styleUrl>#icon-22</styleUrl>
      </Placemark>
      <Placemark>
        <name><![CDATA[Intersport Stockholm Barkarby]]></name>
        <description><![CDATA[Intersport Stockholm Barkarby, Järfälla, Sverige]]></description>
        <Point><coordinates>17.862997,59.411701,0</coordinates></Point>
        <styleUrl>#icon-22</styleUrl>
      </Placemark>
      <Placemark>
        <name><![CDATA[Intersport Härnösand]]></name>
        <description><![CDATA[Intersport Härnösand, Härnösand, Sverige]]></description>
        <Point><coordinates>17.92664,62.63576,0</coordinates></Point>
        <styleUrl>#icon-22</styleUrl>
      </Placemark>
      <Placemark>
        <name><![CDATA[Intersport Stockholm Huddinge]]></name>
        <description><![CDATA[Intersport Stockholm Huddinge, Huddinge, Sverige]]></description>
        <Point><coordinates>17.98142,59.23716,0</coordinates></Point>
        <styleUrl>#icon-22</styleUrl>
      </Placemark>
      <Placemark>
        <name><![CDATA[Intersport Stockholm Liljeholmstorget]]></name>
        <description><![CDATA[Intersport Stockholm Liljeholmstorget, Stockholm, Sverige]]></description>
        <Point><coordinates>18.02239,59.30951,0</coordinates></Point>
        <styleUrl>#icon-22</styleUrl>
      </Placemark>
      <Placemark>
        <name><![CDATA[Intersport Stockholm Sergelstorg]]></name>
        <description><![CDATA[Intersport Stockholm Sergelstorg, Stockholm, Sverige]]></description>
        <Point><coordinates>18.063074,59.332116,0</coordinates></Point>
        <styleUrl>#icon-22</styleUrl>
      </Placemark>
      <Placemark>
        <name><![CDATA[Intersport Stockholm Skrapan]]></name>
        <description><![CDATA[Intersport Stockholm Skrapan, Stockholm, Sverige]]></description>
        <Point><coordinates>18.0742,59.311811,0</coordinates></Point>
        <styleUrl>#icon-22</styleUrl>
      </Placemark>
      <Placemark>
        <name><![CDATA[Intersport Stockholm Farsta]]></name>
        <description><![CDATA[Intersport Stockholm Farsta, Farsta, Sverige]]></description>
        <Point><coordinates>18.09185,59.24234,0</coordinates></Point>
        <styleUrl>#icon-22</styleUrl>
      </Placemark>
      <Placemark>
        <name><![CDATA[Intersport Stockholm Lidingö]]></name>
        <description><![CDATA[Intersport Stockholm Lidingö, Lidingö, Sverige]]></description>
        <Point><coordinates>18.133653,59.366794,0</coordinates></Point>
        <styleUrl>#icon-22</styleUrl>
      </Placemark>
      <Placemark>
        <name><![CDATA[Intersport Stockholm Haninge Port 73]]></name>
        <description><![CDATA[Intersport Stockholm Haninge Port 73, Handen, Sverige]]></description>
        <Point><coordinates>18.151517,59.179776,0</coordinates></Point>
        <styleUrl>#icon-22</styleUrl>
      </Placemark>
      <Placemark>
        <name><![CDATA[Intersport Visby Kvarnen]]></name>
        <description><![CDATA[Intersport Visby Kvarnen, Visby, Sverige]]></description>
        <Point><coordinates>18.317964,57.645636,0</coordinates></Point>
        <styleUrl>#icon-22</styleUrl>
      </Placemark>
      <Placemark>
        <name><![CDATA[Intersport Värmdö]]></name>
        <description><![CDATA[Intersport Värmdö, Gustavsberg, Sverige]]></description>
        <Point><coordinates>18.422002,59.310719,0</coordinates></Point>
        <styleUrl>#icon-22</styleUrl>
      </Placemark>
      <Placemark>
        <name><![CDATA[Intersport Norrtälje]]></name>
        <description><![CDATA[Intersport Norrtälje, Norrtälje, Sverige]]></description>
        <Point><coordinates>18.69466,59.76694,0</coordinates></Point>
        <styleUrl>#icon-22</styleUrl>
      </Placemark>
      <Placemark>
        <name><![CDATA[Intersport Örnsköldsvik]]></name>
        <description><![CDATA[Intersport Örnsköldsvik, Örnsköldsvik, Sverige]]></description>
        <Point><coordinates>18.71778,63.28882,0</coordinates></Point>
        <styleUrl>#icon-22</styleUrl>
      </Placemark>
      <Placemark>
        <name><![CDATA[Intersport Kiruna City]]></name>
        <description><![CDATA[Intersport Kiruna City, Kiruna, Sverige]]></description>
        <Point><coordinates>20.22799,67.85389,0</coordinates></Point>
        <styleUrl>#icon-22</styleUrl>
      </Placemark>
      <Placemark>
        <name><![CDATA[Intersport Kiruna]]></name>
        <description><![CDATA[Intersport Kiruna, Kiruna, Sverige]]></description>
        <Point><coordinates>20.255055,67.846948,0</coordinates></Point>
        <styleUrl>#icon-22</styleUrl>
      </Placemark>
      <Placemark>
        <name><![CDATA[Intersport Umeå Mariedal]]></name>
        <description><![CDATA[Intersport Umeå Mariedal, Umeå, Sverige]]></description>
        <Point><coordinates>20.29905,63.84817,0</coordinates></Point>
        <styleUrl>#icon-22</styleUrl>
      </Placemark>
      <Placemark>
        <name><![CDATA[Intersport Gällivare]]></name>
        <description><![CDATA[Intersport Gällivare, Gällivare, Sverige]]></description>
        <Point><coordinates>20.66326,67.13553,0</coordinates></Point>
        <styleUrl>#icon-22</styleUrl>
      </Placemark>
      <Placemark>
        <name><![CDATA[Intersport Skellefteå City]]></name>
        <description><![CDATA[Intersport Skellefteå City, Skellefteå, Sverige]]></description>
        <Point><coordinates>20.95324,64.75021,0</coordinates></Point>
        <styleUrl>#icon-22</styleUrl>
      </Placemark>
      <Placemark>
        <name><![CDATA[Intersport Skellefteå Solbacken]]></name>
        <description><![CDATA[Intersport Skellefteå Solbacken, Skellefteå, Sverige]]></description>
        <Point><coordinates>21.0212,64.766,0</coordinates></Point>
        <styleUrl>#icon-22</styleUrl>
      </Placemark>
      <Placemark>
        <name><![CDATA[Intersport Piteå Backcity]]></name>
        <description><![CDATA[Intersport Piteå Backcity, Piteå, Sverige]]></description>
        <Point><coordinates>21.442695,65.324006,0</coordinates></Point>
        <styleUrl>#icon-22</styleUrl>
      </Placemark>
      <Placemark>
        <name><![CDATA[Intersport Boden]]></name>
        <description><![CDATA[Intersport Boden, Boden, Sverige]]></description>
        <Point><coordinates>21.68674,65.82505,0</coordinates></Point>
        <styleUrl>#icon-22</styleUrl>
      </Placemark>
      <Placemark>
        <name><![CDATA[Intersport Luleå Storheden]]></name>
        <description><![CDATA[Intersport Luleå Storheden, Luleå, Sverige]]></description>
        <Point><coordinates>22.04144,65.61855,0</coordinates></Point>
        <styleUrl>#icon-22</styleUrl>
      </Placemark>
      <Placemark>
        <name><![CDATA[Intersport Kalix]]></name>
        <description><![CDATA[Intersport Kalix, Kalix, Sverige]]></description>
        <Point><coordinates>23.13441,65.85544,0</coordinates></Point>
        <styleUrl>#icon-22</styleUrl>
      </Placemark>
    </Folder>
  </Document>
</kml>