<?xml version="1.0" encoding="UTF-8"?>
<kml xmlns="http://www.opengis.net/kml/2.2">
  <Document>
    <name>Kahls The & Kaffehandel</name>
    <description/>
    <Style id="icon-22-normal">
      <IconStyle>
        <scale>1.1</scale>
        <Icon>
          <href>https://www.gstatic.com/mapspro/images/stock/22-blue-dot.png</href>
        </Icon>
        <hotSpot x="16" xunits="pixels" y="32" yunits="insetPixels"/>
      </IconStyle>
      <LabelStyle>
        <scale>0</scale>
      </LabelStyle>
    </Style>
    <Style id="icon-22-highlight">
      <IconStyle>
        <scale>1.1</scale>
        <Icon>
          <href>https://www.gstatic.com/mapspro/images/stock/22-blue-dot.png</href>
        </Icon>
        <hotSpot x="16" xunits="pixels" y="32" yunits="insetPixels"/>
      </IconStyle>
      <LabelStyle>
        <scale>1.1</scale>
      </LabelStyle>
    </Style>
    <StyleMap id="icon-22">
      <Pair>
        <key>normal</key>
        <styleUrl>#icon-22-normal</styleUrl>
      </Pair>
      <Pair>
        <key>highlight</key>
        <styleUrl>#icon-22-highlight</styleUrl>
      </Pair>
    </StyleMap>
    <Folder>
      <name><![CDATA[Kahls The & Kaffehandel]]></name>
      <Placemark>
        <name><![CDATA[Kahls The & Kaffehandel]]></name>
        <description>Kahls The & Kaffehandel, Uddevalla</description>
        <styleUrl>#icon-22</styleUrl>
        <Point><coordinates>11.812722,58.3541,0</coordinates></Point>
      </Placemark>
      <Placemark>
        <name><![CDATA[Kahls The & Kaffehandel]]></name>
        <description>Kahls The & Kaffehandel, Kungsbacka</description>
        <styleUrl>#icon-22</styleUrl>
        <Point><coordinates>12.074339,57.492958,0</coordinates></Point>
      </Placemark>
      <Placemark>
        <name><![CDATA[Kahls The & Kaffehandel - Allum]]></name>
        <description>Kahls The & Kaffehandel - Allum, Göteborg</description>
        <styleUrl>#icon-22</styleUrl>
        <Point><coordinates>12.106236,57.73728,0</coordinates></Point>
      </Placemark>
      <Placemark>
        <name><![CDATA[Kahls The & Kaffehandel - Storkenköpcentrum]]></name>
        <description>Kahls The & Kaffehandel - Storkenköpcentrum, Alingsås</description>
        <styleUrl>#icon-22</styleUrl>
        <Point><coordinates>12.535216,57.929987,0</coordinates></Point>
      </Placemark>
      <Placemark>
        <name><![CDATA[Kahls The & Kaffehandel - Triangeln]]></name>
        <description>Kahls The & Kaffehandel - Triangeln, Malmö</description>
        <styleUrl>#icon-22</styleUrl>
        <Point><coordinates>13.001791,55.595502,0</coordinates></Point>
      </Placemark>
      <Placemark>
        <name><![CDATA[Kahls The & Kaffehandel - A6]]></name>
        <description>Kahls The & Kaffehandel - A6, Jönköping</description>
        <styleUrl>#icon-22</styleUrl>
        <Point><coordinates>14.203566,57.773308,0</coordinates></Point>
      </Placemark>
      <Placemark>
        <name><![CDATA[Kahls The & Kaffehandel - Kupolen]]></name>
        <description>Kahls The & Kaffehandel - Kupolen, Borlänge</description>
        <styleUrl>#icon-22</styleUrl>
        <Point><coordinates>15.418436,60.484466,0</coordinates></Point>
      </Placemark>
      <Placemark>
        <name><![CDATA[Kahls The & Kaffehandel]]></name>
        <description>Kahls The & Kaffehandel, Linköping</description>
        <styleUrl>#icon-22</styleUrl>
        <Point><coordinates>15.585823,58.434663,0</coordinates></Point>
      </Placemark>
      <Placemark>
        <name><![CDATA[Kahls The & Kaffehandel]]></name>
        <description>Kahls The & Kaffehandel, Norrköping</description>
        <styleUrl>#icon-22</styleUrl>
        <Point><coordinates>16.189972,58.58761,0</coordinates></Point>
      </Placemark>
      <Placemark>
        <name><![CDATA[Kahls The & Kaffehandel - Baronen]]></name>
        <description>Kahls The & Kaffehandel - Baronen, Kalmar</description>
        <styleUrl>#icon-22</styleUrl>
        <Point><coordinates>16.364929,56.661017,0</coordinates></Point>
      </Placemark>
      <Placemark>
        <name><![CDATA[Kahls The & Kaffehandel - Erikslund Shopping Center]]></name>
        <description>Kahls The & Kaffehandel - Erikslund Shopping Center, Västerås</description>
        <styleUrl>#icon-22</styleUrl>
        <Point><coordinates>16.45479,59.608845,0</coordinates></Point>
      </Placemark>
      <Placemark>
        <name><![CDATA[Kahls The & Kaffehandel - Tjugoettan]]></name>
        <description>Kahls The & Kaffehandel - Tjugoettan, Eskilstuna</description>
        <styleUrl>#icon-22</styleUrl>
        <Point><coordinates>16.512146,59.37091,0</coordinates></Point>
      </Placemark>
      <Placemark>
        <name><![CDATA[Kahls The & Kaffehandel - Affärshuset Flanör]]></name>
        <description>Kahls The & Kaffehandel - Affärshuset Flanör, Gävle</description>
        <styleUrl>#icon-22</styleUrl>
        <Point><coordinates>17.142562,60.675377,0</coordinates></Point>
      </Placemark>
      <Placemark>
        <name><![CDATA[Kahls The & Kaffehandel - Birsta Köpstad]]></name>
        <description>Kahls The & Kaffehandel - Birsta Köpstad, Sundsvall</description>
        <styleUrl>#icon-22</styleUrl>
        <Point><coordinates>17.335245,62.446815,0</coordinates></Point>
      </Placemark>
      <Placemark>
        <name><![CDATA[Kahls The & Kaffehandel - Kista Galleria]]></name>
        <description>Kahls The & Kaffehandel - Kista Galleria, Kista</description>
        <styleUrl>#icon-22</styleUrl>
        <Point><coordinates>17.94568,59.403002,0</coordinates></Point>
      </Placemark>
      <Placemark>
        <name><![CDATA[Kahls The & Kaffehandel - Sollentuna Centrum]]></name>
        <description>Kahls The & Kaffehandel - Sollentuna Centrum, Sollentuna</description>
        <styleUrl>#icon-22</styleUrl>
        <Point><coordinates>17.951883,59.427566,0</coordinates></Point>
      </Placemark>
      <Placemark>
        <name><![CDATA[Kahls The & Kaffehandel - Centralstation]]></name>
        <description>Kahls The & Kaffehandel - Centralstation, Stockholm</description>
        <styleUrl>#icon-22</styleUrl>
        <Point><coordinates>18.059483,59.331006,0</coordinates></Point>
      </Placemark>
      <Placemark>
        <name><![CDATA[Kahls The & Kaffehandel - Mäster Samuelsgatan]]></name>
        <description>Kahls The & Kaffehandel - Mäster Samuelsgatan, Stockholm</description>
        <styleUrl>#icon-22</styleUrl>
        <Point><coordinates>18.062505,59.333347,0</coordinates></Point>
      </Placemark>
      <Placemark>
        <name><![CDATA[Kahls The & Kaffehandel - Täby Centrum]]></name>
        <description>Kahls The & Kaffehandel - Täby Centrum, Täby</description>
        <styleUrl>#icon-22</styleUrl>
        <Point><coordinates>18.072483,59.44554,0</coordinates></Point>
      </Placemark>
      <Placemark>
        <name><![CDATA[Kahls The & Kaffehandel - Farsta Centrum]]></name>
        <description>Kahls The & Kaffehandel - Farsta Centrum, Farsta</description>
        <styleUrl>#icon-22</styleUrl>
        <Point><coordinates>18.091483,59.243071,0</coordinates></Point>
      </Placemark>
      <Placemark>
        <name><![CDATA[Kahls The & Kaffehandel - Avion Köpcenter]]></name>
        <description>Kahls The & Kaffehandel - Avion Köpcenter, Umeå</description>
        <styleUrl>#icon-22</styleUrl>
        <Point><coordinates>20.255065,63.805526,0</coordinates></Point>
      </Placemark>
      <Placemark>
        <name><![CDATA[Kahls The & Kaffehandel - Norrlands UNiveristetssjukhus]]></name>
        <description>Kahls The & Kaffehandel - Norrlands UNiveristetssjukhus, Umeå</description>
        <styleUrl>#icon-22</styleUrl>
        <Point><coordinates>20.298398,63.81761,0</coordinates></Point>
      </Placemark>
    </Folder>
  </Document>
</kml>