<?xml version="1.0" encoding="UTF-8"?>
<kml xmlns="http://www.opengis.net/kml/2.2">
  <Document>
    <name><![CDATA[Kappahl]]></name>
    <description/>
    <Style id="icon-22-normal"><IconStyle><scale>1.1</scale><Icon><href>https://www.gstatic.com/mapspro/images/stock/22-blue-dot.png</href></Icon><hotSpot x="16" xunits="pixels" y="32" yunits="insetPixels"/></IconStyle><LabelStyle><scale>0</scale></LabelStyle></Style>
    <Style id="icon-22-highlight"><IconStyle><scale>1.1</scale><Icon><href>https://www.gstatic.com/mapspro/images/stock/22-blue-dot.png</href></Icon><hotSpot x="16" xunits="pixels" y="32" yunits="insetPixels"/></IconStyle><LabelStyle><scale>1.1</scale></LabelStyle></Style>
    <StyleMap id="icon-22"><Pair><key>normal</key><styleUrl>#icon-22-normal</styleUrl></Pair><Pair><key>highlight</key><styleUrl>#icon-22-highlight</styleUrl></Pair></StyleMap>
    <Folder>
      <name><![CDATA[Kappahl]]></name>
      <Placemark>
        <name><![CDATA[Kappahl - Nordby Shoppingcenter]]></name>
        <description><![CDATA[Kappahl - Nordby Shoppingcenter, Strömstad, Sverige]]></description>
        <Point><coordinates>11.172654,58.939454,0</coordinates></Point>
        <styleUrl>#icon-22</styleUrl>
      </Placemark>
      <Placemark>
        <name><![CDATA[Kappahl - Lysekil]]></name>
        <description><![CDATA[Kappahl - Lysekil, Lysekil, Sverige]]></description>
        <Point><coordinates>11.43693,58.274669,0</coordinates></Point>
        <styleUrl>#icon-22</styleUrl>
      </Placemark>
      <Placemark>
        <name><![CDATA[Kappahl - Stenungs Torg]]></name>
        <description><![CDATA[Kappahl - Stenungs Torg, Stenungsund, Sverige]]></description>
        <Point><coordinates>11.818911,58.069862,0</coordinates></Point>
        <styleUrl>#icon-22</styleUrl>
      </Placemark>
      <Placemark>
        <name><![CDATA[Kappahl - Töcksfors Shoppingcenter]]></name>
        <description><![CDATA[Kappahl - Töcksfors Shoppingcenter, Töcksfors, Sverige]]></description>
        <Point><coordinates>11.844788,59.506454,0</coordinates></Point>
        <styleUrl>#icon-22</styleUrl>
      </Placemark>
      <Placemark>
        <name><![CDATA[Kappahl - Torp Köpcentrum]]></name>
        <description><![CDATA[Kappahl - Torp Köpcentrum, Uddevalla, Sverige]]></description>
        <Point><coordinates>11.845055,58.346764,0</coordinates></Point>
        <styleUrl>#icon-22</styleUrl>
      </Placemark>
      <Placemark>
        <name><![CDATA[Kappahl - Frölunda Torg]]></name>
        <description><![CDATA[Kappahl - Frölunda Torg, Västra Frölunda, Sverige]]></description>
        <Point><coordinates>11.909324,57.650909,0</coordinates></Point>
        <styleUrl>#icon-22</styleUrl>
      </Placemark>
      <Placemark>
        <name><![CDATA[Kappahl - Newbie Frölunda Torg]]></name>
        <description><![CDATA[Kappahl - Newbie Frölunda Torg, Västra Frölunda, Sverige]]></description>
        <Point><coordinates>11.91301,57.65106,0</coordinates></Point>
        <styleUrl>#icon-22</styleUrl>
      </Placemark>
      <Placemark>
        <name><![CDATA[Kappahl - Köpcentra 421]]></name>
        <description><![CDATA[Kappahl - Köpcentra 421, Västra Frölunda, Sverige]]></description>
        <Point><coordinates>11.948439,57.650574,0</coordinates></Point>
        <styleUrl>#icon-22</styleUrl>
      </Placemark>
      <Placemark>
        <name><![CDATA[Kappahl - Backaplan Köpcenter]]></name>
        <description><![CDATA[Kappahl - Backaplan Köpcenter, Göteborg, Sverige]]></description>
        <Point><coordinates>11.951388,57.72258,0</coordinates></Point>
        <styleUrl>#icon-22</styleUrl>
      </Placemark>
      <Placemark>
        <name><![CDATA[Kappahl - Kongahälla Center]]></name>
        <description><![CDATA[Kappahl - Kongahälla Center, Kungälv, Sverige]]></description>
        <Point><coordinates>11.967966,57.874129,0</coordinates></Point>
        <styleUrl>#icon-22</styleUrl>
      </Placemark>
      <Placemark>
        <name><![CDATA[Kappahl - Newbie, Femman]]></name>
        <description><![CDATA[Kappahl - Newbie, Femman, Göteborg, Sverige]]></description>
        <Point><coordinates>11.96892,57.70925,0</coordinates></Point>
        <styleUrl>#icon-22</styleUrl>
      </Placemark>
      <Placemark>
        <name><![CDATA[Kappahl - Nordstan]]></name>
        <description><![CDATA[Kappahl - Nordstan, Göteborg, Sverige]]></description>
        <Point><coordinates>11.96911,57.70816,0</coordinates></Point>
        <styleUrl>#icon-22</styleUrl>
      </Placemark>
      <Placemark>
        <name><![CDATA[Kappahl - Avenyn]]></name>
        <description><![CDATA[Kappahl - Avenyn, Göteborg, Sverige]]></description>
        <Point><coordinates>11.976454,57.699463,0</coordinates></Point>
        <styleUrl>#icon-22</styleUrl>
      </Placemark>
      <Placemark>
        <name><![CDATA[Kappahl - Bäckebols Köpcenter]]></name>
        <description><![CDATA[Kappahl - Bäckebols Köpcenter, Hisings Backa, Sverige]]></description>
        <Point><coordinates>12.00092,57.76881,0</coordinates></Point>
        <styleUrl>#icon-22</styleUrl>
      </Placemark>
      <Placemark>
        <name><![CDATA[Kappahl - Mölndal Galleria]]></name>
        <description><![CDATA[Kappahl - Mölndal Galleria, Mölndal, Sverige]]></description>
        <Point><coordinates>12.013936,57.654141,0</coordinates></Point>
        <styleUrl>#icon-22</styleUrl>
      </Placemark>
      <Placemark>
        <name><![CDATA[Kappahl - K-Center]]></name>
        <description><![CDATA[Kappahl - K-Center, Kållered, Sverige]]></description>
        <Point><coordinates>12.044566,57.60817,0</coordinates></Point>
        <styleUrl>#icon-22</styleUrl>
      </Placemark>
      <Placemark>
        <name><![CDATA[Kappahl - Angereds Torg]]></name>
        <description><![CDATA[Kappahl - Angereds Torg, Angered, Sverige]]></description>
        <Point><coordinates>12.055663,57.793857,0</coordinates></Point>
        <styleUrl>#icon-22</styleUrl>
      </Placemark>
      <Placemark>
        <name><![CDATA[Kappahl - Kungsmässan]]></name>
        <description><![CDATA[Kappahl - Kungsmässan, Kungsbacka, Sverige]]></description>
        <Point><coordinates>12.074083,57.492614,0</coordinates></Point>
        <styleUrl>#icon-22</styleUrl>
      </Placemark>
      <Placemark>
        <name><![CDATA[Kappahl - Allum Köpcenter]]></name>
        <description><![CDATA[Kappahl - Allum Köpcenter, Partille, Sverige]]></description>
        <Point><coordinates>12.105132,57.737502,0</coordinates></Point>
        <styleUrl>#icon-22</styleUrl>
      </Placemark>
      <Placemark>
        <name><![CDATA[Kappahl - Galleria Trädgården]]></name>
        <description><![CDATA[Kappahl - Galleria Trädgården, Varberg, Sverige]]></description>
        <Point><coordinates>12.24751,57.105975,0</coordinates></Point>
        <styleUrl>#icon-22</styleUrl>
      </Placemark>
      <Placemark>
        <name><![CDATA[Kappahl - Solkatten Köpcentrum]]></name>
        <description><![CDATA[Kappahl - Solkatten Köpcentrum, Lerum, Sverige]]></description>
        <Point><coordinates>12.2688,57.7695,0</coordinates></Point>
        <styleUrl>#icon-22</styleUrl>
      </Placemark>
      <Placemark>
        <name><![CDATA[Kappahl - Charlottenberg Shoppingcenter]]></name>
        <description><![CDATA[Kappahl - Charlottenberg Shoppingcenter, Charlottenberg, Sverige]]></description>
        <Point><coordinates>12.289806,59.881886,0</coordinates></Point>
        <styleUrl>#icon-22</styleUrl>
      </Placemark>
      <Placemark>
        <name><![CDATA[Kappahl - Trollhättan City]]></name>
        <description><![CDATA[Kappahl - Trollhättan City, Trollhättan, Sverige]]></description>
        <Point><coordinates>12.290492,58.284893,0</coordinates></Point>
        <styleUrl>#icon-22</styleUrl>
      </Placemark>
      <Placemark>
        <name><![CDATA[Kappahl - SIBA-Huset Överby]]></name>
        <description><![CDATA[Kappahl - SIBA-Huset Överby, Trollhättan, Sverige]]></description>
        <Point><coordinates>12.306572,58.312007,0</coordinates></Point>
        <styleUrl>#icon-22</styleUrl>
      </Placemark>
      <Placemark>
        <name><![CDATA[Kappahl - Kronan Shopping]]></name>
        <description><![CDATA[Kappahl - Kronan Shopping, Falkenberg, Sverige]]></description>
        <Point><coordinates>12.491486,56.902555,0</coordinates></Point>
        <styleUrl>#icon-22</styleUrl>
      </Placemark>
      <Placemark>
        <name><![CDATA[Kappahl - Affärshuset Storken]]></name>
        <description><![CDATA[Kappahl - Affärshuset Storken, Alingsås, Sverige]]></description>
        <Point><coordinates>12.535328,57.930093,0</coordinates></Point>
        <styleUrl>#icon-22</styleUrl>
      </Placemark>
      <Placemark>
        <name><![CDATA[Kappahl - Arvika]]></name>
        <description><![CDATA[Kappahl - Arvika, Arvika, Sverige]]></description>
        <Point><coordinates>12.593072,59.655637,0</coordinates></Point>
        <styleUrl>#icon-22</styleUrl>
      </Placemark>
      <Placemark>
        <name><![CDATA[Kappahl - Kinna]]></name>
        <description><![CDATA[Kappahl - Kinna, Kinna, Sverige]]></description>
        <Point><coordinates>12.691882,57.507276,0</coordinates></Point>
        <styleUrl>#icon-22</styleUrl>
      </Placemark>
      <Placemark>
        <name><![CDATA[Kappahl - Helsingborg City]]></name>
        <description><![CDATA[Kappahl - Helsingborg City, Helsingborg, Sverige]]></description>
        <Point><coordinates>12.693646,56.048047,0</coordinates></Point>
        <styleUrl>#icon-22</styleUrl>
      </Placemark>
      <Placemark>
        <name><![CDATA[Kappahl - Väla Köpcenter]]></name>
        <description><![CDATA[Kappahl - Väla Köpcenter, Ödåkra, Sverige]]></description>
        <Point><coordinates>12.755498,56.093467,0</coordinates></Point>
        <styleUrl>#icon-22</styleUrl>
      </Placemark>
      <Placemark>
        <name><![CDATA[Kappahl - Newbie Väla Köpcenter]]></name>
        <description><![CDATA[Kappahl - Newbie Väla Köpcenter, Ödåkra, Sverige]]></description>
        <Point><coordinates>12.75683,56.09205,0</coordinates></Point>
        <styleUrl>#icon-22</styleUrl>
      </Placemark>
      <Placemark>
        <name><![CDATA[Kappahl - Landskrona]]></name>
        <description><![CDATA[Kappahl - Landskrona, Landskrona, Sverige]]></description>
        <Point><coordinates>12.833114,55.871257,0</coordinates></Point>
        <styleUrl>#icon-22</styleUrl>
      </Placemark>
      <Placemark>
        <name><![CDATA[Kappahl - Halmstad City]]></name>
        <description><![CDATA[Kappahl - Halmstad City, Halmstad, Sverige]]></description>
        <Point><coordinates>12.856386,56.675523,0</coordinates></Point>
        <styleUrl>#icon-22</styleUrl>
      </Placemark>
      <Placemark>
        <name><![CDATA[Kappahl - Ängelholm]]></name>
        <description><![CDATA[Kappahl - Ängelholm, Ängelholm, Sverige]]></description>
        <Point><coordinates>12.862731,56.243777,0</coordinates></Point>
        <styleUrl>#icon-22</styleUrl>
      </Placemark>
      <Placemark>
        <name><![CDATA[Kappahl - Hallarna]]></name>
        <description><![CDATA[Kappahl - Hallarna, Halmstad, Sverige]]></description>
        <Point><coordinates>12.908388,56.657226,0</coordinates></Point>
        <styleUrl>#icon-22</styleUrl>
      </Placemark>
      <Placemark>
        <name><![CDATA[Kappahl - Köpcentrum 45]]></name>
        <description><![CDATA[Kappahl - Köpcentrum 45, Säffle, Sverige]]></description>
        <Point><coordinates>12.92018,59.134202,0</coordinates></Point>
        <styleUrl>#icon-22</styleUrl>
      </Placemark>
      <Placemark>
        <name><![CDATA[Kappahl - Knalleland]]></name>
        <description><![CDATA[Kappahl - Knalleland, Borås, Sverige]]></description>
        <Point><coordinates>12.938371,57.735241,0</coordinates></Point>
        <styleUrl>#icon-22</styleUrl>
      </Placemark>
      <Placemark>
        <name><![CDATA[Kappahl - Borås City]]></name>
        <description><![CDATA[Kappahl - Borås City, Borås, Sverige]]></description>
        <Point><coordinates>12.939967,57.720368,0</coordinates></Point>
        <styleUrl>#icon-22</styleUrl>
      </Placemark>
      <Placemark>
        <name><![CDATA[Kappahl - Mellbystrand]]></name>
        <description><![CDATA[Kappahl - Mellbystrand, Mellbystrand, Sverige]]></description>
        <Point><coordinates>12.956364,56.503095,0</coordinates></Point>
        <styleUrl>#icon-22</styleUrl>
      </Placemark>
      <Placemark>
        <name><![CDATA[Kappahl - Emporia Shoppingcenter]]></name>
        <description><![CDATA[Kappahl - Emporia Shoppingcenter, Malmö, Sverige]]></description>
        <Point><coordinates>12.97313,55.56429,0</coordinates></Point>
        <styleUrl>#icon-22</styleUrl>
      </Placemark>
      <Placemark>
        <name><![CDATA[Kappahl - Center Syd]]></name>
        <description><![CDATA[Kappahl - Center Syd, Löddeköpinge, Sverige]]></description>
        <Point><coordinates>12.990519,55.769552,0</coordinates></Point>
        <styleUrl>#icon-22</styleUrl>
      </Placemark>
      <Placemark>
        <name><![CDATA[Kappahl - Triangeln]]></name>
        <description><![CDATA[Kappahl - Triangeln, Malmö, Sverige]]></description>
        <Point><coordinates>13.001723,55.595973,0</coordinates></Point>
        <styleUrl>#icon-22</styleUrl>
      </Placemark>
      <Placemark>
        <name><![CDATA[Kappahl - Mobilia]]></name>
        <description><![CDATA[Kappahl - Mobilia, Malmö, Sverige]]></description>
        <Point><coordinates>13.003861,55.580381,0</coordinates></Point>
        <styleUrl>#icon-22</styleUrl>
      </Placemark>
      <Placemark>
        <name><![CDATA[Kappahl - Burlövs Centrum]]></name>
        <description><![CDATA[Kappahl - Burlövs Centrum, Arlöv, Sverige]]></description>
        <Point><coordinates>13.083846,55.639528,0</coordinates></Point>
        <styleUrl>#icon-22</styleUrl>
      </Placemark>
      <Placemark>
        <name><![CDATA[Kappahl - Lidköping]]></name>
        <description><![CDATA[Kappahl - Lidköping, Lidköping, Sverige]]></description>
        <Point><coordinates>13.147354,58.508319,0</coordinates></Point>
        <styleUrl>#icon-22</styleUrl>
      </Placemark>
      <Placemark>
        <name><![CDATA[Kappahl - Valen Köpcenter]]></name>
        <description><![CDATA[Kappahl - Valen Köpcenter, Trelleborg, Sverige]]></description>
        <Point><coordinates>13.158432,55.374173,0</coordinates></Point>
        <styleUrl>#icon-22</styleUrl>
      </Placemark>
      <Placemark>
        <name><![CDATA[Kappahl - Nova Köpcenter]]></name>
        <description><![CDATA[Kappahl - Nova Köpcenter, Lund, Sverige]]></description>
        <Point><coordinates>13.159958,55.71394,0</coordinates></Point>
        <styleUrl>#icon-22</styleUrl>
      </Placemark>
      <Placemark>
        <name><![CDATA[Kappahl - Lund]]></name>
        <description><![CDATA[Kappahl - Lund, Lund, Sverige]]></description>
        <Point><coordinates>13.197777,55.701905,0</coordinates></Point>
        <styleUrl>#icon-22</styleUrl>
      </Placemark>
      <Placemark>
        <name><![CDATA[Kappahl - Eslöv]]></name>
        <description><![CDATA[Kappahl - Eslöv, Eslöv, Sverige]]></description>
        <Point><coordinates>13.303176,55.838247,0</coordinates></Point>
        <styleUrl>#icon-22</styleUrl>
      </Placemark>
      <Placemark>
        <name><![CDATA[Kappahl - Ulricehamn]]></name>
        <description><![CDATA[Kappahl - Ulricehamn, Ulricehamn, Sverige]]></description>
        <Point><coordinates>13.4137,57.79308,0</coordinates></Point>
        <styleUrl>#icon-22</styleUrl>
      </Placemark>
      <Placemark>
        <name><![CDATA[Kappahl - Bergviks köpcenter]]></name>
        <description><![CDATA[Kappahl - Bergviks köpcenter, Karlstad, Sverige]]></description>
        <Point><coordinates>13.423343,59.376355,0</coordinates></Point>
        <styleUrl>#icon-22</styleUrl>
      </Placemark>
      <Placemark>
        <name><![CDATA[Kappahl - Gallerian Duvan]]></name>
        <description><![CDATA[Kappahl - Gallerian Duvan, Karlstad, Sverige]]></description>
        <Point><coordinates>13.499663,59.379151,0</coordinates></Point>
        <styleUrl>#icon-22</styleUrl>
      </Placemark>
      <Placemark>
        <name><![CDATA[Kappahl - Gislaved]]></name>
        <description><![CDATA[Kappahl - Gislaved, Gislaved, Sverige]]></description>
        <Point><coordinates>13.539983,57.302038,0</coordinates></Point>
        <styleUrl>#icon-22</styleUrl>
      </Placemark>
      <Placemark>
        <name><![CDATA[Kappahl - Varuhuset Ryttaren]]></name>
        <description><![CDATA[Kappahl - Varuhuset Ryttaren, Falköping, Sverige]]></description>
        <Point><coordinates>13.554706,58.160732,0</coordinates></Point>
        <styleUrl>#icon-22</styleUrl>
      </Placemark>
      <Placemark>
        <name><![CDATA[Kappahl - Gallerian]]></name>
        <description><![CDATA[Kappahl - Gallerian, Hässleholm, Sverige]]></description>
        <Point><coordinates>13.767285,56.158922,0</coordinates></Point>
        <styleUrl>#icon-22</styleUrl>
      </Placemark>
      <Placemark>
        <name><![CDATA[Kappahl - Ystad]]></name>
        <description><![CDATA[Kappahl - Ystad, Ystad, Sverige]]></description>
        <Point><coordinates>13.82178,55.429875,0</coordinates></Point>
        <styleUrl>#icon-22</styleUrl>
      </Placemark>
      <Placemark>
        <name><![CDATA[Kappahl - Varuhuset Knallen]]></name>
        <description><![CDATA[Kappahl - Varuhuset Knallen, Mariestad, Sverige]]></description>
        <Point><coordinates>13.823695,58.709007,0</coordinates></Point>
        <styleUrl>#icon-22</styleUrl>
      </Placemark>
      <Placemark>
        <name><![CDATA[Kappahl - Commerce Köpcentrum]]></name>
        <description><![CDATA[Kappahl - Commerce Köpcentrum, Skövde, Sverige]]></description>
        <Point><coordinates>13.845,58.389996,0</coordinates></Point>
        <styleUrl>#icon-22</styleUrl>
      </Placemark>
      <Placemark>
        <name><![CDATA[Kappahl - Elins Esplanad]]></name>
        <description><![CDATA[Kappahl - Elins Esplanad, Skövde, Sverige]]></description>
        <Point><coordinates>13.854527,58.405522,0</coordinates></Point>
        <styleUrl>#icon-22</styleUrl>
      </Placemark>
      <Placemark>
        <name><![CDATA[Kappahl - Ljungby]]></name>
        <description><![CDATA[Kappahl - Ljungby, Ljungby, Sverige]]></description>
        <Point><coordinates>13.941061,56.834502,0</coordinates></Point>
        <styleUrl>#icon-22</styleUrl>
      </Placemark>
      <Placemark>
        <name><![CDATA[Kappahl - Värnamo]]></name>
        <description><![CDATA[Kappahl - Värnamo, Värnamo, Sverige]]></description>
        <Point><coordinates>14.04336,57.184523,0</coordinates></Point>
        <styleUrl>#icon-22</styleUrl>
      </Placemark>
      <Placemark>
        <name><![CDATA[Kappahl - Kristinehamn]]></name>
        <description><![CDATA[Kappahl - Kristinehamn, Kristinehamn, Sverige]]></description>
        <Point><coordinates>14.110158,59.308154,0</coordinates></Point>
        <styleUrl>#icon-22</styleUrl>
      </Placemark>
      <Placemark>
        <name><![CDATA[Kappahl - Kristianstad, City]]></name>
        <description><![CDATA[Kappahl - Kristianstad, City, Kristianstad, Sverige]]></description>
        <Point><coordinates>14.15716,56.02956,0</coordinates></Point>
        <styleUrl>#icon-22</styleUrl>
      </Placemark>
      <Placemark>
        <name><![CDATA[Kappahl - Jönköping City]]></name>
        <description><![CDATA[Kappahl - Jönköping City, Jönköping, Sverige]]></description>
        <Point><coordinates>14.173476,57.782535,0</coordinates></Point>
        <styleUrl>#icon-22</styleUrl>
      </Placemark>
      <Placemark>
        <name><![CDATA[Kappahl - Kristianstad, C4]]></name>
        <description><![CDATA[Kappahl - Kristianstad, C4, Kristianstad, Sverige]]></description>
        <Point><coordinates>14.196139,56.023607,0</coordinates></Point>
        <styleUrl>#icon-22</styleUrl>
      </Placemark>
      <Placemark>
        <name><![CDATA[Kappahl - Asecs]]></name>
        <description><![CDATA[Kappahl - Asecs, Jönköping, Sverige]]></description>
        <Point><coordinates>14.202253,57.773383,0</coordinates></Point>
        <styleUrl>#icon-22</styleUrl>
      </Placemark>
      <Placemark>
        <name><![CDATA[Kappahl - Rosengallerian]]></name>
        <description><![CDATA[Kappahl - Rosengallerian, Huskvarna, Sverige]]></description>
        <Point><coordinates>14.27516,57.790259,0</coordinates></Point>
        <styleUrl>#icon-22</styleUrl>
      </Placemark>
      <Placemark>
        <name><![CDATA[Kappahl - K-Center]]></name>
        <description><![CDATA[Kappahl - K-Center, Karlskoga, Sverige]]></description>
        <Point><coordinates>14.524575,59.326619,0</coordinates></Point>
        <styleUrl>#icon-22</styleUrl>
      </Placemark>
      <Placemark>
        <name><![CDATA[Kappahl - Rondellens köpcenter]]></name>
        <description><![CDATA[Kappahl - Rondellens köpcenter, Mora, Sverige]]></description>
        <Point><coordinates>14.587762,61.008518,0</coordinates></Point>
        <styleUrl>#icon-22</styleUrl>
      </Placemark>
      <Placemark>
        <name><![CDATA[Kappahl - Östersund City]]></name>
        <description><![CDATA[Kappahl - Östersund City, Östersund, Sverige]]></description>
        <Point><coordinates>14.636798,63.177642,0</coordinates></Point>
        <styleUrl>#icon-22</styleUrl>
      </Placemark>
      <Placemark>
        <name><![CDATA[Kappahl - Mjällby]]></name>
        <description><![CDATA[Kappahl - Mjällby, Sölvesborg, Sverige]]></description>
        <Point><coordinates>14.67357,56.04441,0</coordinates></Point>
        <styleUrl>#icon-22</styleUrl>
      </Placemark>
      <Placemark>
        <name><![CDATA[Kappahl - Lillänge]]></name>
        <description><![CDATA[Kappahl - Lillänge, Östersund, Sverige]]></description>
        <Point><coordinates>14.69487,63.17519,0</coordinates></Point>
        <styleUrl>#icon-22</styleUrl>
      </Placemark>
      <Placemark>
        <name><![CDATA[Kappahl - Nässjö]]></name>
        <description><![CDATA[Kappahl - Nässjö, Nässjö, Sverige]]></description>
        <Point><coordinates>14.695172,57.652962,0</coordinates></Point>
        <styleUrl>#icon-22</styleUrl>
      </Placemark>
      <Placemark>
        <name><![CDATA[Kappahl - Grand Samarkand]]></name>
        <description><![CDATA[Kappahl - Grand Samarkand, Växjö, Sverige]]></description>
        <Point><coordinates>14.761595,56.884464,0</coordinates></Point>
        <styleUrl>#icon-22</styleUrl>
      </Placemark>
      <Placemark>
        <name><![CDATA[Kappahl - Växjö]]></name>
        <description><![CDATA[Kappahl - Växjö, Växjö, Sverige]]></description>
        <Point><coordinates>14.803617,56.878837,0</coordinates></Point>
        <styleUrl>#icon-22</styleUrl>
      </Placemark>
      <Placemark>
        <name><![CDATA[Kappahl - Karlshamn]]></name>
        <description><![CDATA[Kappahl - Karlshamn, Karlshamn, Sverige]]></description>
        <Point><coordinates>14.864446,56.170511,0</coordinates></Point>
        <styleUrl>#icon-22</styleUrl>
      </Placemark>
      <Placemark>
        <name><![CDATA[Kappahl - Tranås]]></name>
        <description><![CDATA[Kappahl - Tranås, Tranås, Sverige]]></description>
        <Point><coordinates>14.975827,58.035995,0</coordinates></Point>
        <styleUrl>#icon-22</styleUrl>
      </Placemark>
      <Placemark>
        <name><![CDATA[Kappahl - Motala]]></name>
        <description><![CDATA[Kappahl - Motala, Motala, Sverige]]></description>
        <Point><coordinates>15.035334,58.537238,0</coordinates></Point>
        <styleUrl>#icon-22</styleUrl>
      </Placemark>
      <Placemark>
        <name><![CDATA[Kappahl - Gallerian]]></name>
        <description><![CDATA[Kappahl - Gallerian, Vetlanda, Sverige]]></description>
        <Point><coordinates>15.086113,57.424797,0</coordinates></Point>
        <styleUrl>#icon-22</styleUrl>
      </Placemark>
      <Placemark>
        <name><![CDATA[Kappahl - Galleria Kvarnen]]></name>
        <description><![CDATA[Kappahl - Galleria Kvarnen, Mjölby, Sverige]]></description>
        <Point><coordinates>15.12528,58.325694,0</coordinates></Point>
        <styleUrl>#icon-22</styleUrl>
      </Placemark>
      <Placemark>
        <name><![CDATA[Kappahl - Mariebergs Galleria]]></name>
        <description><![CDATA[Kappahl - Mariebergs Galleria, Örebro, Sverige]]></description>
        <Point><coordinates>15.139235,59.216501,0</coordinates></Point>
        <styleUrl>#icon-22</styleUrl>
      </Placemark>
      <Placemark>
        <name><![CDATA[Kappahl - Galleria Engelbrekt]]></name>
        <description><![CDATA[Kappahl - Galleria Engelbrekt, Ludvika, Sverige]]></description>
        <Point><coordinates>15.185332,60.149394,0</coordinates></Point>
        <styleUrl>#icon-22</styleUrl>
      </Placemark>
      <Placemark>
        <name><![CDATA[Kappahl - Örebro City]]></name>
        <description><![CDATA[Kappahl - Örebro City, Örebro, Sverige]]></description>
        <Point><coordinates>15.212251,59.270988,0</coordinates></Point>
        <styleUrl>#icon-22</styleUrl>
      </Placemark>
      <Placemark>
        <name><![CDATA[Kappahl - KappAhl]]></name>
        <description><![CDATA[Kappahl - KappAhl, Borlänge, Sverige]]></description>
        <Point><coordinates>15.417971,60.484166,0</coordinates></Point>
        <styleUrl>#icon-22</styleUrl>
      </Placemark>
      <Placemark>
        <name><![CDATA[Kappahl - Tornby Köpcenter]]></name>
        <description><![CDATA[Kappahl - Tornby Köpcenter, Linköping, Sverige]]></description>
        <Point><coordinates>15.58666,58.43295,0</coordinates></Point>
        <styleUrl>#icon-22</styleUrl>
      </Placemark>
      <Placemark>
        <name><![CDATA[Kappahl - Gyllenhuset]]></name>
        <description><![CDATA[Kappahl - Gyllenhuset, Linköping, Sverige]]></description>
        <Point><coordinates>15.62653,58.410643,0</coordinates></Point>
        <styleUrl>#icon-22</styleUrl>
      </Placemark>
      <Placemark>
        <name><![CDATA[Kappahl - Bergströms Galleria]]></name>
        <description><![CDATA[Kappahl - Bergströms Galleria, Falun, Sverige]]></description>
        <Point><coordinates>15.632101,60.605754,0</coordinates></Point>
        <styleUrl>#icon-22</styleUrl>
      </Placemark>
      <Placemark>
        <name><![CDATA[Kappahl - Amiralen Köpcenter]]></name>
        <description><![CDATA[Kappahl - Amiralen Köpcenter, Lyckeby, Sverige]]></description>
        <Point><coordinates>15.641813,56.196978,0</coordinates></Point>
        <styleUrl>#icon-22</styleUrl>
      </Placemark>
      <Placemark>
        <name><![CDATA[Kappahl - Köping]]></name>
        <description><![CDATA[Kappahl - Köping, Köping, Sverige]]></description>
        <Point><coordinates>15.997337,59.513505,0</coordinates></Point>
        <styleUrl>#icon-22</styleUrl>
      </Placemark>
      <Placemark>
        <name><![CDATA[Kappahl - Ingelsta Köpcenter]]></name>
        <description><![CDATA[Kappahl - Ingelsta Köpcenter, Norrköping, Sverige]]></description>
        <Point><coordinates>16.154663,58.618416,0</coordinates></Point>
        <styleUrl>#icon-22</styleUrl>
      </Placemark>
      <Placemark>
        <name><![CDATA[Kappahl - Avesta]]></name>
        <description><![CDATA[Kappahl - Avesta, Avesta, Sverige]]></description>
        <Point><coordinates>16.16825,60.14588,0</coordinates></Point>
        <styleUrl>#icon-22</styleUrl>
      </Placemark>
      <Placemark>
        <name><![CDATA[Kappahl - Norrköping]]></name>
        <description><![CDATA[Kappahl - Norrköping, Norrköping, Sverige]]></description>
        <Point><coordinates>16.189591,58.585993,0</coordinates></Point>
        <styleUrl>#icon-22</styleUrl>
      </Placemark>
      <Placemark>
        <name><![CDATA[Kappahl - Violen Gallerian]]></name>
        <description><![CDATA[Kappahl - Violen Gallerian, Katrineholm, Sverige]]></description>
        <Point><coordinates>16.20972,58.994301,0</coordinates></Point>
        <styleUrl>#icon-22</styleUrl>
      </Placemark>
      <Placemark>
        <name><![CDATA[Kappahl - Hansa City]]></name>
        <description><![CDATA[Kappahl - Hansa City, Kalmar, Sverige]]></description>
        <Point><coordinates>16.34763,56.693715,0</coordinates></Point>
        <styleUrl>#icon-22</styleUrl>
      </Placemark>
      <Placemark>
        <name><![CDATA[Kappahl - Kalmar]]></name>
        <description><![CDATA[Kappahl - Kalmar, Kalmar, Sverige]]></description>
        <Point><coordinates>16.364405,56.663838,0</coordinates></Point>
        <styleUrl>#icon-22</styleUrl>
      </Placemark>
      <Placemark>
        <name><![CDATA[Kappahl - Bollnäs]]></name>
        <description><![CDATA[Kappahl - Bollnäs, Bollnäs, Sverige]]></description>
        <Point><coordinates>16.394972,61.347705,0</coordinates></Point>
        <styleUrl>#icon-22</styleUrl>
      </Placemark>
      <Placemark>
        <name><![CDATA[Kappahl - Oskarshamn]]></name>
        <description><![CDATA[Kappahl - Oskarshamn, Oskarshamn, Sverige]]></description>
        <Point><coordinates>16.447877,57.263773,0</coordinates></Point>
        <styleUrl>#icon-22</styleUrl>
      </Placemark>
      <Placemark>
        <name><![CDATA[Kappahl - Erikslunds Shopping Center]]></name>
        <description><![CDATA[Kappahl - Erikslunds Shopping Center, Västerås, Sverige]]></description>
        <Point><coordinates>16.462113,59.611242,0</coordinates></Point>
        <styleUrl>#icon-22</styleUrl>
      </Placemark>
      <Placemark>
        <name><![CDATA[Kappahl - Tuna Park]]></name>
        <description><![CDATA[Kappahl - Tuna Park, Eskilstuna, Sverige]]></description>
        <Point><coordinates>16.470114,59.371344,0</coordinates></Point>
        <styleUrl>#icon-22</styleUrl>
      </Placemark>
      <Placemark>
        <name><![CDATA[Kappahl - Ölands Köpstad]]></name>
        <description><![CDATA[Kappahl - Ölands Köpstad, Färjestaden, Sverige]]></description>
        <Point><coordinates>16.477915,56.655743,0</coordinates></Point>
        <styleUrl>#icon-22</styleUrl>
      </Placemark>
      <Placemark>
        <name><![CDATA[Kappahl - Västerås City]]></name>
        <description><![CDATA[Kappahl - Västerås City, Västerås, Sverige]]></description>
        <Point><coordinates>16.544552,59.611817,0</coordinates></Point>
        <styleUrl>#icon-22</styleUrl>
      </Placemark>
      <Placemark>
        <name><![CDATA[Kappahl - Sala]]></name>
        <description><![CDATA[Kappahl - Sala, Sala, Sverige]]></description>
        <Point><coordinates>16.605803,59.919726,0</coordinates></Point>
        <styleUrl>#icon-22</styleUrl>
      </Placemark>
      <Placemark>
        <name><![CDATA[Kappahl - Västerport]]></name>
        <description><![CDATA[Kappahl - Västerport, Västervik, Sverige]]></description>
        <Point><coordinates>16.639654,57.757727,0</coordinates></Point>
        <styleUrl>#icon-22</styleUrl>
      </Placemark>
      <Placemark>
        <name><![CDATA[Kappahl - Sandviken]]></name>
        <description><![CDATA[Kappahl - Sandviken, Sandviken, Sverige]]></description>
        <Point><coordinates>16.778278,60.619703,0</coordinates></Point>
        <styleUrl>#icon-22</styleUrl>
      </Placemark>
      <Placemark>
        <name><![CDATA[Kappahl - Valbo Köpcentrum]]></name>
        <description><![CDATA[Kappahl - Valbo Köpcentrum, Valbo, Sverige]]></description>
        <Point><coordinates>16.99337,60.63369,0</coordinates></Point>
        <styleUrl>#icon-22</styleUrl>
      </Placemark>
      <Placemark>
        <name><![CDATA[Kappahl - Nyköping]]></name>
        <description><![CDATA[Kappahl - Nyköping, Nyköping, Sverige]]></description>
        <Point><coordinates>17.006303,58.751965,0</coordinates></Point>
        <styleUrl>#icon-22</styleUrl>
      </Placemark>
      <Placemark>
        <name><![CDATA[Kappahl - Strängnäs]]></name>
        <description><![CDATA[Kappahl - Strängnäs, Strängnäs, Sverige]]></description>
        <Point><coordinates>17.027038,59.376321,0</coordinates></Point>
        <styleUrl>#icon-22</styleUrl>
      </Placemark>
      <Placemark>
        <name><![CDATA[Kappahl - Söderhamn]]></name>
        <description><![CDATA[Kappahl - Söderhamn, Söderhamn, Sverige]]></description>
        <Point><coordinates>17.056994,61.302968,0</coordinates></Point>
        <styleUrl>#icon-22</styleUrl>
      </Placemark>
      <Placemark>
        <name><![CDATA[Kappahl - Hudiksvall]]></name>
        <description><![CDATA[Kappahl - Hudiksvall, Hudiksvall, Sverige]]></description>
        <Point><coordinates>17.104363,61.7274,0</coordinates></Point>
        <styleUrl>#icon-22</styleUrl>
      </Placemark>
      <Placemark>
        <name><![CDATA[Kappahl - KappAhl]]></name>
        <description><![CDATA[Kappahl - KappAhl, Gävle, Sverige]]></description>
        <Point><coordinates>17.140977,60.67402,0</coordinates></Point>
        <styleUrl>#icon-22</styleUrl>
      </Placemark>
      <Placemark>
        <name><![CDATA[Kappahl - Sollefteå]]></name>
        <description><![CDATA[Kappahl - Sollefteå, Sollefteå, Sverige]]></description>
        <Point><coordinates>17.268868,63.16736,0</coordinates></Point>
        <styleUrl>#icon-22</styleUrl>
      </Placemark>
      <Placemark>
        <name><![CDATA[Kappahl - IN:Gallerian]]></name>
        <description><![CDATA[Kappahl - IN:Gallerian, Sundsvall, Sverige]]></description>
        <Point><coordinates>17.306657,62.391289,0</coordinates></Point>
        <styleUrl>#icon-22</styleUrl>
      </Placemark>
      <Placemark>
        <name><![CDATA[Kappahl - Birsta]]></name>
        <description><![CDATA[Kappahl - Birsta, Sundsvall, Sverige]]></description>
        <Point><coordinates>17.335877,62.447125,0</coordinates></Point>
        <styleUrl>#icon-22</styleUrl>
      </Placemark>
      <Placemark>
        <name><![CDATA[Kappahl - Bålsta]]></name>
        <description><![CDATA[Kappahl - Bålsta, Bålsta, Sverige]]></description>
        <Point><coordinates>17.529126,59.566189,0</coordinates></Point>
        <styleUrl>#icon-22</styleUrl>
      </Placemark>
      <Placemark>
        <name><![CDATA[Kappahl - Rinken]]></name>
        <description><![CDATA[Kappahl - Rinken, Södertälje, Sverige]]></description>
        <Point><coordinates>17.574141,59.187468,0</coordinates></Point>
        <styleUrl>#icon-22</styleUrl>
      </Placemark>
      <Placemark>
        <name><![CDATA[Kappahl - Uppsala City]]></name>
        <description><![CDATA[Kappahl - Uppsala City, Uppsala, Sverige]]></description>
        <Point><coordinates>17.637966,59.859175,0</coordinates></Point>
        <styleUrl>#icon-22</styleUrl>
      </Placemark>
      <Placemark>
        <name><![CDATA[Kappahl - Gränby Centrum]]></name>
        <description><![CDATA[Kappahl - Gränby Centrum, Uppsala, Sverige]]></description>
        <Point><coordinates>17.672659,59.877019,0</coordinates></Point>
        <styleUrl>#icon-22</styleUrl>
      </Placemark>
      <Placemark>
        <name><![CDATA[Kappahl - Boländerna]]></name>
        <description><![CDATA[Kappahl - Boländerna, Uppsala, Sverige]]></description>
        <Point><coordinates>17.690166,59.844631,0</coordinates></Point>
        <styleUrl>#icon-22</styleUrl>
      </Placemark>
      <Placemark>
        <name><![CDATA[Kappahl - Gallerian Christoffer]]></name>
        <description><![CDATA[Kappahl - Gallerian Christoffer, Kramfors, Sverige]]></description>
        <Point><coordinates>17.77788,62.93222,0</coordinates></Point>
        <styleUrl>#icon-22</styleUrl>
      </Placemark>
      <Placemark>
        <name><![CDATA[Kappahl - Ekerö]]></name>
        <description><![CDATA[Kappahl - Ekerö, Ekerö, Sverige]]></description>
        <Point><coordinates>17.812188,59.290913,0</coordinates></Point>
        <styleUrl>#icon-22</styleUrl>
      </Placemark>
      <Placemark>
        <name><![CDATA[Kappahl - Tumba Centrum]]></name>
        <description><![CDATA[Kappahl - Tumba Centrum, Tumba, Sverige]]></description>
        <Point><coordinates>17.834612,59.19939,0</coordinates></Point>
        <styleUrl>#icon-22</styleUrl>
      </Placemark>
      <Placemark>
        <name><![CDATA[Kappahl - Jakobsbergs Centrum]]></name>
        <description><![CDATA[Kappahl - Jakobsbergs Centrum, Järfälla, Sverige]]></description>
        <Point><coordinates>17.835652,59.423939,0</coordinates></Point>
        <styleUrl>#icon-22</styleUrl>
      </Placemark>
      <Placemark>
        <name><![CDATA[Kappahl - Märsta Centrum]]></name>
        <description><![CDATA[Kappahl - Märsta Centrum, Märsta, Sverige]]></description>
        <Point><coordinates>17.857537,59.621473,0</coordinates></Point>
        <styleUrl>#icon-22</styleUrl>
      </Placemark>
      <Placemark>
        <name><![CDATA[Kappahl - Barkarby]]></name>
        <description><![CDATA[Kappahl - Barkarby, Järfälla, Sverige]]></description>
        <Point><coordinates>17.858192,59.416177,0</coordinates></Point>
        <styleUrl>#icon-22</styleUrl>
      </Placemark>
      <Placemark>
        <name><![CDATA[Kappahl - Vällingby City]]></name>
        <description><![CDATA[Kappahl - Vällingby City, Vällingby, Sverige]]></description>
        <Point><coordinates>17.874147,59.362783,0</coordinates></Point>
        <styleUrl>#icon-22</styleUrl>
      </Placemark>
      <Placemark>
        <name><![CDATA[Kappahl - Skärholmen]]></name>
        <description><![CDATA[Kappahl - Skärholmen, Skärholmen, Sverige]]></description>
        <Point><coordinates>17.906631,59.275101,0</coordinates></Point>
        <styleUrl>#icon-22</styleUrl>
      </Placemark>
      <Placemark>
        <name><![CDATA[Kappahl - Väsby Centrum]]></name>
        <description><![CDATA[Kappahl - Väsby Centrum, Upplands Väsby, Sverige]]></description>
        <Point><coordinates>17.909925,59.518665,0</coordinates></Point>
        <styleUrl>#icon-22</styleUrl>
      </Placemark>
      <Placemark>
        <name><![CDATA[Kappahl - Kungens Kurva Shoppingcenter]]></name>
        <description><![CDATA[Kappahl - Kungens Kurva Shoppingcenter, Kungens Kurva, Sverige]]></description>
        <Point><coordinates>17.917156,59.269477,0</coordinates></Point>
        <styleUrl>#icon-22</styleUrl>
      </Placemark>
      <Placemark>
        <name><![CDATA[Kappahl - Härnösand]]></name>
        <description><![CDATA[Kappahl - Härnösand, Härnösand, Sverige]]></description>
        <Point><coordinates>17.92748,62.63686,0</coordinates></Point>
        <styleUrl>#icon-22</styleUrl>
      </Placemark>
      <Placemark>
        <name><![CDATA[Kappahl - Kista Galleria]]></name>
        <description><![CDATA[Kappahl - Kista Galleria, Kista, Sverige]]></description>
        <Point><coordinates>17.942409,59.404028,0</coordinates></Point>
        <styleUrl>#icon-22</styleUrl>
      </Placemark>
      <Placemark>
        <name><![CDATA[Kappahl - Sollentuna Centrum]]></name>
        <description><![CDATA[Kappahl - Sollentuna Centrum, Sollentuna, Sverige]]></description>
        <Point><coordinates>17.952835,59.427903,0</coordinates></Point>
        <styleUrl>#icon-22</styleUrl>
      </Placemark>
      <Placemark>
        <name><![CDATA[Kappahl - Huddinge Centrum]]></name>
        <description><![CDATA[Kappahl - Huddinge Centrum, Huddinge, Sverige]]></description>
        <Point><coordinates>17.981407,59.235651,0</coordinates></Point>
        <styleUrl>#icon-22</styleUrl>
      </Placemark>
      <Placemark>
        <name><![CDATA[Kappahl - Mall of Scandinavia]]></name>
        <description><![CDATA[Kappahl - Mall of Scandinavia, Solna, Sverige]]></description>
        <Point><coordinates>18.000088,59.370894,0</coordinates></Point>
        <styleUrl>#icon-22</styleUrl>
      </Placemark>
      <Placemark>
        <name><![CDATA[Kappahl - Newbie Mall of Scandinavia]]></name>
        <description><![CDATA[Kappahl - Newbie Mall of Scandinavia, Solna, Sverige]]></description>
        <Point><coordinates>18.004264,59.371547,0</coordinates></Point>
        <styleUrl>#icon-22</styleUrl>
      </Placemark>
      <Placemark>
        <name><![CDATA[Kappahl - Liljeholmstorgets Galleria]]></name>
        <description><![CDATA[Kappahl - Liljeholmstorgets Galleria, Stockholm, Sverige]]></description>
        <Point><coordinates>18.022421,59.309532,0</coordinates></Point>
        <styleUrl>#icon-22</styleUrl>
      </Placemark>
      <Placemark>
        <name><![CDATA[Kappahl - Drottninggatan]]></name>
        <description><![CDATA[Kappahl - Drottninggatan, Stockholm, Sverige]]></description>
        <Point><coordinates>18.061865,59.333296,0</coordinates></Point>
        <styleUrl>#icon-22</styleUrl>
      </Placemark>
      <Placemark>
        <name><![CDATA[Kappahl - Newbie Sergelgatan]]></name>
        <description><![CDATA[Kappahl - Newbie Sergelgatan, Stockholm, Sverige]]></description>
        <Point><coordinates>18.06325,59.33439,0</coordinates></Point>
        <styleUrl>#icon-22</styleUrl>
      </Placemark>
      <Placemark>
        <name><![CDATA[Kappahl - Täby Centrum]]></name>
        <description><![CDATA[Kappahl - Täby Centrum, Täby, Sverige]]></description>
        <Point><coordinates>18.069076,59.444922,0</coordinates></Point>
        <styleUrl>#icon-22</styleUrl>
      </Placemark>
      <Placemark>
        <name><![CDATA[Kappahl - Newbie Fältöversten]]></name>
        <description><![CDATA[Kappahl - Newbie Fältöversten, Stockholm, Sverige]]></description>
        <Point><coordinates>18.09099,59.33889,0</coordinates></Point>
        <styleUrl>#icon-22</styleUrl>
      </Placemark>
      <Placemark>
        <name><![CDATA[Kappahl - Farsta Centrum]]></name>
        <description><![CDATA[Kappahl - Farsta Centrum, Farsta, Sverige]]></description>
        <Point><coordinates>18.093019,59.24259,0</coordinates></Point>
        <styleUrl>#icon-22</styleUrl>
      </Placemark>
      <Placemark>
        <name><![CDATA[Kappahl - Sickla]]></name>
        <description><![CDATA[Kappahl - Sickla, Nacka, Sverige]]></description>
        <Point><coordinates>18.124495,59.306035,0</coordinates></Point>
        <styleUrl>#icon-22</styleUrl>
      </Placemark>
      <Placemark>
        <name><![CDATA[Kappahl - Haninge City]]></name>
        <description><![CDATA[Kappahl - Haninge City, Haninge, Sverige]]></description>
        <Point><coordinates>18.140268,59.16916,0</coordinates></Point>
        <styleUrl>#icon-22</styleUrl>
      </Placemark>
      <Placemark>
        <name><![CDATA[Kappahl - Haninge Port 73]]></name>
        <description><![CDATA[Kappahl - Haninge Port 73, Haninge, Sverige]]></description>
        <Point><coordinates>18.1506,59.17949,0</coordinates></Point>
        <styleUrl>#icon-22</styleUrl>
      </Placemark>
      <Placemark>
        <name><![CDATA[Kappahl - Nacka Forum]]></name>
        <description><![CDATA[Kappahl - Nacka Forum, Nacka, Sverige]]></description>
        <Point><coordinates>18.16439,59.309419,0</coordinates></Point>
        <styleUrl>#icon-22</styleUrl>
      </Placemark>
      <Placemark>
        <name><![CDATA[Kappahl - Tyresö Centrum]]></name>
        <description><![CDATA[Kappahl - Tyresö Centrum, Tyresö, Sverige]]></description>
        <Point><coordinates>18.228536,59.245087,0</coordinates></Point>
        <styleUrl>#icon-22</styleUrl>
      </Placemark>
      <Placemark>
        <name><![CDATA[Kappahl - Åkersberga]]></name>
        <description><![CDATA[Kappahl - Åkersberga, Åkersberga, Sverige]]></description>
        <Point><coordinates>18.298111,59.481894,0</coordinates></Point>
        <styleUrl>#icon-22</styleUrl>
      </Placemark>
      <Placemark>
        <name><![CDATA[Kappahl - Visby]]></name>
        <description><![CDATA[Kappahl - Visby, Visby, Sverige]]></description>
        <Point><coordinates>18.300412,57.637433,0</coordinates></Point>
        <styleUrl>#icon-22</styleUrl>
      </Placemark>
      <Placemark>
        <name><![CDATA[Kappahl - Värmdö]]></name>
        <description><![CDATA[Kappahl - Värmdö, Gustavsberg, Sverige]]></description>
        <Point><coordinates>18.429351,59.312975,0</coordinates></Point>
        <styleUrl>#icon-22</styleUrl>
      </Placemark>
      <Placemark>
        <name><![CDATA[Kappahl - Lycksele]]></name>
        <description><![CDATA[Kappahl - Lycksele, Lycksele, Sverige]]></description>
        <Point><coordinates>18.67637,64.59581,0</coordinates></Point>
        <styleUrl>#icon-22</styleUrl>
      </Placemark>
      <Placemark>
        <name><![CDATA[Kappahl - Norrtälje City]]></name>
        <description><![CDATA[Kappahl - Norrtälje City, Norrtälje, Sverige]]></description>
        <Point><coordinates>18.700363,59.757154,0</coordinates></Point>
        <styleUrl>#icon-22</styleUrl>
      </Placemark>
      <Placemark>
        <name><![CDATA[Kappahl - Flygfyren]]></name>
        <description><![CDATA[Kappahl - Flygfyren, Norrtälje, Sverige]]></description>
        <Point><coordinates>18.701358,59.759584,0</coordinates></Point>
        <styleUrl>#icon-22</styleUrl>
      </Placemark>
      <Placemark>
        <name><![CDATA[Kappahl - Örnsköldsvik]]></name>
        <description><![CDATA[Kappahl - Örnsköldsvik, Örnsköldsvik, Sverige]]></description>
        <Point><coordinates>18.71553,63.291,0</coordinates></Point>
        <styleUrl>#icon-22</styleUrl>
      </Placemark>
      <Placemark>
        <name><![CDATA[Kappahl - Kiruna]]></name>
        <description><![CDATA[Kappahl - Kiruna, Kiruna, Sverige]]></description>
        <Point><coordinates>20.253766,67.844866,0</coordinates></Point>
        <styleUrl>#icon-22</styleUrl>
      </Placemark>
      <Placemark>
        <name><![CDATA[Kappahl - Avion Shopping]]></name>
        <description><![CDATA[Kappahl - Avion Shopping, Umeå, Sverige]]></description>
        <Point><coordinates>20.254025,63.806484,0</coordinates></Point>
        <styleUrl>#icon-22</styleUrl>
      </Placemark>
      <Placemark>
        <name><![CDATA[Kappahl - Umeå City]]></name>
        <description><![CDATA[Kappahl - Umeå City, Umeå, Sverige]]></description>
        <Point><coordinates>20.261757,63.82598,0</coordinates></Point>
        <styleUrl>#icon-22</styleUrl>
      </Placemark>
      <Placemark>
        <name><![CDATA[Kappahl - Ersboda]]></name>
        <description><![CDATA[Kappahl - Ersboda, Umeå, Sverige]]></description>
        <Point><coordinates>20.299914,63.850599,0</coordinates></Point>
        <styleUrl>#icon-22</styleUrl>
      </Placemark>
      <Placemark>
        <name><![CDATA[Kappahl - Vintergatan Köpcenter]]></name>
        <description><![CDATA[Kappahl - Vintergatan Köpcenter, Skellefteå, Sverige]]></description>
        <Point><coordinates>20.953495,64.751568,0</coordinates></Point>
        <styleUrl>#icon-22</styleUrl>
      </Placemark>
      <Placemark>
        <name><![CDATA[Kappahl - Solbackens Handelsområde]]></name>
        <description><![CDATA[Kappahl - Solbackens Handelsområde, Skellefteå, Sverige]]></description>
        <Point><coordinates>21.023522,64.76502,0</coordinates></Point>
        <styleUrl>#icon-22</styleUrl>
      </Placemark>
      <Placemark>
        <name><![CDATA[Kappahl - Piteå]]></name>
        <description><![CDATA[Kappahl - Piteå, Piteå, Sverige]]></description>
        <Point><coordinates>21.447986,65.331459,0</coordinates></Point>
        <styleUrl>#icon-22</styleUrl>
      </Placemark>
      <Placemark>
        <name><![CDATA[Kappahl - Storheden]]></name>
        <description><![CDATA[Kappahl - Storheden, Luleå, Sverige]]></description>
        <Point><coordinates>22.041571,65.618551,0</coordinates></Point>
        <styleUrl>#icon-22</styleUrl>
      </Placemark>
      <Placemark>
        <name><![CDATA[Kappahl - Smedjan]]></name>
        <description><![CDATA[Kappahl - Smedjan, Luleå, Sverige]]></description>
        <Point><coordinates>22.152222,65.584168,0</coordinates></Point>
        <styleUrl>#icon-22</styleUrl>
      </Placemark>
    </Folder>
  </Document>
</kml>