<?xml version="1.0" encoding="UTF-8"?>
<kml xmlns="http://www.opengis.net/kml/2.2">
  <Document>
    <name>Kappahl</name>
    <description/>
    <Style id="icon-22-normal">
      <IconStyle>
        <scale>1.1</scale>
        <Icon>
          <href>https://www.gstatic.com/mapspro/images/stock/22-blue-dot.png</href>
        </Icon>
        <hotSpot x="16" xunits="pixels" y="32" yunits="insetPixels"/>
      </IconStyle>
      <LabelStyle>
        <scale>0</scale>
      </LabelStyle>
    </Style>
    <Style id="icon-22-highlight">
      <IconStyle>
        <scale>1.1</scale>
        <Icon>
          <href>https://www.gstatic.com/mapspro/images/stock/22-blue-dot.png</href>
        </Icon>
        <hotSpot x="16" xunits="pixels" y="32" yunits="insetPixels"/>
      </IconStyle>
      <LabelStyle>
        <scale>1.1</scale>
      </LabelStyle>
    </Style>
    <StyleMap id="icon-22">
      <Pair>
        <key>normal</key>
        <styleUrl>#icon-22-normal</styleUrl>
      </Pair>
      <Pair>
        <key>highlight</key>
        <styleUrl>#icon-22-highlight</styleUrl>
      </Pair>
    </StyleMap>
    <Folder>
      <name>Kappahl</name>
      <Placemark>
        <name>Kappahl - Nordby Shoppingcenter</name>
        <description>Kappahl - Nordby Shoppingcenter, Strömstad, Sverige</description>
        <styleUrl>#icon-22</styleUrl>
        <Point>
          <coordinates>
            11.172654,58.939454,0
          </coordinates>
        </Point>
      </Placemark>
      <Placemark>
        <name>Kappahl - Lysekil</name>
        <description>Kappahl - Lysekil, Lysekil, Sverige</description>
        <styleUrl>#icon-22</styleUrl>
        <Point>
          <coordinates>
            11.43693,58.274669,0
          </coordinates>
        </Point>
      </Placemark>
      <Placemark>
        <name>Kappahl - Stenungs Torg</name>
        <description>Kappahl - Stenungs Torg, Stenungsund, Sverige</description>
        <styleUrl>#icon-22</styleUrl>
        <Point>
          <coordinates>
            11.818911,58.069862,0
          </coordinates>
        </Point>
      </Placemark>
      <Placemark>
        <name>Kappahl - Töcksfors Shoppingcenter</name>
        <description>Kappahl - Töcksfors Shoppingcenter, Töcksfors, Sverige</description>
        <styleUrl>#icon-22</styleUrl>
        <Point>
          <coordinates>
            11.844788,59.506454,0
          </coordinates>
        </Point>
      </Placemark>
      <Placemark>
        <name>Kappahl - Torp Köpcentrum</name>
        <description>Kappahl - Torp Köpcentrum, Uddevalla, Sverige</description>
        <styleUrl>#icon-22</styleUrl>
        <Point>
          <coordinates>
            11.845055,58.346764,0
          </coordinates>
        </Point>
      </Placemark>
      <Placemark>
        <name>Kappahl - Frölunda Torg</name>
        <description>Kappahl - Frölunda Torg, Västra Frölunda, Sverige</description>
        <styleUrl>#icon-22</styleUrl>
        <Point>
          <coordinates>
            11.909324,57.650909,0
          </coordinates>
        </Point>
      </Placemark>
      <Placemark>
        <name>Kappahl - Newbie Frölunda Torg</name>
        <description>Kappahl - Newbie Frölunda Torg, Västra Frölunda, Sverige</description>
        <styleUrl>#icon-22</styleUrl>
        <Point>
          <coordinates>
            11.91301,57.65106,0
          </coordinates>
        </Point>
      </Placemark>
      <Placemark>
        <name>Kappahl - Köpcentra 421</name>
        <description>Kappahl - Köpcentra 421, Västra Frölunda, Sverige</description>
        <styleUrl>#icon-22</styleUrl>
        <Point>
          <coordinates>
            11.948439,57.650574,0
          </coordinates>
        </Point>
      </Placemark>
      <Placemark>
        <name>Kappahl - Backaplan Köpcenter</name>
        <description>Kappahl - Backaplan Köpcenter, Göteborg, Sverige</description>
        <styleUrl>#icon-22</styleUrl>
        <Point>
          <coordinates>
            11.951388,57.72258,0
          </coordinates>
        </Point>
      </Placemark>
      <Placemark>
        <name>Kappahl - Kongahälla Center</name>
        <description>Kappahl - Kongahälla Center, Kungälv, Sverige</description>
        <styleUrl>#icon-22</styleUrl>
        <Point>
          <coordinates>
            11.967966,57.874129,0
          </coordinates>
        </Point>
      </Placemark>
      <Placemark>
        <name>Kappahl - Newbie, Femman</name>
        <description>Kappahl - Newbie, Femman, Göteborg, Sverige</description>
        <styleUrl>#icon-22</styleUrl>
        <Point>
          <coordinates>
            11.96892,57.70925,0
          </coordinates>
        </Point>
      </Placemark>
      <Placemark>
        <name>Kappahl - Nordstan</name>
        <description>Kappahl - Nordstan, Göteborg, Sverige</description>
        <styleUrl>#icon-22</styleUrl>
        <Point>
          <coordinates>
            11.96911,57.70816,0
          </coordinates>
        </Point>
      </Placemark>
      <Placemark>
        <name>Kappahl - Avenyn</name>
        <description>Kappahl - Avenyn, Göteborg, Sverige</description>
        <styleUrl>#icon-22</styleUrl>
        <Point>
          <coordinates>
            11.976454,57.699463,0
          </coordinates>
        </Point>
      </Placemark>
      <Placemark>
        <name>Kappahl - Bäckebols Köpcenter</name>
        <description>Kappahl - Bäckebols Köpcenter, Hisings Backa, Sverige</description>
        <styleUrl>#icon-22</styleUrl>
        <Point>
          <coordinates>
            12.00092,57.76881,0
          </coordinates>
        </Point>
      </Placemark>
      <Placemark>
        <name>Kappahl - Mölndal Galleria</name>
        <description>Kappahl - Mölndal Galleria, Mölndal, Sverige</description>
        <styleUrl>#icon-22</styleUrl>
        <Point>
          <coordinates>
            12.013936,57.654141,0
          </coordinates>
        </Point>
      </Placemark>
      <Placemark>
        <name>Kappahl - K-Center</name>
        <description>Kappahl - K-Center, Kållered, Sverige</description>
        <styleUrl>#icon-22</styleUrl>
        <Point>
          <coordinates>
            12.044566,57.60817,0
          </coordinates>
        </Point>
      </Placemark>
      <Placemark>
        <name>Kappahl - Angereds Torg</name>
        <description>Kappahl - Angereds Torg, Angered, Sverige</description>
        <styleUrl>#icon-22</styleUrl>
        <Point>
          <coordinates>
            12.055663,57.793857,0
          </coordinates>
        </Point>
      </Placemark>
      <Placemark>
        <name>Kappahl - Kungsmässan</name>
        <description>Kappahl - Kungsmässan, Kungsbacka, Sverige</description>
        <styleUrl>#icon-22</styleUrl>
        <Point>
          <coordinates>
            12.074083,57.492614,0
          </coordinates>
        </Point>
      </Placemark>
      <Placemark>
        <name>Kappahl - Allum Köpcenter</name>
        <description>Kappahl - Allum Köpcenter, Partille, Sverige</description>
        <styleUrl>#icon-22</styleUrl>
        <Point>
          <coordinates>
            12.105132,57.737502,0
          </coordinates>
        </Point>
      </Placemark>
      <Placemark>
        <name>Kappahl - Galleria Trädgården</name>
        <description>Kappahl - Galleria Trädgården, Varberg, Sverige</description>
        <styleUrl>#icon-22</styleUrl>
        <Point>
          <coordinates>
            12.24751,57.105975,0
          </coordinates>
        </Point>
      </Placemark>
      <Placemark>
        <name>Kappahl - Solkatten Köpcentrum</name>
        <description>Kappahl - Solkatten Köpcentrum, Lerum, Sverige</description>
        <styleUrl>#icon-22</styleUrl>
        <Point>
          <coordinates>
            12.2688,57.7695,0
          </coordinates>
        </Point>
      </Placemark>
      <Placemark>
        <name>Kappahl - Charlottenberg Shoppingcenter</name>
        <description>Kappahl - Charlottenberg Shoppingcenter, Charlottenberg, Sverige</description>
        <styleUrl>#icon-22</styleUrl>
        <Point>
          <coordinates>
            12.289806,59.881886,0
          </coordinates>
        </Point>
      </Placemark>
      <Placemark>
        <name>Kappahl - Trollhättan City</name>
        <description>Kappahl - Trollhättan City, Trollhättan, Sverige</description>
        <styleUrl>#icon-22</styleUrl>
        <Point>
          <coordinates>
            12.290492,58.284893,0
          </coordinates>
        </Point>
      </Placemark>
      <Placemark>
        <name>Kappahl - SIBA-Huset Överby</name>
        <description>Kappahl - SIBA-Huset Överby, Trollhättan, Sverige</description>
        <styleUrl>#icon-22</styleUrl>
        <Point>
          <coordinates>
            12.306572,58.312007,0
          </coordinates>
        </Point>
      </Placemark>
      <Placemark>
        <name>Kappahl - Kronan Shopping</name>
        <description>Kappahl - Kronan Shopping, Falkenberg, Sverige</description>
        <styleUrl>#icon-22</styleUrl>
        <Point>
          <coordinates>
            12.491486,56.902555,0
          </coordinates>
        </Point>
      </Placemark>
      <Placemark>
        <name>Kappahl - Affärshuset Storken</name>
        <description>Kappahl - Affärshuset Storken, Alingsås, Sverige</description>
        <styleUrl>#icon-22</styleUrl>
        <Point>
          <coordinates>
            12.535328,57.930093,0
          </coordinates>
        </Point>
      </Placemark>
      <Placemark>
        <name>Kappahl - Arvika</name>
        <description>Kappahl - Arvika, Arvika, Sverige</description>
        <styleUrl>#icon-22</styleUrl>
        <Point>
          <coordinates>
            12.593072,59.655637,0
          </coordinates>
        </Point>
      </Placemark>
      <Placemark>
        <name>Kappahl - Kinna</name>
        <description>Kappahl - Kinna, Kinna, Sverige</description>
        <styleUrl>#icon-22</styleUrl>
        <Point>
          <coordinates>
            12.691882,57.507276,0
          </coordinates>
        </Point>
      </Placemark>
      <Placemark>
        <name>Kappahl - Helsingborg City</name>
        <description>Kappahl - Helsingborg City, Helsingborg, Sverige</description>
        <styleUrl>#icon-22</styleUrl>
        <Point>
          <coordinates>
            12.693646,56.048047,0
          </coordinates>
        </Point>
      </Placemark>
      <Placemark>
        <name>Kappahl - Väla Köpcenter</name>
        <description>Kappahl - Väla Köpcenter, Ödåkra, Sverige</description>
        <styleUrl>#icon-22</styleUrl>
        <Point>
          <coordinates>
            12.755498,56.093467,0
          </coordinates>
        </Point>
      </Placemark>
      <Placemark>
        <name>Kappahl - Newbie Väla Köpcenter</name>
        <description>Kappahl - Newbie Väla Köpcenter, Ödåkra, Sverige</description>
        <styleUrl>#icon-22</styleUrl>
        <Point>
          <coordinates>
            12.75683,56.09205,0
          </coordinates>
        </Point>
      </Placemark>
      <Placemark>
        <name>Kappahl - Landskrona</name>
        <description>Kappahl - Landskrona, Landskrona, Sverige</description>
        <styleUrl>#icon-22</styleUrl>
        <Point>
          <coordinates>
            12.833114,55.871257,0
          </coordinates>
        </Point>
      </Placemark>
      <Placemark>
        <name>Kappahl - Halmstad City</name>
        <description>Kappahl - Halmstad City, Halmstad, Sverige</description>
        <styleUrl>#icon-22</styleUrl>
        <Point>
          <coordinates>
            12.856386,56.675523,0
          </coordinates>
        </Point>
      </Placemark>
      <Placemark>
        <name>Kappahl - Ängelholm</name>
        <description>Kappahl - Ängelholm, Ängelholm, Sverige</description>
        <styleUrl>#icon-22</styleUrl>
        <Point>
          <coordinates>
            12.862731,56.243777,0
          </coordinates>
        </Point>
      </Placemark>
      <Placemark>
        <name>Kappahl - Hallarna</name>
        <description>Kappahl - Hallarna, Halmstad, Sverige</description>
        <styleUrl>#icon-22</styleUrl>
        <Point>
          <coordinates>
            12.908388,56.657226,0
          </coordinates>
        </Point>
      </Placemark>
      <Placemark>
        <name>Kappahl - Köpcentrum 45</name>
        <description>Kappahl - Köpcentrum 45, Säffle, Sverige</description>
        <styleUrl>#icon-22</styleUrl>
        <Point>
          <coordinates>
            12.92018,59.134202,0
          </coordinates>
        </Point>
      </Placemark>
      <Placemark>
        <name>Kappahl - Knalleland</name>
        <description>Kappahl - Knalleland, Borås, Sverige</description>
        <styleUrl>#icon-22</styleUrl>
        <Point>
          <coordinates>
            12.938371,57.735241,0
          </coordinates>
        </Point>
      </Placemark>
      <Placemark>
        <name>Kappahl - Borås City</name>
        <description>Kappahl - Borås City, Borås, Sverige</description>
        <styleUrl>#icon-22</styleUrl>
        <Point>
          <coordinates>
            12.939967,57.720368,0
          </coordinates>
        </Point>
      </Placemark>
      <Placemark>
        <name>Kappahl - Mellbystrand</name>
        <description>Kappahl - Mellbystrand, Mellbystrand, Sverige</description>
        <styleUrl>#icon-22</styleUrl>
        <Point>
          <coordinates>
            12.956364,56.503095,0
          </coordinates>
        </Point>
      </Placemark>
      <Placemark>
        <name>Kappahl - Emporia Shoppingcenter</name>
        <description>Kappahl - Emporia Shoppingcenter, Malmö, Sverige</description>
        <styleUrl>#icon-22</styleUrl>
        <Point>
          <coordinates>
            12.97313,55.56429,0
          </coordinates>
        </Point>
      </Placemark>
      <Placemark>
        <name>Kappahl - Center Syd</name>
        <description>Kappahl - Center Syd, Löddeköpinge, Sverige</description>
        <styleUrl>#icon-22</styleUrl>
        <Point>
          <coordinates>
            12.990519,55.769552,0
          </coordinates>
        </Point>
      </Placemark>
      <Placemark>
        <name>Kappahl - Triangeln</name>
        <description>Kappahl - Triangeln, Malmö, Sverige</description>
        <styleUrl>#icon-22</styleUrl>
        <Point>
          <coordinates>
            13.001723,55.595973,0
          </coordinates>
        </Point>
      </Placemark>
      <Placemark>
        <name>Kappahl - Mobilia</name>
        <description>Kappahl - Mobilia, Malmö, Sverige</description>
        <styleUrl>#icon-22</styleUrl>
        <Point>
          <coordinates>
            13.003861,55.580381,0
          </coordinates>
        </Point>
      </Placemark>
      <Placemark>
        <name>Kappahl - Burlövs Centrum</name>
        <description>Kappahl - Burlövs Centrum, Arlöv, Sverige</description>
        <styleUrl>#icon-22</styleUrl>
        <Point>
          <coordinates>
            13.083846,55.639528,0
          </coordinates>
        </Point>
      </Placemark>
      <Placemark>
        <name>Kappahl - Lidköping</name>
        <description>Kappahl - Lidköping, Lidköping, Sverige</description>
        <styleUrl>#icon-22</styleUrl>
        <Point>
          <coordinates>
            13.147354,58.508319,0
          </coordinates>
        </Point>
      </Placemark>
      <Placemark>
        <name>Kappahl - Valen Köpcenter</name>
        <description>Kappahl - Valen Köpcenter, Trelleborg, Sverige</description>
        <styleUrl>#icon-22</styleUrl>
        <Point>
          <coordinates>
            13.158432,55.374173,0
          </coordinates>
        </Point>
      </Placemark>
      <Placemark>
        <name>Kappahl - Nova Köpcenter</name>
        <description>Kappahl - Nova Köpcenter, Lund, Sverige</description>
        <styleUrl>#icon-22</styleUrl>
        <Point>
          <coordinates>
            13.159958,55.71394,0
          </coordinates>
        </Point>
      </Placemark>
      <Placemark>
        <name>Kappahl - Lund</name>
        <description>Kappahl - Lund, Lund, Sverige</description>
        <styleUrl>#icon-22</styleUrl>
        <Point>
          <coordinates>
            13.197777,55.701905,0
          </coordinates>
        </Point>
      </Placemark>
      <Placemark>
        <name>Kappahl - Eslöv</name>
        <description>Kappahl - Eslöv, Eslöv, Sverige</description>
        <styleUrl>#icon-22</styleUrl>
        <Point>
          <coordinates>
            13.303176,55.838247,0
          </coordinates>
        </Point>
      </Placemark>
      <Placemark>
        <name>Kappahl - Ulricehamn</name>
        <description>Kappahl - Ulricehamn, Ulricehamn, Sverige</description>
        <styleUrl>#icon-22</styleUrl>
        <Point>
          <coordinates>
            13.4137,57.79308,0
          </coordinates>
        </Point>
      </Placemark>
      <Placemark>
        <name>Kappahl - Bergviks köpcenter</name>
        <description>Kappahl - Bergviks köpcenter, Karlstad, Sverige</description>
        <styleUrl>#icon-22</styleUrl>
        <Point>
          <coordinates>
            13.423343,59.376355,0
          </coordinates>
        </Point>
      </Placemark>
      <Placemark>
        <name>Kappahl - Gallerian Duvan</name>
        <description>Kappahl - Gallerian Duvan, Karlstad, Sverige</description>
        <styleUrl>#icon-22</styleUrl>
        <Point>
          <coordinates>
            13.499663,59.379151,0
          </coordinates>
        </Point>
      </Placemark>
      <Placemark>
        <name>Kappahl - Gislaved</name>
        <description>Kappahl - Gislaved, Gislaved, Sverige</description>
        <styleUrl>#icon-22</styleUrl>
        <Point>
          <coordinates>
            13.539983,57.302038,0
          </coordinates>
        </Point>
      </Placemark>
      <Placemark>
        <name>Kappahl - Varuhuset Ryttaren</name>
        <description>Kappahl - Varuhuset Ryttaren, Falköping, Sverige</description>
        <styleUrl>#icon-22</styleUrl>
        <Point>
          <coordinates>
            13.554706,58.160732,0
          </coordinates>
        </Point>
      </Placemark>
      <Placemark>
        <name>Kappahl - Gallerian</name>
        <description>Kappahl - Gallerian, Hässleholm, Sverige</description>
        <styleUrl>#icon-22</styleUrl>
        <Point>
          <coordinates>
            13.767285,56.158922,0
          </coordinates>
        </Point>
      </Placemark>
      <Placemark>
        <name>Kappahl - Ystad</name>
        <description>Kappahl - Ystad, Ystad, Sverige</description>
        <styleUrl>#icon-22</styleUrl>
        <Point>
          <coordinates>
            13.82178,55.429875,0
          </coordinates>
        </Point>
      </Placemark>
      <Placemark>
        <name>Kappahl - Varuhuset Knallen</name>
        <description>Kappahl - Varuhuset Knallen, Mariestad, Sverige</description>
        <styleUrl>#icon-22</styleUrl>
        <Point>
          <coordinates>
            13.823695,58.709007,0
          </coordinates>
        </Point>
      </Placemark>
      <Placemark>
        <name>Kappahl - Commerce Köpcentrum</name>
        <description>Kappahl - Commerce Köpcentrum, Skövde, Sverige</description>
        <styleUrl>#icon-22</styleUrl>
        <Point>
          <coordinates>
            13.845,58.389996,0
          </coordinates>
        </Point>
      </Placemark>
      <Placemark>
        <name>Kappahl - Elins Esplanad</name>
        <description>Kappahl - Elins Esplanad, Skövde, Sverige</description>
        <styleUrl>#icon-22</styleUrl>
        <Point>
          <coordinates>
            13.854527,58.405522,0
          </coordinates>
        </Point>
      </Placemark>
      <Placemark>
        <name>Kappahl - Ljungby</name>
        <description>Kappahl - Ljungby, Ljungby, Sverige</description>
        <styleUrl>#icon-22</styleUrl>
        <Point>
          <coordinates>
            13.941061,56.834502,0
          </coordinates>
        </Point>
      </Placemark>
      <Placemark>
        <name>Kappahl - Värnamo</name>
        <description>Kappahl - Värnamo, Värnamo, Sverige</description>
        <styleUrl>#icon-22</styleUrl>
        <Point>
          <coordinates>
            14.04336,57.184523,0
          </coordinates>
        </Point>
      </Placemark>
      <Placemark>
        <name>Kappahl - Kristinehamn</name>
        <description>Kappahl - Kristinehamn, Kristinehamn, Sverige</description>
        <styleUrl>#icon-22</styleUrl>
        <Point>
          <coordinates>
            14.110158,59.308154,0
          </coordinates>
        </Point>
      </Placemark>
      <Placemark>
        <name>Kappahl - Kristianstad, City</name>
        <description>Kappahl - Kristianstad, City, Kristianstad, Sverige</description>
        <styleUrl>#icon-22</styleUrl>
        <Point>
          <coordinates>
            14.15716,56.02956,0
          </coordinates>
        </Point>
      </Placemark>
      <Placemark>
        <name>Kappahl - Jönköping City</name>
        <description>Kappahl - Jönköping City, Jönköping, Sverige</description>
        <styleUrl>#icon-22</styleUrl>
        <Point>
          <coordinates>
            14.173476,57.782535,0
          </coordinates>
        </Point>
      </Placemark>
      <Placemark>
        <name>Kappahl - Kristianstad, C4</name>
        <description>Kappahl - Kristianstad, C4, Kristianstad, Sverige</description>
        <styleUrl>#icon-22</styleUrl>
        <Point>
          <coordinates>
            14.196139,56.023607,0
          </coordinates>
        </Point>
      </Placemark>
      <Placemark>
        <name>Kappahl - Asecs</name>
        <description>Kappahl - Asecs, Jönköping, Sverige</description>
        <styleUrl>#icon-22</styleUrl>
        <Point>
          <coordinates>
            14.202253,57.773383,0
          </coordinates>
        </Point>
      </Placemark>
      <Placemark>
        <name>Kappahl - Rosengallerian</name>
        <description>Kappahl - Rosengallerian, Huskvarna, Sverige</description>
        <styleUrl>#icon-22</styleUrl>
        <Point>
          <coordinates>
            14.27516,57.790259,0
          </coordinates>
        </Point>
      </Placemark>
      <Placemark>
        <name>Kappahl - K-Center</name>
        <description>Kappahl - K-Center, Karlskoga, Sverige</description>
        <styleUrl>#icon-22</styleUrl>
        <Point>
          <coordinates>
            14.524575,59.326619,0
          </coordinates>
        </Point>
      </Placemark>
      <Placemark>
        <name>Kappahl - Rondellens köpcenter</name>
        <description>Kappahl - Rondellens köpcenter, Mora, Sverige</description>
        <styleUrl>#icon-22</styleUrl>
        <Point>
          <coordinates>
            14.587762,61.008518,0
          </coordinates>
        </Point>
      </Placemark>
      <Placemark>
        <name>Kappahl - Östersund City</name>
        <description>Kappahl - Östersund City, Östersund, Sverige</description>
        <styleUrl>#icon-22</styleUrl>
        <Point>
          <coordinates>
            14.636798,63.177642,0
          </coordinates>
        </Point>
      </Placemark>
      <Placemark>
        <name>Kappahl - Mjällby</name>
        <description>Kappahl - Mjällby, Sölvesborg, Sverige</description>
        <styleUrl>#icon-22</styleUrl>
        <Point>
          <coordinates>
            14.67357,56.04441,0
          </coordinates>
        </Point>
      </Placemark>
      <Placemark>
        <name>Kappahl - Lillänge</name>
        <description>Kappahl - Lillänge, Östersund, Sverige</description>
        <styleUrl>#icon-22</styleUrl>
        <Point>
          <coordinates>
            14.69487,63.17519,0
          </coordinates>
        </Point>
      </Placemark>
      <Placemark>
        <name>Kappahl - Nässjö</name>
        <description>Kappahl - Nässjö, Nässjö, Sverige</description>
        <styleUrl>#icon-22</styleUrl>
        <Point>
          <coordinates>
            14.695172,57.652962,0
          </coordinates>
        </Point>
      </Placemark>
      <Placemark>
        <name>Kappahl - Grand Samarkand</name>
        <description>Kappahl - Grand Samarkand, Växjö, Sverige</description>
        <styleUrl>#icon-22</styleUrl>
        <Point>
          <coordinates>
            14.761595,56.884464,0
          </coordinates>
        </Point>
      </Placemark>
      <Placemark>
        <name>Kappahl - Växjö</name>
        <description>Kappahl - Växjö, Växjö, Sverige</description>
        <styleUrl>#icon-22</styleUrl>
        <Point>
          <coordinates>
            14.803617,56.878837,0
          </coordinates>
        </Point>
      </Placemark>
      <Placemark>
        <name>Kappahl - Karlshamn</name>
        <description>Kappahl - Karlshamn, Karlshamn, Sverige</description>
        <styleUrl>#icon-22</styleUrl>
        <Point>
          <coordinates>
            14.864446,56.170511,0
          </coordinates>
        </Point>
      </Placemark>
      <Placemark>
        <name>Kappahl - Tranås</name>
        <description>Kappahl - Tranås, Tranås, Sverige</description>
        <styleUrl>#icon-22</styleUrl>
        <Point>
          <coordinates>
            14.975827,58.035995,0
          </coordinates>
        </Point>
      </Placemark>
      <Placemark>
        <name>Kappahl - Motala</name>
        <description>Kappahl - Motala, Motala, Sverige</description>
        <styleUrl>#icon-22</styleUrl>
        <Point>
          <coordinates>
            15.035334,58.537238,0
          </coordinates>
        </Point>
      </Placemark>
      <Placemark>
        <name>Kappahl - Gallerian</name>
        <description>Kappahl - Gallerian, Vetlanda, Sverige</description>
        <styleUrl>#icon-22</styleUrl>
        <Point>
          <coordinates>
            15.086113,57.424797,0
          </coordinates>
        </Point>
      </Placemark>
      <Placemark>
        <name>Kappahl - Galleria Kvarnen</name>
        <description>Kappahl - Galleria Kvarnen, Mjölby, Sverige</description>
        <styleUrl>#icon-22</styleUrl>
        <Point>
          <coordinates>
            15.12528,58.325694,0
          </coordinates>
        </Point>
      </Placemark>
      <Placemark>
        <name>Kappahl - Mariebergs Galleria</name>
        <description>Kappahl - Mariebergs Galleria, Örebro, Sverige</description>
        <styleUrl>#icon-22</styleUrl>
        <Point>
          <coordinates>
            15.139235,59.216501,0
          </coordinates>
        </Point>
      </Placemark>
      <Placemark>
        <name>Kappahl - Galleria Engelbrekt</name>
        <description>Kappahl - Galleria Engelbrekt, Ludvika, Sverige</description>
        <styleUrl>#icon-22</styleUrl>
        <Point>
          <coordinates>
            15.185332,60.149394,0
          </coordinates>
        </Point>
      </Placemark>
      <Placemark>
        <name>Kappahl - Örebro City</name>
        <description>Kappahl - Örebro City, Örebro, Sverige</description>
        <styleUrl>#icon-22</styleUrl>
        <Point>
          <coordinates>
            15.212251,59.270988,0
          </coordinates>
        </Point>
      </Placemark>
      <Placemark>
        <name>Kappahl - KappAhl</name>
        <description>Kappahl - KappAhl, Borlänge, Sverige</description>
        <styleUrl>#icon-22</styleUrl>
        <Point>
          <coordinates>
            15.417971,60.484166,0
          </coordinates>
        </Point>
      </Placemark>
      <Placemark>
        <name>Kappahl - Tornby Köpcenter</name>
        <description>Kappahl - Tornby Köpcenter, Linköping, Sverige</description>
        <styleUrl>#icon-22</styleUrl>
        <Point>
          <coordinates>
            15.58666,58.43295,0
          </coordinates>
        </Point>
      </Placemark>
      <Placemark>
        <name>Kappahl - Gyllenhuset</name>
        <description>Kappahl - Gyllenhuset, Linköping, Sverige</description>
        <styleUrl>#icon-22</styleUrl>
        <Point>
          <coordinates>
            15.62653,58.410643,0
          </coordinates>
        </Point>
      </Placemark>
      <Placemark>
        <name>Kappahl - Bergströms Galleria</name>
        <description>Kappahl - Bergströms Galleria, Falun, Sverige</description>
        <styleUrl>#icon-22</styleUrl>
        <Point>
          <coordinates>
            15.632101,60.605754,0
          </coordinates>
        </Point>
      </Placemark>
      <Placemark>
        <name>Kappahl - Amiralen Köpcenter</name>
        <description>Kappahl - Amiralen Köpcenter, Lyckeby, Sverige</description>
        <styleUrl>#icon-22</styleUrl>
        <Point>
          <coordinates>
            15.641813,56.196978,0
          </coordinates>
        </Point>
      </Placemark>
      <Placemark>
        <name>Kappahl - Köping</name>
        <description>Kappahl - Köping, Köping, Sverige</description>
        <styleUrl>#icon-22</styleUrl>
        <Point>
          <coordinates>
            15.997337,59.513505,0
          </coordinates>
        </Point>
      </Placemark>
      <Placemark>
        <name>Kappahl - Ingelsta Köpcenter</name>
        <description>Kappahl - Ingelsta Köpcenter, Norrköping, Sverige</description>
        <styleUrl>#icon-22</styleUrl>
        <Point>
          <coordinates>
            16.154663,58.618416,0
          </coordinates>
        </Point>
      </Placemark>
      <Placemark>
        <name>Kappahl - Avesta</name>
        <description>Kappahl - Avesta, Avesta, Sverige</description>
        <styleUrl>#icon-22</styleUrl>
        <Point>
          <coordinates>
            16.16825,60.14588,0
          </coordinates>
        </Point>
      </Placemark>
      <Placemark>
        <name>Kappahl - Norrköping</name>
        <description>Kappahl - Norrköping, Norrköping, Sverige</description>
        <styleUrl>#icon-22</styleUrl>
        <Point>
          <coordinates>
            16.189591,58.585993,0
          </coordinates>
        </Point>
      </Placemark>
      <Placemark>
        <name>Kappahl - Violen Gallerian</name>
        <description>Kappahl - Violen Gallerian, Katrineholm, Sverige</description>
        <styleUrl>#icon-22</styleUrl>
        <Point>
          <coordinates>
            16.20972,58.994301,0
          </coordinates>
        </Point>
      </Placemark>
      <Placemark>
        <name>Kappahl - Hansa City</name>
        <description>Kappahl - Hansa City, Kalmar, Sverige</description>
        <styleUrl>#icon-22</styleUrl>
        <Point>
          <coordinates>
            16.34763,56.693715,0
          </coordinates>
        </Point>
      </Placemark>
      <Placemark>
        <name>Kappahl - Kalmar</name>
        <description>Kappahl - Kalmar, Kalmar, Sverige</description>
        <styleUrl>#icon-22</styleUrl>
        <Point>
          <coordinates>
            16.364405,56.663838,0
          </coordinates>
        </Point>
      </Placemark>
      <Placemark>
        <name>Kappahl - Bollnäs</name>
        <description>Kappahl - Bollnäs, Bollnäs, Sverige</description>
        <styleUrl>#icon-22</styleUrl>
        <Point>
          <coordinates>
            16.394972,61.347705,0
          </coordinates>
        </Point>
      </Placemark>
      <Placemark>
        <name>Kappahl - Oskarshamn</name>
        <description>Kappahl - Oskarshamn, Oskarshamn, Sverige</description>
        <styleUrl>#icon-22</styleUrl>
        <Point>
          <coordinates>
            16.447877,57.263773,0
          </coordinates>
        </Point>
      </Placemark>
      <Placemark>
        <name>Kappahl - Erikslunds Shopping Center</name>
        <description>Kappahl - Erikslunds Shopping Center, Västerås, Sverige</description>
        <styleUrl>#icon-22</styleUrl>
        <Point>
          <coordinates>
            16.462113,59.611242,0
          </coordinates>
        </Point>
      </Placemark>
      <Placemark>
        <name>Kappahl - Tuna Park</name>
        <description>Kappahl - Tuna Park, Eskilstuna, Sverige</description>
        <styleUrl>#icon-22</styleUrl>
        <Point>
          <coordinates>
            16.470114,59.371344,0
          </coordinates>
        </Point>
      </Placemark>
      <Placemark>
        <name>Kappahl - Ölands Köpstad</name>
        <description>Kappahl - Ölands Köpstad, Färjestaden, Sverige</description>
        <styleUrl>#icon-22</styleUrl>
        <Point>
          <coordinates>
            16.477915,56.655743,0
          </coordinates>
        </Point>
      </Placemark>
      <Placemark>
        <name>Kappahl - Västerås City</name>
        <description>Kappahl - Västerås City, Västerås, Sverige</description>
        <styleUrl>#icon-22</styleUrl>
        <Point>
          <coordinates>
            16.544552,59.611817,0
          </coordinates>
        </Point>
      </Placemark>
      <Placemark>
        <name>Kappahl - Sala</name>
        <description>Kappahl - Sala, Sala, Sverige</description>
        <styleUrl>#icon-22</styleUrl>
        <Point>
          <coordinates>
            16.605803,59.919726,0
          </coordinates>
        </Point>
      </Placemark>
      <Placemark>
        <name>Kappahl - Västerport</name>
        <description>Kappahl - Västerport, Västervik, Sverige</description>
        <styleUrl>#icon-22</styleUrl>
        <Point>
          <coordinates>
            16.639654,57.757727,0
          </coordinates>
        </Point>
      </Placemark>
      <Placemark>
        <name>Kappahl - Sandviken</name>
        <description>Kappahl - Sandviken, Sandviken, Sverige</description>
        <styleUrl>#icon-22</styleUrl>
        <Point>
          <coordinates>
            16.778278,60.619703,0
          </coordinates>
        </Point>
      </Placemark>
      <Placemark>
        <name>Kappahl - Valbo Köpcentrum</name>
        <description>Kappahl - Valbo Köpcentrum, Valbo, Sverige</description>
        <styleUrl>#icon-22</styleUrl>
        <Point>
          <coordinates>
            16.99337,60.63369,0
          </coordinates>
        </Point>
      </Placemark>
      <Placemark>
        <name>Kappahl - Nyköping</name>
        <description>Kappahl - Nyköping, Nyköping, Sverige</description>
        <styleUrl>#icon-22</styleUrl>
        <Point>
          <coordinates>
            17.006303,58.751965,0
          </coordinates>
        </Point>
      </Placemark>
      <Placemark>
        <name>Kappahl - Strängnäs</name>
        <description>Kappahl - Strängnäs, Strängnäs, Sverige</description>
        <styleUrl>#icon-22</styleUrl>
        <Point>
          <coordinates>
            17.027038,59.376321,0
          </coordinates>
        </Point>
      </Placemark>
      <Placemark>
        <name>Kappahl - Söderhamn</name>
        <description>Kappahl - Söderhamn, Söderhamn, Sverige</description>
        <styleUrl>#icon-22</styleUrl>
        <Point>
          <coordinates>
            17.056994,61.302968,0
          </coordinates>
        </Point>
      </Placemark>
      <Placemark>
        <name>Kappahl - Hudiksvall</name>
        <description>Kappahl - Hudiksvall, Hudiksvall, Sverige</description>
        <styleUrl>#icon-22</styleUrl>
        <Point>
          <coordinates>
            17.104363,61.7274,0
          </coordinates>
        </Point>
      </Placemark>
      <Placemark>
        <name>Kappahl - KappAhl</name>
        <description>Kappahl - KappAhl, Gävle, Sverige</description>
        <styleUrl>#icon-22</styleUrl>
        <Point>
          <coordinates>
            17.140977,60.67402,0
          </coordinates>
        </Point>
      </Placemark>
      <Placemark>
        <name>Kappahl - Sollefteå</name>
        <description>Kappahl - Sollefteå, Sollefteå, Sverige</description>
        <styleUrl>#icon-22</styleUrl>
        <Point>
          <coordinates>
            17.268868,63.16736,0
          </coordinates>
        </Point>
      </Placemark>
      <Placemark>
        <name>Kappahl - IN:Gallerian</name>
        <description>Kappahl - IN:Gallerian, Sundsvall, Sverige</description>
        <styleUrl>#icon-22</styleUrl>
        <Point>
          <coordinates>
            17.306657,62.391289,0
          </coordinates>
        </Point>
      </Placemark>
      <Placemark>
        <name>Kappahl - Birsta</name>
        <description>Kappahl - Birsta, Sundsvall, Sverige</description>
        <styleUrl>#icon-22</styleUrl>
        <Point>
          <coordinates>
            17.335877,62.447125,0
          </coordinates>
        </Point>
      </Placemark>
      <Placemark>
        <name>Kappahl - Bålsta</name>
        <description>Kappahl - Bålsta, Bålsta, Sverige</description>
        <styleUrl>#icon-22</styleUrl>
        <Point>
          <coordinates>
            17.529126,59.566189,0
          </coordinates>
        </Point>
      </Placemark>
      <Placemark>
        <name>Kappahl - Rinken</name>
        <description>Kappahl - Rinken, Södertälje, Sverige</description>
        <styleUrl>#icon-22</styleUrl>
        <Point>
          <coordinates>
            17.574141,59.187468,0
          </coordinates>
        </Point>
      </Placemark>
      <Placemark>
        <name>Kappahl - Uppsala City</name>
        <description>Kappahl - Uppsala City, Uppsala, Sverige</description>
        <styleUrl>#icon-22</styleUrl>
        <Point>
          <coordinates>
            17.637966,59.859175,0
          </coordinates>
        </Point>
      </Placemark>
      <Placemark>
        <name>Kappahl - Gränby Centrum</name>
        <description>Kappahl - Gränby Centrum, Uppsala, Sverige</description>
        <styleUrl>#icon-22</styleUrl>
        <Point>
          <coordinates>
            17.672659,59.877019,0
          </coordinates>
        </Point>
      </Placemark>
      <Placemark>
        <name>Kappahl - Boländerna</name>
        <description>Kappahl - Boländerna, Uppsala, Sverige</description>
        <styleUrl>#icon-22</styleUrl>
        <Point>
          <coordinates>
            17.690166,59.844631,0
          </coordinates>
        </Point>
      </Placemark>
      <Placemark>
        <name>Kappahl - Gallerian Christoffer</name>
        <description>Kappahl - Gallerian Christoffer, Kramfors, Sverige</description>
        <styleUrl>#icon-22</styleUrl>
        <Point>
          <coordinates>
            17.77788,62.93222,0
          </coordinates>
        </Point>
      </Placemark>
      <Placemark>
        <name>Kappahl - Ekerö</name>
        <description>Kappahl - Ekerö, Ekerö, Sverige</description>
        <styleUrl>#icon-22</styleUrl>
        <Point>
          <coordinates>
            17.812188,59.290913,0
          </coordinates>
        </Point>
      </Placemark>
      <Placemark>
        <name>Kappahl - Tumba Centrum</name>
        <description>Kappahl - Tumba Centrum, Tumba, Sverige</description>
        <styleUrl>#icon-22</styleUrl>
        <Point>
          <coordinates>
            17.834612,59.19939,0
          </coordinates>
        </Point>
      </Placemark>
      <Placemark>
        <name>Kappahl - Jakobsbergs Centrum</name>
        <description>Kappahl - Jakobsbergs Centrum, Järfälla, Sverige</description>
        <styleUrl>#icon-22</styleUrl>
        <Point>
          <coordinates>
            17.835652,59.423939,0
          </coordinates>
        </Point>
      </Placemark>
      <Placemark>
        <name>Kappahl - Märsta Centrum</name>
        <description>Kappahl - Märsta Centrum, Märsta, Sverige</description>
        <styleUrl>#icon-22</styleUrl>
        <Point>
          <coordinates>
            17.857537,59.621473,0
          </coordinates>
        </Point>
      </Placemark>
      <Placemark>
        <name>Kappahl - Barkarby</name>
        <description>Kappahl - Barkarby, Järfälla, Sverige</description>
        <styleUrl>#icon-22</styleUrl>
        <Point>
          <coordinates>
            17.858192,59.416177,0
          </coordinates>
        </Point>
      </Placemark>
      <Placemark>
        <name>Kappahl - Vällingby City</name>
        <description>Kappahl - Vällingby City, Vällingby, Sverige</description>
        <styleUrl>#icon-22</styleUrl>
        <Point>
          <coordinates>
            17.874147,59.362783,0
          </coordinates>
        </Point>
      </Placemark>
      <Placemark>
        <name>Kappahl - Skärholmen</name>
        <description>Kappahl - Skärholmen, Skärholmen, Sverige</description>
        <styleUrl>#icon-22</styleUrl>
        <Point>
          <coordinates>
            17.906631,59.275101,0
          </coordinates>
        </Point>
      </Placemark>
      <Placemark>
        <name>Kappahl - Väsby Centrum</name>
        <description>Kappahl - Väsby Centrum, Upplands Väsby, Sverige</description>
        <styleUrl>#icon-22</styleUrl>
        <Point>
          <coordinates>
            17.909925,59.518665,0
          </coordinates>
        </Point>
      </Placemark>
      <Placemark>
        <name>Kappahl - Kungens Kurva Shoppingcenter</name>
        <description>Kappahl - Kungens Kurva Shoppingcenter, Kungens Kurva, Sverige</description>
        <styleUrl>#icon-22</styleUrl>
        <Point>
          <coordinates>
            17.917156,59.269477,0
          </coordinates>
        </Point>
      </Placemark>
      <Placemark>
        <name>Kappahl - Härnösand</name>
        <description>Kappahl - Härnösand, Härnösand, Sverige</description>
        <styleUrl>#icon-22</styleUrl>
        <Point>
          <coordinates>
            17.92748,62.63686,0
          </coordinates>
        </Point>
      </Placemark>
      <Placemark>
        <name>Kappahl - Kista Galleria</name>
        <description>Kappahl - Kista Galleria, Kista, Sverige</description>
        <styleUrl>#icon-22</styleUrl>
        <Point>
          <coordinates>
            17.942409,59.404028,0
          </coordinates>
        </Point>
      </Placemark>
      <Placemark>
        <name>Kappahl - Sollentuna Centrum</name>
        <description>Kappahl - Sollentuna Centrum, Sollentuna, Sverige</description>
        <styleUrl>#icon-22</styleUrl>
        <Point>
          <coordinates>
            17.952835,59.427903,0
          </coordinates>
        </Point>
      </Placemark>
      <Placemark>
        <name>Kappahl - Huddinge Centrum</name>
        <description>Kappahl - Huddinge Centrum, Huddinge, Sverige</description>
        <styleUrl>#icon-22</styleUrl>
        <Point>
          <coordinates>
            17.981407,59.235651,0
          </coordinates>
        </Point>
      </Placemark>
      <Placemark>
        <name>Kappahl - Mall of Scandinavia</name>
        <description>Kappahl - Mall of Scandinavia, Solna, Sverige</description>
        <styleUrl>#icon-22</styleUrl>
        <Point>
          <coordinates>
            18.000088,59.370894,0
          </coordinates>
        </Point>
      </Placemark>
      <Placemark>
        <name>Kappahl - Newbie Mall of Scandinavia</name>
        <description>Kappahl - Newbie Mall of Scandinavia, Solna, Sverige</description>
        <styleUrl>#icon-22</styleUrl>
        <Point>
          <coordinates>
            18.004264,59.371547,0
          </coordinates>
        </Point>
      </Placemark>
      <Placemark>
        <name>Kappahl - Liljeholmstorgets Galleria</name>
        <description>Kappahl - Liljeholmstorgets Galleria, Stockholm, Sverige</description>
        <styleUrl>#icon-22</styleUrl>
        <Point>
          <coordinates>
            18.022421,59.309532,0
          </coordinates>
        </Point>
      </Placemark>
      <Placemark>
        <name>Kappahl - Drottninggatan</name>
        <description>Kappahl - Drottninggatan, Stockholm, Sverige</description>
        <styleUrl>#icon-22</styleUrl>
        <Point>
          <coordinates>
            18.061865,59.333296,0
          </coordinates>
        </Point>
      </Placemark>
      <Placemark>
        <name>Kappahl - Newbie Sergelgatan</name>
        <description>Kappahl - Newbie Sergelgatan, Stockholm, Sverige</description>
        <styleUrl>#icon-22</styleUrl>
        <Point>
          <coordinates>
            18.06325,59.33439,0
          </coordinates>
        </Point>
      </Placemark>
      <Placemark>
        <name>Kappahl - Täby Centrum</name>
        <description>Kappahl - Täby Centrum, Täby, Sverige</description>
        <styleUrl>#icon-22</styleUrl>
        <Point>
          <coordinates>
            18.069076,59.444922,0
          </coordinates>
        </Point>
      </Placemark>
      <Placemark>
        <name>Kappahl - Newbie Fältöversten</name>
        <description>Kappahl - Newbie Fältöversten, Stockholm, Sverige</description>
        <styleUrl>#icon-22</styleUrl>
        <Point>
          <coordinates>
            18.09099,59.33889,0
          </coordinates>
        </Point>
      </Placemark>
      <Placemark>
        <name>Kappahl - Farsta Centrum</name>
        <description>Kappahl - Farsta Centrum, Farsta, Sverige</description>
        <styleUrl>#icon-22</styleUrl>
        <Point>
          <coordinates>
            18.093019,59.24259,0
          </coordinates>
        </Point>
      </Placemark>
      <Placemark>
        <name>Kappahl - Sickla</name>
        <description>Kappahl - Sickla, Nacka, Sverige</description>
        <styleUrl>#icon-22</styleUrl>
        <Point>
          <coordinates>
            18.124495,59.306035,0
          </coordinates>
        </Point>
      </Placemark>
      <Placemark>
        <name>Kappahl - Haninge City</name>
        <description>Kappahl - Haninge City, Haninge, Sverige</description>
        <styleUrl>#icon-22</styleUrl>
        <Point>
          <coordinates>
            18.140268,59.16916,0
          </coordinates>
        </Point>
      </Placemark>
      <Placemark>
        <name>Kappahl - Haninge Port 73</name>
        <description>Kappahl - Haninge Port 73, Haninge, Sverige</description>
        <styleUrl>#icon-22</styleUrl>
        <Point>
          <coordinates>
            18.1506,59.17949,0
          </coordinates>
        </Point>
      </Placemark>
      <Placemark>
        <name>Kappahl - Nacka Forum</name>
        <description>Kappahl - Nacka Forum, Nacka, Sverige</description>
        <styleUrl>#icon-22</styleUrl>
        <Point>
          <coordinates>
            18.16439,59.309419,0
          </coordinates>
        </Point>
      </Placemark>
      <Placemark>
        <name>Kappahl - Tyresö Centrum</name>
        <description>Kappahl - Tyresö Centrum, Tyresö, Sverige</description>
        <styleUrl>#icon-22</styleUrl>
        <Point>
          <coordinates>
            18.228536,59.245087,0
          </coordinates>
        </Point>
      </Placemark>
      <Placemark>
        <name>Kappahl - Åkersberga</name>
        <description>Kappahl - Åkersberga, Åkersberga, Sverige</description>
        <styleUrl>#icon-22</styleUrl>
        <Point>
          <coordinates>
            18.298111,59.481894,0
          </coordinates>
        </Point>
      </Placemark>
      <Placemark>
        <name>Kappahl - Visby</name>
        <description>Kappahl - Visby, Visby, Sverige</description>
        <styleUrl>#icon-22</styleUrl>
        <Point>
          <coordinates>
            18.300412,57.637433,0
          </coordinates>
        </Point>
      </Placemark>
      <Placemark>
        <name>Kappahl - Värmdö</name>
        <description>Kappahl - Värmdö, Gustavsberg, Sverige</description>
        <styleUrl>#icon-22</styleUrl>
        <Point>
          <coordinates>
            18.429351,59.312975,0
          </coordinates>
        </Point>
      </Placemark>
      <Placemark>
        <name>Kappahl - Lycksele</name>
        <description>Kappahl - Lycksele, Lycksele, Sverige</description>
        <styleUrl>#icon-22</styleUrl>
        <Point>
          <coordinates>
            18.67637,64.59581,0
          </coordinates>
        </Point>
      </Placemark>
      <Placemark>
        <name>Kappahl - Norrtälje City</name>
        <description>Kappahl - Norrtälje City, Norrtälje, Sverige</description>
        <styleUrl>#icon-22</styleUrl>
        <Point>
          <coordinates>
            18.700363,59.757154,0
          </coordinates>
        </Point>
      </Placemark>
      <Placemark>
        <name>Kappahl - Flygfyren</name>
        <description>Kappahl - Flygfyren, Norrtälje, Sverige</description>
        <styleUrl>#icon-22</styleUrl>
        <Point>
          <coordinates>
            18.701358,59.759584,0
          </coordinates>
        </Point>
      </Placemark>
      <Placemark>
        <name>Kappahl - Örnsköldsvik</name>
        <description>Kappahl - Örnsköldsvik, Örnsköldsvik, Sverige</description>
        <styleUrl>#icon-22</styleUrl>
        <Point>
          <coordinates>
            18.71553,63.291,0
          </coordinates>
        </Point>
      </Placemark>
      <Placemark>
        <name>Kappahl - Kiruna</name>
        <description>Kappahl - Kiruna, Kiruna, Sverige</description>
        <styleUrl>#icon-22</styleUrl>
        <Point>
          <coordinates>
            20.253766,67.844866,0
          </coordinates>
        </Point>
      </Placemark>
      <Placemark>
        <name>Kappahl - Avion Shopping</name>
        <description>Kappahl - Avion Shopping, Umeå, Sverige</description>
        <styleUrl>#icon-22</styleUrl>
        <Point>
          <coordinates>
            20.254025,63.806484,0
          </coordinates>
        </Point>
      </Placemark>
      <Placemark>
        <name>Kappahl - Umeå City</name>
        <description>Kappahl - Umeå City, Umeå, Sverige</description>
        <styleUrl>#icon-22</styleUrl>
        <Point>
          <coordinates>
            20.261757,63.82598,0
          </coordinates>
        </Point>
      </Placemark>
      <Placemark>
        <name>Kappahl - Ersboda</name>
        <description>Kappahl - Ersboda, Umeå, Sverige</description>
        <styleUrl>#icon-22</styleUrl>
        <Point>
          <coordinates>
            20.299914,63.850599,0
          </coordinates>
        </Point>
      </Placemark>
      <Placemark>
        <name>Kappahl - Vintergatan Köpcenter</name>
        <description>Kappahl - Vintergatan Köpcenter, Skellefteå, Sverige</description>
        <styleUrl>#icon-22</styleUrl>
        <Point>
          <coordinates>
            20.953495,64.751568,0
          </coordinates>
        </Point>
      </Placemark>
      <Placemark>
        <name>Kappahl - Solbackens Handelsområde</name>
        <description>Kappahl - Solbackens Handelsområde, Skellefteå, Sverige</description>
        <styleUrl>#icon-22</styleUrl>
        <Point>
          <coordinates>
            21.023522,64.76502,0
          </coordinates>
        </Point>
      </Placemark>
      <Placemark>
        <name>Kappahl - Piteå</name>
        <description>Kappahl - Piteå, Piteå, Sverige</description>
        <styleUrl>#icon-22</styleUrl>
        <Point>
          <coordinates>
            21.447986,65.331459,0
          </coordinates>
        </Point>
      </Placemark>
      <Placemark>
        <name>Kappahl - Storheden</name>
        <description>Kappahl - Storheden, Luleå, Sverige</description>
        <styleUrl>#icon-22</styleUrl>
        <Point>
          <coordinates>
            22.041571,65.618551,0
          </coordinates>
        </Point>
      </Placemark>
      <Placemark>
        <name>Kappahl - Smedjan</name>
        <description>Kappahl - Smedjan, Luleå, Sverige</description>
        <styleUrl>#icon-22</styleUrl>
        <Point>
          <coordinates>
            22.152222,65.584168,0
          </coordinates>
        </Point>
      </Placemark>
    </Folder>
  </Document>
</kml>