<?xml version="1.0" encoding="UTF-8"?>
<kml xmlns="http://www.opengis.net/kml/2.2">
  <Document>
    <name><![CDATA[Lidl]]></name>
    <description/>
    <Style id="icon-22-normal"><IconStyle><scale>1.1</scale><Icon><href>https://www.gstatic.com/mapspro/images/stock/22-blue-dot.png</href></Icon><hotSpot x="16" xunits="pixels" y="32" yunits="insetPixels"/></IconStyle><LabelStyle><scale>0</scale></LabelStyle></Style>
    <Style id="icon-22-highlight"><IconStyle><scale>1.1</scale><Icon><href>https://www.gstatic.com/mapspro/images/stock/22-blue-dot.png</href></Icon><hotSpot x="16" xunits="pixels" y="32" yunits="insetPixels"/></IconStyle><LabelStyle><scale>1.1</scale></LabelStyle></Style>
    <StyleMap id="icon-22"><Pair><key>normal</key><styleUrl>#icon-22-normal</styleUrl></Pair><Pair><key>highlight</key><styleUrl>#icon-22-highlight</styleUrl></Pair></StyleMap>
    <Folder>
      <name><![CDATA[Lidl]]></name>
      <Placemark>
        <name><![CDATA[Lidl Göteborg - Sommarvädersgatan 5]]></name>
        <description><![CDATA[Lidl Göteborg - Sommarvädersgatan 5, Göteborg]]></description>
        <Point><coordinates>11.89685,57.71464,0</coordinates></Point>
        <styleUrl>#icon-22</styleUrl>
      </Placemark>
      <Placemark>
        <name><![CDATA[Lidl Västra Frölunda - Gitarrgatan 2]]></name>
        <description><![CDATA[Lidl Västra Frölunda - Gitarrgatan 2, Västra Frölunda]]></description>
        <Point><coordinates>11.91564,57.66101,0</coordinates></Point>
        <styleUrl>#icon-22</styleUrl>
      </Placemark>
      <Placemark>
        <name><![CDATA[Lidl Uddevalla - Bastiongatan 12]]></name>
        <description><![CDATA[Lidl Uddevalla - Bastiongatan 12, Uddevalla]]></description>
        <Point><coordinates>11.927,58.35073,0</coordinates></Point>
        <styleUrl>#icon-22</styleUrl>
      </Placemark>
      <Placemark>
        <name><![CDATA[Lidl Göteborg - Distansgatan 40]]></name>
        <description><![CDATA[Lidl Göteborg - Distansgatan 40, Göteborg]]></description>
        <Point><coordinates>11.93299,57.66024,0</coordinates></Point>
        <styleUrl>#icon-22</styleUrl>
      </Placemark>
      <Placemark>
        <name><![CDATA[Lidl Göteborg - Stigbergstorget 10]]></name>
        <description><![CDATA[Lidl Göteborg - Stigbergstorget 10, Göteborg]]></description>
        <Point><coordinates>11.93321,57.69862,0</coordinates></Point>
        <styleUrl>#icon-22</styleUrl>
      </Placemark>
      <Placemark>
        <name><![CDATA[Lidl Göteborg - Ångpannegatan 18]]></name>
        <description><![CDATA[Lidl Göteborg - Ångpannegatan 18, Göteborg]]></description>
        <Point><coordinates>11.94674,57.72829,0</coordinates></Point>
        <styleUrl>#icon-22</styleUrl>
      </Placemark>
      <Placemark>
        <name><![CDATA[Lidl Göteborg - Linnégatan 41]]></name>
        <description><![CDATA[Lidl Göteborg - Linnégatan 41, Göteborg]]></description>
        <Point><coordinates>11.95192,57.69409,0</coordinates></Point>
        <styleUrl>#icon-22</styleUrl>
      </Placemark>
      <Placemark>
        <name><![CDATA[Lidl Göteborg - Vasagatan 45]]></name>
        <description><![CDATA[Lidl Göteborg - Vasagatan 45, Göteborg]]></description>
        <Point><coordinates>11.97575,57.70101,0</coordinates></Point>
        <styleUrl>#icon-22</styleUrl>
      </Placemark>
      <Placemark>
        <name><![CDATA[Lidl Göteborg - Redbergsvägen 42]]></name>
        <description><![CDATA[Lidl Göteborg - Redbergsvägen 42, Göteborg]]></description>
        <Point><coordinates>12.00338,57.71551,0</coordinates></Point>
        <styleUrl>#icon-22</styleUrl>
      </Placemark>
      <Placemark>
        <name><![CDATA[Lidl Göteborg - Traktorgatan 3]]></name>
        <description><![CDATA[Lidl Göteborg - Traktorgatan 3, Göteborg]]></description>
        <Point><coordinates>12.04711,57.79601,0</coordinates></Point>
        <styleUrl>#icon-22</styleUrl>
      </Placemark>
      <Placemark>
        <name><![CDATA[Lidl Nödinge - Rödklövergatan 4]]></name>
        <description><![CDATA[Lidl Nödinge - Rödklövergatan 4, Nödinge]]></description>
        <Point><coordinates>12.04797,57.89599,0</coordinates></Point>
        <styleUrl>#icon-22</styleUrl>
      </Placemark>
      <Placemark>
        <name><![CDATA[Lidl Göteborg - Gärdsås Torg 2]]></name>
        <description><![CDATA[Lidl Göteborg - Gärdsås Torg 2, Göteborg]]></description>
        <Point><coordinates>12.05038,57.76156,0</coordinates></Point>
        <styleUrl>#icon-22</styleUrl>
      </Placemark>
      <Placemark>
        <name><![CDATA[Lidl Lerum - Södra Långvägen 7]]></name>
        <description><![CDATA[Lidl Lerum - Södra Långvägen 7, Lerum]]></description>
        <Point><coordinates>12.2626,57.76388,0</coordinates></Point>
        <styleUrl>#icon-22</styleUrl>
      </Placemark>
      <Placemark>
        <name><![CDATA[Lidl Charlottenberg - Källgatan 1]]></name>
        <description><![CDATA[Lidl Charlottenberg - Källgatan 1, Charlottenberg]]></description>
        <Point><coordinates>12.28827,59.8725,0</coordinates></Point>
        <styleUrl>#icon-22</styleUrl>
      </Placemark>
      <Placemark>
        <name><![CDATA[Lidl Trollhättan - Gärdhemsvägen 50]]></name>
        <description><![CDATA[Lidl Trollhättan - Gärdhemsvägen 50, Trollhättan]]></description>
        <Point><coordinates>12.31231,58.2753,0</coordinates></Point>
        <styleUrl>#icon-22</styleUrl>
      </Placemark>
      <Placemark>
        <name><![CDATA[Lidl Vänersborg - Regementsgatan 23]]></name>
        <description><![CDATA[Lidl Vänersborg - Regementsgatan 23, Vänersborg]]></description>
        <Point><coordinates>12.33326,58.37757,0</coordinates></Point>
        <styleUrl>#icon-22</styleUrl>
      </Placemark>
      <Placemark>
        <name><![CDATA[Lidl Falkenberg - Sömmerskevägen 1]]></name>
        <description><![CDATA[Lidl Falkenberg - Sömmerskevägen 1, Falkenberg]]></description>
        <Point><coordinates>12.50311,56.91566,0</coordinates></Point>
        <styleUrl>#icon-22</styleUrl>
      </Placemark>
      <Placemark>
        <name><![CDATA[Lidl Alingsås - Vänersborgsvägen 21]]></name>
        <description><![CDATA[Lidl Alingsås - Vänersborgsvägen 21, Alingsås]]></description>
        <Point><coordinates>12.54579,57.9345,0</coordinates></Point>
        <styleUrl>#icon-22</styleUrl>
      </Placemark>
      <Placemark>
        <name><![CDATA[Lidl Höganäs - Centralgatan 30]]></name>
        <description><![CDATA[Lidl Höganäs - Centralgatan 30, Höganäs]]></description>
        <Point><coordinates>12.55991,56.20064,0</coordinates></Point>
        <styleUrl>#icon-22</styleUrl>
      </Placemark>
      <Placemark>
        <name><![CDATA[Lidl Arvika - Fallängsvägen 89]]></name>
        <description><![CDATA[Lidl Arvika - Fallängsvägen 89, Arvika]]></description>
        <Point><coordinates>12.59425,59.66975,0</coordinates></Point>
        <styleUrl>#icon-22</styleUrl>
      </Placemark>
      <Placemark>
        <name><![CDATA[Lidl Skene - Klevagårdsgatan 2]]></name>
        <description><![CDATA[Lidl Skene - Klevagårdsgatan 2, Skene]]></description>
        <Point><coordinates>12.66688,57.49616,0</coordinates></Point>
        <styleUrl>#icon-22</styleUrl>
      </Placemark>
      <Placemark>
        <name><![CDATA[Lidl Helsingborg - Drottninghögsvägen 6]]></name>
        <description><![CDATA[Lidl Helsingborg - Drottninghögsvägen 6, Helsingborg]]></description>
        <Point><coordinates>12.72398,56.0667,0</coordinates></Point>
        <styleUrl>#icon-22</styleUrl>
      </Placemark>
      <Placemark>
        <name><![CDATA[Lidl Helsingborg - Brunnbäcksgatan 33]]></name>
        <description><![CDATA[Lidl Helsingborg - Brunnbäcksgatan 33, Helsingborg]]></description>
        <Point><coordinates>12.72886,56.01592,0</coordinates></Point>
        <styleUrl>#icon-22</styleUrl>
      </Placemark>
      <Placemark>
        <name><![CDATA[Lidl Halmstad - Torpaledsvägen 4]]></name>
        <description><![CDATA[Lidl Halmstad - Torpaledsvägen 4, Halmstad]]></description>
        <Point><coordinates>12.82068,56.66787,0</coordinates></Point>
        <styleUrl>#icon-22</styleUrl>
      </Placemark>
      <Placemark>
        <name><![CDATA[Lidl Landskrona - Östervångsplan 5]]></name>
        <description><![CDATA[Lidl Landskrona - Östervångsplan 5, Landskrona]]></description>
        <Point><coordinates>12.85421,55.88105,0</coordinates></Point>
        <styleUrl>#icon-22</styleUrl>
      </Placemark>
      <Placemark>
        <name><![CDATA[Lidl Ängelholm - Midgårdsgatan 15]]></name>
        <description><![CDATA[Lidl Ängelholm - Midgårdsgatan 15, Ängelholm]]></description>
        <Point><coordinates>12.89235,56.25226,0</coordinates></Point>
        <styleUrl>#icon-22</styleUrl>
      </Placemark>
      <Placemark>
        <name><![CDATA[Lidl Halmstad - Gesällgatan 3]]></name>
        <description><![CDATA[Lidl Halmstad - Gesällgatan 3, Halmstad]]></description>
        <Point><coordinates>12.89484,56.66048,0</coordinates></Point>
        <styleUrl>#icon-22</styleUrl>
      </Placemark>
      <Placemark>
        <name><![CDATA[Lidl Säffle - Vintergatan 2]]></name>
        <description><![CDATA[Lidl Säffle - Vintergatan 2, Säffle]]></description>
        <Point><coordinates>12.91398,59.13496,0</coordinates></Point>
        <styleUrl>#icon-22</styleUrl>
      </Placemark>
      <Placemark>
        <name><![CDATA[Lidl Limhamn - Hyllie Kyrkoväg 45a]]></name>
        <description><![CDATA[Lidl Limhamn - Hyllie Kyrkoväg 45a, Limhamn]]></description>
        <Point><coordinates>12.92999,55.57888,0</coordinates></Point>
        <styleUrl>#icon-22</styleUrl>
      </Placemark>
      <Placemark>
        <name><![CDATA[Lidl Åstorp - Grytevadsvägen 2]]></name>
        <description><![CDATA[Lidl Åstorp - Grytevadsvägen 2, Åstorp]]></description>
        <Point><coordinates>12.94099,56.13886,0</coordinates></Point>
        <styleUrl>#icon-22</styleUrl>
      </Placemark>
      <Placemark>
        <name><![CDATA[Lidl Malmö - Delsjögatan 3]]></name>
        <description><![CDATA[Lidl Malmö - Delsjögatan 3, Malmö]]></description>
        <Point><coordinates>12.97869,55.57913,0</coordinates></Point>
        <styleUrl>#icon-22</styleUrl>
      </Placemark>
      <Placemark>
        <name><![CDATA[Lidl Borås - Sjumilagatan 1]]></name>
        <description><![CDATA[Lidl Borås - Sjumilagatan 1, Borås]]></description>
        <Point><coordinates>12.98808,57.72575,0</coordinates></Point>
        <styleUrl>#icon-22</styleUrl>
      </Placemark>
      <Placemark>
        <name><![CDATA[Lidl Löddeköpinge - Marknadsvägen 2]]></name>
        <description><![CDATA[Lidl Löddeköpinge - Marknadsvägen 2, Löddeköpinge]]></description>
        <Point><coordinates>12.99284,55.76726,0</coordinates></Point>
        <styleUrl>#icon-22</styleUrl>
      </Placemark>
      <Placemark>
        <name><![CDATA[Lidl Malmö - Spångatan 11]]></name>
        <description><![CDATA[Lidl Malmö - Spångatan 11, Malmö]]></description>
        <Point><coordinates>13.00553,55.59627,0</coordinates></Point>
        <styleUrl>#icon-22</styleUrl>
      </Placemark>
      <Placemark>
        <name><![CDATA[Lidl Malmö - Södra Förstadsgatan 124]]></name>
        <description><![CDATA[Lidl Malmö - Södra Förstadsgatan 124, Malmö]]></description>
        <Point><coordinates>13.00633,55.58655,0</coordinates></Point>
        <styleUrl>#icon-22</styleUrl>
      </Placemark>
      <Placemark>
        <name><![CDATA[Lidl Malmö - Knivgatan 1b]]></name>
        <description><![CDATA[Lidl Malmö - Knivgatan 1b, Malmö]]></description>
        <Point><coordinates>13.03821,55.60044,0</coordinates></Point>
        <styleUrl>#icon-22</styleUrl>
      </Placemark>
      <Placemark>
        <name><![CDATA[Lidl Lomma - Tenngatan 1]]></name>
        <description><![CDATA[Lidl Lomma - Tenngatan 1, Lomma]]></description>
        <Point><coordinates>13.08558,55.68237,0</coordinates></Point>
        <styleUrl>#icon-22</styleUrl>
      </Placemark>
      <Placemark>
        <name><![CDATA[Lidl Arlöv - Lundavägen 90]]></name>
        <description><![CDATA[Lidl Arlöv - Lundavägen 90, Arlöv]]></description>
        <Point><coordinates>13.09089,55.64155,0</coordinates></Point>
        <styleUrl>#icon-22</styleUrl>
      </Placemark>
      <Placemark>
        <name><![CDATA[Lidl Trelleborg - Hedvägen 87]]></name>
        <description><![CDATA[Lidl Trelleborg - Hedvägen 87, Trelleborg]]></description>
        <Point><coordinates>13.14941,55.38166,0</coordinates></Point>
        <styleUrl>#icon-22</styleUrl>
      </Placemark>
      <Placemark>
        <name><![CDATA[Lidl Lund - Rausings väg 1]]></name>
        <description><![CDATA[Lidl Lund - Rausings väg 1, Lund]]></description>
        <Point><coordinates>13.1778,55.69945,0</coordinates></Point>
        <styleUrl>#icon-22</styleUrl>
      </Placemark>
      <Placemark>
        <name><![CDATA[Lidl Lidköping - Rörstrandsgatan 4]]></name>
        <description><![CDATA[Lidl Lidköping - Rörstrandsgatan 4, Lidköping]]></description>
        <Point><coordinates>13.18063,58.49841,0</coordinates></Point>
        <styleUrl>#icon-22</styleUrl>
      </Placemark>
      <Placemark>
        <name><![CDATA[Lidl Lund - Magistratsvägen 6]]></name>
        <description><![CDATA[Lidl Lund - Magistratsvägen 6, Lund]]></description>
        <Point><coordinates>13.20541,55.72045,0</coordinates></Point>
        <styleUrl>#icon-22</styleUrl>
      </Placemark>
      <Placemark>
        <name><![CDATA[Lidl Staffanstorp - Dalbyvägen 53]]></name>
        <description><![CDATA[Lidl Staffanstorp - Dalbyvägen 53, Staffanstorp]]></description>
        <Point><coordinates>13.2257,55.64156,0</coordinates></Point>
        <styleUrl>#icon-22</styleUrl>
      </Placemark>
      <Placemark>
        <name><![CDATA[Lidl Ulricehamn - Falköpingsvägen 4]]></name>
        <description><![CDATA[Lidl Ulricehamn - Falköpingsvägen 4, Ulricehamn]]></description>
        <Point><coordinates>13.41667,57.79775,0</coordinates></Point>
        <styleUrl>#icon-22</styleUrl>
      </Placemark>
      <Placemark>
        <name><![CDATA[Lidl Karlstad - Rattgatan 10]]></name>
        <description><![CDATA[Lidl Karlstad - Rattgatan 10, Karlstad]]></description>
        <Point><coordinates>13.4746,59.38651,0</coordinates></Point>
        <styleUrl>#icon-22</styleUrl>
      </Placemark>
      <Placemark>
        <name><![CDATA[Lidl Karlstad - Östra Infarten 19]]></name>
        <description><![CDATA[Lidl Karlstad - Östra Infarten 19, Karlstad]]></description>
        <Point><coordinates>13.53628,59.39821,0</coordinates></Point>
        <styleUrl>#icon-22</styleUrl>
      </Placemark>
      <Placemark>
        <name><![CDATA[Lidl Höör - Transportvägen 2]]></name>
        <description><![CDATA[Lidl Höör - Transportvägen 2, Höör]]></description>
        <Point><coordinates>13.54606,55.92528,0</coordinates></Point>
        <styleUrl>#icon-22</styleUrl>
      </Placemark>
      <Placemark>
        <name><![CDATA[Lidl Gislaved - Eneströmsgatan 3]]></name>
        <description><![CDATA[Lidl Gislaved - Eneströmsgatan 3, Gislaved]]></description>
        <Point><coordinates>13.55185,57.29887,0</coordinates></Point>
        <styleUrl>#icon-22</styleUrl>
      </Placemark>
      <Placemark>
        <name><![CDATA[Lidl Falköping - Midfalegatan 2]]></name>
        <description><![CDATA[Lidl Falköping - Midfalegatan 2, Falköping]]></description>
        <Point><coordinates>13.57091,58.16223,0</coordinates></Point>
        <styleUrl>#icon-22</styleUrl>
      </Placemark>
      <Placemark>
        <name><![CDATA[Lidl Hagfors - Parkvägen 21]]></name>
        <description><![CDATA[Lidl Hagfors - Parkvägen 21, Hagfors]]></description>
        <Point><coordinates>13.69958,60.04245,0</coordinates></Point>
        <styleUrl>#icon-22</styleUrl>
      </Placemark>
      <Placemark>
        <name><![CDATA[Lidl Malung - Lisagatan 45]]></name>
        <description><![CDATA[Lidl Malung - Lisagatan 45, Malung]]></description>
        <Point><coordinates>13.71557,60.68384,0</coordinates></Point>
        <styleUrl>#icon-22</styleUrl>
      </Placemark>
      <Placemark>
        <name><![CDATA[Lidl Hässleholm - Norra Kringelvägen 19]]></name>
        <description><![CDATA[Lidl Hässleholm - Norra Kringelvägen 19, Hässleholm]]></description>
        <Point><coordinates>13.78399,56.1655,0</coordinates></Point>
        <styleUrl>#icon-22</styleUrl>
      </Placemark>
      <Placemark>
        <name><![CDATA[Lidl Ystad - Spaljégatan 2]]></name>
        <description><![CDATA[Lidl Ystad - Spaljégatan 2, Ystad]]></description>
        <Point><coordinates>13.79875,55.43278,0</coordinates></Point>
        <styleUrl>#icon-22</styleUrl>
      </Placemark>
      <Placemark>
        <name><![CDATA[Lidl Mariestad - Industrigatan 11]]></name>
        <description><![CDATA[Lidl Mariestad - Industrigatan 11, Mariestad]]></description>
        <Point><coordinates>13.81683,58.69383,0</coordinates></Point>
        <styleUrl>#icon-22</styleUrl>
      </Placemark>
      <Placemark>
        <name><![CDATA[Lidl Skövde - Gesällgatan 3]]></name>
        <description><![CDATA[Lidl Skövde - Gesällgatan 3, Skövde]]></description>
        <Point><coordinates>13.83742,58.38424,0</coordinates></Point>
        <styleUrl>#icon-22</styleUrl>
      </Placemark>
      <Placemark>
        <name><![CDATA[Lidl Tomelilla - Malmövägen 4-6]]></name>
        <description><![CDATA[Lidl Tomelilla - Malmövägen 4-6, Tomelilla]]></description>
        <Point><coordinates>13.94693,55.54656,0</coordinates></Point>
        <styleUrl>#icon-22</styleUrl>
      </Placemark>
      <Placemark>
        <name><![CDATA[Lidl Värnamo - Lagastigen 25]]></name>
        <description><![CDATA[Lidl Värnamo - Lagastigen 25, Värnamo]]></description>
        <Point><coordinates>14.05633,57.18484,0</coordinates></Point>
        <styleUrl>#icon-22</styleUrl>
      </Placemark>
      <Placemark>
        <name><![CDATA[Lidl Kristinehamn - Hamnvägen 4]]></name>
        <description><![CDATA[Lidl Kristinehamn - Hamnvägen 4, Kristinehamn]]></description>
        <Point><coordinates>14.09726,59.3112,0</coordinates></Point>
        <styleUrl>#icon-22</styleUrl>
      </Placemark>
      <Placemark>
        <name><![CDATA[Lidl Litomerice - Kamýcká 2273]]></name>
        <description><![CDATA[Lidl Litomerice - Kamýcká 2273, Litomerice]]></description>
        <Point><coordinates>14.12168,50.53962,0</coordinates></Point>
        <styleUrl>#icon-22</styleUrl>
      </Placemark>
      <Placemark>
        <name><![CDATA[Lidl Kristianstad - Fäladsgatan 1]]></name>
        <description><![CDATA[Lidl Kristianstad - Fäladsgatan 1, Kristianstad]]></description>
        <Point><coordinates>14.14372,56.0239,0</coordinates></Point>
        <styleUrl>#icon-22</styleUrl>
      </Placemark>
      <Placemark>
        <name><![CDATA[Lidl Filipstad - Hertig Karls Gatan 1]]></name>
        <description><![CDATA[Lidl Filipstad - Hertig Karls Gatan 1, Filipstad]]></description>
        <Point><coordinates>14.15495,59.7139,0</coordinates></Point>
        <styleUrl>#icon-22</styleUrl>
      </Placemark>
      <Placemark>
        <name><![CDATA[Lidl Jönköping - Ekhagsringen 2]]></name>
        <description><![CDATA[Lidl Jönköping - Ekhagsringen 2, Jönköping]]></description>
        <Point><coordinates>14.2235,57.77797,0</coordinates></Point>
        <styleUrl>#icon-22</styleUrl>
      </Placemark>
      <Placemark>
        <name><![CDATA[Lidl Bromölla - Tians Väg 1]]></name>
        <description><![CDATA[Lidl Bromölla - Tians Väg 1, Bromölla]]></description>
        <Point><coordinates>14.47675,56.06622,0</coordinates></Point>
        <styleUrl>#icon-22</styleUrl>
      </Placemark>
      <Placemark>
        <name><![CDATA[Lidl Karlskoga - Baggängsvägen 2]]></name>
        <description><![CDATA[Lidl Karlskoga - Baggängsvägen 2, Karlskoga]]></description>
        <Point><coordinates>14.50131,59.31624,0</coordinates></Point>
        <styleUrl>#icon-22</styleUrl>
      </Placemark>
      <Placemark>
        <name><![CDATA[Lidl Olofström - Idrottsvägen 4]]></name>
        <description><![CDATA[Lidl Olofström - Idrottsvägen 4, Olofström]]></description>
        <Point><coordinates>14.53367,56.27584,0</coordinates></Point>
        <styleUrl>#icon-22</styleUrl>
      </Placemark>
      <Placemark>
        <name><![CDATA[Lidl Mora - Kyrkogatan 19]]></name>
        <description><![CDATA[Lidl Mora - Kyrkogatan 19, Mora]]></description>
        <Point><coordinates>14.53926,61.00421,0</coordinates></Point>
        <styleUrl>#icon-22</styleUrl>
      </Placemark>
      <Placemark>
        <name><![CDATA[Lidl Östersund - Rådhusgatan 118]]></name>
        <description><![CDATA[Lidl Östersund - Rådhusgatan 118, Östersund]]></description>
        <Point><coordinates>14.65942,63.16222,0</coordinates></Point>
        <styleUrl>#icon-22</styleUrl>
      </Placemark>
      <Placemark>
        <name><![CDATA[Lidl Nässjö - Bandygatan 6]]></name>
        <description><![CDATA[Lidl Nässjö - Bandygatan 6, Nässjö]]></description>
        <Point><coordinates>14.70252,57.65035,0</coordinates></Point>
        <styleUrl>#icon-22</styleUrl>
      </Placemark>
      <Placemark>
        <name><![CDATA[Lidl Växjö - Storgatan 70]]></name>
        <description><![CDATA[Lidl Växjö - Storgatan 70, Växjö]]></description>
        <Point><coordinates>14.78284,56.87895,0</coordinates></Point>
        <styleUrl>#icon-22</styleUrl>
      </Placemark>
      <Placemark>
        <name><![CDATA[Lidl Karlshamn - Nyemöllevägen 1]]></name>
        <description><![CDATA[Lidl Karlshamn - Nyemöllevägen 1, Karlshamn]]></description>
        <Point><coordinates>14.84737,56.18675,0</coordinates></Point>
        <styleUrl>#icon-22</styleUrl>
      </Placemark>
      <Placemark>
        <name><![CDATA[Lidl Tranås - Dalagatan 13]]></name>
        <description><![CDATA[Lidl Tranås - Dalagatan 13, Tranås]]></description>
        <Point><coordinates>14.97255,58.04436,0</coordinates></Point>
        <styleUrl>#icon-22</styleUrl>
      </Placemark>
      <Placemark>
        <name><![CDATA[Lidl Eksjö - Lokgatan 2]]></name>
        <description><![CDATA[Lidl Eksjö - Lokgatan 2, Eksjö]]></description>
        <Point><coordinates>14.97916,57.66471,0</coordinates></Point>
        <styleUrl>#icon-22</styleUrl>
      </Placemark>
      <Placemark>
        <name><![CDATA[Lidl Motala - Agneshögsgatan 30]]></name>
        <description><![CDATA[Lidl Motala - Agneshögsgatan 30, Motala]]></description>
        <Point><coordinates>15.00672,58.53867,0</coordinates></Point>
        <styleUrl>#icon-22</styleUrl>
      </Placemark>
      <Placemark>
        <name><![CDATA[Lidl Vetlanda - Fabriksgatan 2]]></name>
        <description><![CDATA[Lidl Vetlanda - Fabriksgatan 2, Vetlanda]]></description>
        <Point><coordinates>15.08527,57.42277,0</coordinates></Point>
        <styleUrl>#icon-22</styleUrl>
      </Placemark>
      <Placemark>
        <name><![CDATA[Lidl Hallsberg - Hardemovägen 1]]></name>
        <description><![CDATA[Lidl Hallsberg - Hardemovägen 1, Hallsberg]]></description>
        <Point><coordinates>15.09615,59.07456,0</coordinates></Point>
        <styleUrl>#icon-22</styleUrl>
      </Placemark>
      <Placemark>
        <name><![CDATA[Lidl Mjölby - Ramstadgatan 1]]></name>
        <description><![CDATA[Lidl Mjölby - Ramstadgatan 1, Mjölby]]></description>
        <Point><coordinates>15.11715,58.33048,0</coordinates></Point>
        <styleUrl>#icon-22</styleUrl>
      </Placemark>
      <Placemark>
        <name><![CDATA[Lidl Kumla - Mastgatan 10]]></name>
        <description><![CDATA[Lidl Kumla - Mastgatan 10, Kumla]]></description>
        <Point><coordinates>15.13583,59.1433,0</coordinates></Point>
        <styleUrl>#icon-22</styleUrl>
      </Placemark>
      <Placemark>
        <name><![CDATA[Lidl Ludvika - Bergslagsgatan 4]]></name>
        <description><![CDATA[Lidl Ludvika - Bergslagsgatan 4, Ludvika]]></description>
        <Point><coordinates>15.18582,60.15264,0</coordinates></Point>
        <styleUrl>#icon-22</styleUrl>
      </Placemark>
      <Placemark>
        <name><![CDATA[Lidl Örebro - Karlslundsgatan 61]]></name>
        <description><![CDATA[Lidl Örebro - Karlslundsgatan 61, Örebro]]></description>
        <Point><coordinates>15.1924,59.27434,0</coordinates></Point>
        <styleUrl>#icon-22</styleUrl>
      </Placemark>
      <Placemark>
        <name><![CDATA[Lidl Örebro - Dialoggatan 6]]></name>
        <description><![CDATA[Lidl Örebro - Dialoggatan 6, Örebro]]></description>
        <Point><coordinates>15.19745,59.29983,0</coordinates></Point>
        <styleUrl>#icon-22</styleUrl>
      </Placemark>
      <Placemark>
        <name><![CDATA[Lidl Lindesberg - Bergsmansgatan 4]]></name>
        <description><![CDATA[Lidl Lindesberg - Bergsmansgatan 4, Lindesberg]]></description>
        <Point><coordinates>15.22563,59.59738,0</coordinates></Point>
        <styleUrl>#icon-22</styleUrl>
      </Placemark>
      <Placemark>
        <name><![CDATA[Lidl Ronneby - Karlshamnsvägen 10]]></name>
        <description><![CDATA[Lidl Ronneby - Karlshamnsvägen 10, Ronneby]]></description>
        <Point><coordinates>15.27113,56.21598,0</coordinates></Point>
        <styleUrl>#icon-22</styleUrl>
      </Placemark>
      <Placemark>
        <name><![CDATA[Lidl Borlänge - Dammgatan 1-3]]></name>
        <description><![CDATA[Lidl Borlänge - Dammgatan 1-3, Borlänge]]></description>
        <Point><coordinates>15.41417,60.48236,0</coordinates></Point>
        <styleUrl>#icon-22</styleUrl>
      </Placemark>
      <Placemark>
        <name><![CDATA[Lidl Karlskrona - Borgmästarekajen 40]]></name>
        <description><![CDATA[Lidl Karlskrona - Borgmästarekajen 40, Karlskrona]]></description>
        <Point><coordinates>15.58494,56.16919,0</coordinates></Point>
        <styleUrl>#icon-22</styleUrl>
      </Placemark>
      <Placemark>
        <name><![CDATA[Lidl Falun - Norra Järnvägsgatan 31c]]></name>
        <description><![CDATA[Lidl Falun - Norra Järnvägsgatan 31c, Falun]]></description>
        <Point><coordinates>15.62009,60.62244,0</coordinates></Point>
        <styleUrl>#icon-22</styleUrl>
      </Placemark>
      <Placemark>
        <name><![CDATA[Lidl Linköping - Järdalavägen 1]]></name>
        <description><![CDATA[Lidl Linköping - Järdalavägen 1, Linköping]]></description>
        <Point><coordinates>15.67851,58.38588,0</coordinates></Point>
        <styleUrl>#icon-22</styleUrl>
      </Placemark>
      <Placemark>
        <name><![CDATA[Lidl Finspång - Bergslagsvägen 10]]></name>
        <description><![CDATA[Lidl Finspång - Bergslagsvägen 10, Finspång]]></description>
        <Point><coordinates>15.77062,58.707,0</coordinates></Point>
        <styleUrl>#icon-22</styleUrl>
      </Placemark>
      <Placemark>
        <name><![CDATA[Lidl Fagersta - Stationsvägen 3]]></name>
        <description><![CDATA[Lidl Fagersta - Stationsvägen 3, Fagersta]]></description>
        <Point><coordinates>15.79116,60.00353,0</coordinates></Point>
        <styleUrl>#icon-22</styleUrl>
      </Placemark>
      <Placemark>
        <name><![CDATA[Lidl Arboga - Hildelundsvägen 1]]></name>
        <description><![CDATA[Lidl Arboga - Hildelundsvägen 1, Arboga]]></description>
        <Point><coordinates>15.83092,59.40258,0</coordinates></Point>
        <styleUrl>#icon-22</styleUrl>
      </Placemark>
      <Placemark>
        <name><![CDATA[Lidl Nybro - Bangatan 5]]></name>
        <description><![CDATA[Lidl Nybro - Bangatan 5, Nybro]]></description>
        <Point><coordinates>15.90046,56.74358,0</coordinates></Point>
        <styleUrl>#icon-22</styleUrl>
      </Placemark>
      <Placemark>
        <name><![CDATA[Lidl Köping - Nibblesbackevägen 2]]></name>
        <description><![CDATA[Lidl Köping - Nibblesbackevägen 2, Köping]]></description>
        <Point><coordinates>15.98002,59.51259,0</coordinates></Point>
        <styleUrl>#icon-22</styleUrl>
      </Placemark>
      <Placemark>
        <name><![CDATA[Lidl Hedemora - Callerholmsgatan 10]]></name>
        <description><![CDATA[Lidl Hedemora - Callerholmsgatan 10, Hedemora]]></description>
        <Point><coordinates>15.98972,60.28423,0</coordinates></Point>
        <styleUrl>#icon-22</styleUrl>
      </Placemark>
      <Placemark>
        <name><![CDATA[Lidl Avesta - Axel Johnsons Väg 99]]></name>
        <description><![CDATA[Lidl Avesta - Axel Johnsons Väg 99, Avesta]]></description>
        <Point><coordinates>16.16107,60.14138,0</coordinates></Point>
        <styleUrl>#icon-22</styleUrl>
      </Placemark>
      <Placemark>
        <name><![CDATA[Lidl Norrköping - Ektorpsgatan 48-56]]></name>
        <description><![CDATA[Lidl Norrköping - Ektorpsgatan 48-56, Norrköping]]></description>
        <Point><coordinates>16.17067,58.58066,0</coordinates></Point>
        <styleUrl>#icon-22</styleUrl>
      </Placemark>
      <Placemark>
        <name><![CDATA[Lidl Katrineholm - Vingåkersvägen 12]]></name>
        <description><![CDATA[Lidl Katrineholm - Vingåkersvägen 12, Katrineholm]]></description>
        <Point><coordinates>16.18868,58.99197,0</coordinates></Point>
        <styleUrl>#icon-22</styleUrl>
      </Placemark>
      <Placemark>
        <name><![CDATA[Lidl Norrköping - Bangårdsgatan 6]]></name>
        <description><![CDATA[Lidl Norrköping - Bangårdsgatan 6, Norrköping]]></description>
        <Point><coordinates>16.20651,58.59091,0</coordinates></Point>
        <styleUrl>#icon-22</styleUrl>
      </Placemark>
      <Placemark>
        <name><![CDATA[Lidl Hallstahammar - Hantverkaregatan 13]]></name>
        <description><![CDATA[Lidl Hallstahammar - Hantverkaregatan 13, Hallstahammar]]></description>
        <Point><coordinates>16.22995,59.61235,0</coordinates></Point>
        <styleUrl>#icon-22</styleUrl>
      </Placemark>
      <Placemark>
        <name><![CDATA[Lidl Hofors - Faluvägen 1]]></name>
        <description><![CDATA[Lidl Hofors - Faluvägen 1, Hofors]]></description>
        <Point><coordinates>16.28972,60.54111,0</coordinates></Point>
        <styleUrl>#icon-22</styleUrl>
      </Placemark>
      <Placemark>
        <name><![CDATA[Lidl Kalmar - Polhemsgatan 1]]></name>
        <description><![CDATA[Lidl Kalmar - Polhemsgatan 1, Kalmar]]></description>
        <Point><coordinates>16.3397,56.67088,0</coordinates></Point>
        <styleUrl>#icon-22</styleUrl>
      </Placemark>
      <Placemark>
        <name><![CDATA[Lidl Bollnäs - Järnvägsgatan 27]]></name>
        <description><![CDATA[Lidl Bollnäs - Järnvägsgatan 27, Bollnäs]]></description>
        <Point><coordinates>16.39904,61.35417,0</coordinates></Point>
        <styleUrl>#icon-22</styleUrl>
      </Placemark>
      <Placemark>
        <name><![CDATA[Lidl Oskarshamn - Hantverksgatan 45]]></name>
        <description><![CDATA[Lidl Oskarshamn - Hantverksgatan 45, Oskarshamn]]></description>
        <Point><coordinates>16.45745,57.25968,0</coordinates></Point>
        <styleUrl>#icon-22</styleUrl>
      </Placemark>
      <Placemark>
        <name><![CDATA[Lidl Eskilstuna - Domaregatan 5]]></name>
        <description><![CDATA[Lidl Eskilstuna - Domaregatan 5, Eskilstuna]]></description>
        <Point><coordinates>16.4872,59.35687,0</coordinates></Point>
        <styleUrl>#icon-22</styleUrl>
      </Placemark>
      <Placemark>
        <name><![CDATA[Lidl Västerås - Gjutformsgatan 2]]></name>
        <description><![CDATA[Lidl Västerås - Gjutformsgatan 2, Västerås]]></description>
        <Point><coordinates>16.49369,59.59528,0</coordinates></Point>
        <styleUrl>#icon-22</styleUrl>
      </Placemark>
      <Placemark>
        <name><![CDATA[Lidl Eskilstuna - Sundbyvägen 4]]></name>
        <description><![CDATA[Lidl Eskilstuna - Sundbyvägen 4, Eskilstuna]]></description>
        <Point><coordinates>16.52488,59.37646,0</coordinates></Point>
        <styleUrl>#icon-22</styleUrl>
      </Placemark>
      <Placemark>
        <name><![CDATA[Lidl Västerås - Grytavägen 2]]></name>
        <description><![CDATA[Lidl Västerås - Grytavägen 2, Västerås]]></description>
        <Point><coordinates>16.54698,59.63747,0</coordinates></Point>
        <styleUrl>#icon-22</styleUrl>
      </Placemark>
      <Placemark>
        <name><![CDATA[Lidl Västerås - Regattagatan 20-32]]></name>
        <description><![CDATA[Lidl Västerås - Regattagatan 20-32, Västerås]]></description>
        <Point><coordinates>16.58967,59.60106,0</coordinates></Point>
        <styleUrl>#icon-22</styleUrl>
      </Placemark>
      <Placemark>
        <name><![CDATA[Lidl Västervik - Kolonivägen 16]]></name>
        <description><![CDATA[Lidl Västervik - Kolonivägen 16, Västervik]]></description>
        <Point><coordinates>16.61092,57.76069,0</coordinates></Point>
        <styleUrl>#icon-22</styleUrl>
      </Placemark>
      <Placemark>
        <name><![CDATA[Lidl Sala - Gustafsborgsgatan 1]]></name>
        <description><![CDATA[Lidl Sala - Gustafsborgsgatan 1, Sala]]></description>
        <Point><coordinates>16.61547,59.91554,0</coordinates></Point>
        <styleUrl>#icon-22</styleUrl>
      </Placemark>
      <Placemark>
        <name><![CDATA[Lidl Sandviken - Svarvargatan 26]]></name>
        <description><![CDATA[Lidl Sandviken - Svarvargatan 26, Sandviken]]></description>
        <Point><coordinates>16.75643,60.62226,0</coordinates></Point>
        <styleUrl>#icon-22</styleUrl>
      </Placemark>
      <Placemark>
        <name><![CDATA[Lidl Nyköping - Spelhagsvägen 2]]></name>
        <description><![CDATA[Lidl Nyköping - Spelhagsvägen 2, Nyköping]]></description>
        <Point><coordinates>17.00769,58.74401,0</coordinates></Point>
        <styleUrl>#icon-22</styleUrl>
      </Placemark>
      <Placemark>
        <name><![CDATA[Lidl Strängnäs - Trädgårdgatan 6]]></name>
        <description><![CDATA[Lidl Strängnäs - Trädgårdgatan 6, Strängnäs]]></description>
        <Point><coordinates>17.0256,59.37728,0</coordinates></Point>
        <styleUrl>#icon-22</styleUrl>
      </Placemark>
      <Placemark>
        <name><![CDATA[Lidl Söderhamn - Brädgårdsgatan 1]]></name>
        <description><![CDATA[Lidl Söderhamn - Brädgårdsgatan 1, Söderhamn]]></description>
        <Point><coordinates>17.03883,61.3015,0</coordinates></Point>
        <styleUrl>#icon-22</styleUrl>
      </Placemark>
      <Placemark>
        <name><![CDATA[Lidl Enköping - Mästergatan 2]]></name>
        <description><![CDATA[Lidl Enköping - Mästergatan 2, Enköping]]></description>
        <Point><coordinates>17.08576,59.64769,0</coordinates></Point>
        <styleUrl>#icon-22</styleUrl>
      </Placemark>
      <Placemark>
        <name><![CDATA[Lidl Hudiksvall - Hede-finnflovägen 1]]></name>
        <description><![CDATA[Lidl Hudiksvall - Hede-finnflovägen 1, Hudiksvall]]></description>
        <Point><coordinates>17.08619,61.7375,0</coordinates></Point>
        <styleUrl>#icon-22</styleUrl>
      </Placemark>
      <Placemark>
        <name><![CDATA[Lidl Bratislava - Dunajská 2]]></name>
        <description><![CDATA[Lidl Bratislava - Dunajská 2, Bratislava]]></description>
        <Point><coordinates>17.11406,48.14431,0</coordinates></Point>
        <styleUrl>#icon-22</styleUrl>
      </Placemark>
      <Placemark>
        <name><![CDATA[Lidl Bratislava - Pekná Cesta]]></name>
        <description><![CDATA[Lidl Bratislava - Pekná Cesta, Bratislava]]></description>
        <Point><coordinates>17.14125,48.19626,0</coordinates></Point>
        <styleUrl>#icon-22</styleUrl>
      </Placemark>
      <Placemark>
        <name><![CDATA[Lidl Gävle - Norra Kungsvägen 47]]></name>
        <description><![CDATA[Lidl Gävle - Norra Kungsvägen 47, Gävle]]></description>
        <Point><coordinates>17.14901,60.69348,0</coordinates></Point>
        <styleUrl>#icon-22</styleUrl>
      </Placemark>
      <Placemark>
        <name><![CDATA[Lidl Gävle - Kryddstigen 6]]></name>
        <description><![CDATA[Lidl Gävle - Kryddstigen 6, Gävle]]></description>
        <Point><coordinates>17.16936,60.65631,0</coordinates></Point>
        <styleUrl>#icon-22</styleUrl>
      </Placemark>
      <Placemark>
        <name><![CDATA[Lidl Sollefteå - Storgatan 74]]></name>
        <description><![CDATA[Lidl Sollefteå - Storgatan 74, Sollefteå]]></description>
        <Point><coordinates>17.27487,63.16495,0</coordinates></Point>
        <styleUrl>#icon-22</styleUrl>
      </Placemark>
      <Placemark>
        <name><![CDATA[Lidl Timrå - Frölandsvägen 2]]></name>
        <description><![CDATA[Lidl Timrå - Frölandsvägen 2, Timrå]]></description>
        <Point><coordinates>17.31158,62.48072,0</coordinates></Point>
        <styleUrl>#icon-22</styleUrl>
      </Placemark>
      <Placemark>
        <name><![CDATA[Lidl Sundsvall - Kolvägen 14]]></name>
        <description><![CDATA[Lidl Sundsvall - Kolvägen 14, Sundsvall]]></description>
        <Point><coordinates>17.32204,62.38725,0</coordinates></Point>
        <styleUrl>#icon-22</styleUrl>
      </Placemark>
      <Placemark>
        <name><![CDATA[Lidl Tierp - Badhusgatan 2]]></name>
        <description><![CDATA[Lidl Tierp - Badhusgatan 2, Tierp]]></description>
        <Point><coordinates>17.5079,60.34288,0</coordinates></Point>
        <styleUrl>#icon-22</styleUrl>
      </Placemark>
      <Placemark>
        <name><![CDATA[Lidl Bålsta - Stockholmsvägen 75]]></name>
        <description><![CDATA[Lidl Bålsta - Stockholmsvägen 75, Bålsta]]></description>
        <Point><coordinates>17.52809,59.57001,0</coordinates></Point>
        <styleUrl>#icon-22</styleUrl>
      </Placemark>
      <Placemark>
        <name><![CDATA[Lidl Uppsala - Valthornsvägen 1a]]></name>
        <description><![CDATA[Lidl Uppsala - Valthornsvägen 1a, Uppsala]]></description>
        <Point><coordinates>17.6269,59.81088,0</coordinates></Point>
        <styleUrl>#icon-22</styleUrl>
      </Placemark>
      <Placemark>
        <name><![CDATA[Lidl Södertälje - Bergaholmsvägen 7]]></name>
        <description><![CDATA[Lidl Södertälje - Bergaholmsvägen 7, Södertälje]]></description>
        <Point><coordinates>17.64553,59.20549,0</coordinates></Point>
        <styleUrl>#icon-22</styleUrl>
      </Placemark>
      <Placemark>
        <name><![CDATA[Lidl Uppsala - Liljefors Torg 2]]></name>
        <description><![CDATA[Lidl Uppsala - Liljefors Torg 2, Uppsala]]></description>
        <Point><coordinates>17.65588,59.87045,0</coordinates></Point>
        <styleUrl>#icon-22</styleUrl>
      </Placemark>
      <Placemark>
        <name><![CDATA[Lidl Kungsängen - Pettersbergsvägen 1]]></name>
        <description><![CDATA[Lidl Kungsängen - Pettersbergsvägen 1, Kungsängen]]></description>
        <Point><coordinates>17.73713,59.49251,0</coordinates></Point>
        <styleUrl>#icon-22</styleUrl>
      </Placemark>
      <Placemark>
        <name><![CDATA[Lidl Ekerö - Älvnäsvägen 2]]></name>
        <description><![CDATA[Lidl Ekerö - Älvnäsvägen 2, Ekerö]]></description>
        <Point><coordinates>17.78902,59.2801,0</coordinates></Point>
        <styleUrl>#icon-22</styleUrl>
      </Placemark>
      <Placemark>
        <name><![CDATA[Lidl Hässelby - Lövkojsgränd 12]]></name>
        <description><![CDATA[Lidl Hässelby - Lövkojsgränd 12, Hässelby]]></description>
        <Point><coordinates>17.81512,59.38014,0</coordinates></Point>
        <styleUrl>#icon-22</styleUrl>
      </Placemark>
      <Placemark>
        <name><![CDATA[Lidl Norsborg - Hallunda Torg 1]]></name>
        <description><![CDATA[Lidl Norsborg - Hallunda Torg 1, Norsborg]]></description>
        <Point><coordinates>17.82354,59.24493,0</coordinates></Point>
        <styleUrl>#icon-22</styleUrl>
      </Placemark>
      <Placemark>
        <name><![CDATA[Lidl Tumba - Tumba Torg 1]]></name>
        <description><![CDATA[Lidl Tumba - Tumba Torg 1, Tumba]]></description>
        <Point><coordinates>17.83517,59.19917,0</coordinates></Point>
        <styleUrl>#icon-22</styleUrl>
      </Placemark>
      <Placemark>
        <name><![CDATA[Lidl Järfälla - Värmevägen 1a]]></name>
        <description><![CDATA[Lidl Järfälla - Värmevägen 1a, Järfälla]]></description>
        <Point><coordinates>17.84696,59.42882,0</coordinates></Point>
        <styleUrl>#icon-22</styleUrl>
      </Placemark>
      <Placemark>
        <name><![CDATA[Lidl Märsta - Västra Bangatan 6]]></name>
        <description><![CDATA[Lidl Märsta - Västra Bangatan 6, Märsta]]></description>
        <Point><coordinates>17.85655,59.61759,0</coordinates></Point>
        <styleUrl>#icon-22</styleUrl>
      </Placemark>
      <Placemark>
        <name><![CDATA[Lidl Norsborg - Fittjavägen 3]]></name>
        <description><![CDATA[Lidl Norsborg - Fittjavägen 3, Norsborg]]></description>
        <Point><coordinates>17.86064,59.24842,0</coordinates></Point>
        <styleUrl>#icon-22</styleUrl>
      </Placemark>
      <Placemark>
        <name><![CDATA[Lidl Vällingby - Vilhelminag 1-21]]></name>
        <description><![CDATA[Lidl Vällingby - Vilhelminag 1-21, Vällingby]]></description>
        <Point><coordinates>17.87567,59.36076,0</coordinates></Point>
        <styleUrl>#icon-22</styleUrl>
      </Placemark>
      <Placemark>
        <name><![CDATA[Lidl Spånga - Tenstagången 43]]></name>
        <description><![CDATA[Lidl Spånga - Tenstagången 43, Spånga]]></description>
        <Point><coordinates>17.90324,59.39407,0</coordinates></Point>
        <styleUrl>#icon-22</styleUrl>
      </Placemark>
      <Placemark>
        <name><![CDATA[Lidl Spånga - Bromstensvägen 158]]></name>
        <description><![CDATA[Lidl Spånga - Bromstensvägen 158, Spånga]]></description>
        <Point><coordinates>17.90813,59.37772,0</coordinates></Point>
        <styleUrl>#icon-22</styleUrl>
      </Placemark>
      <Placemark>
        <name><![CDATA[Lidl Skärholmen - Skärholmsgången 8]]></name>
        <description><![CDATA[Lidl Skärholmen - Skärholmsgången 8, Skärholmen]]></description>
        <Point><coordinates>17.9089,59.27694,0</coordinates></Point>
        <styleUrl>#icon-22</styleUrl>
      </Placemark>
      <Placemark>
        <name><![CDATA[Lidl Kista - Villmanstrandsgatan 6]]></name>
        <description><![CDATA[Lidl Kista - Villmanstrandsgatan 6, Kista]]></description>
        <Point><coordinates>17.91743,59.41384,0</coordinates></Point>
        <styleUrl>#icon-22</styleUrl>
      </Placemark>
      <Placemark>
        <name><![CDATA[Lidl Upplands Väsby - Stockholmsvägen 30]]></name>
        <description><![CDATA[Lidl Upplands Väsby - Stockholmsvägen 30, Upplands Väsby]]></description>
        <Point><coordinates>17.92377,59.50489,0</coordinates></Point>
        <styleUrl>#icon-22</styleUrl>
      </Placemark>
      <Placemark>
        <name><![CDATA[Lidl Härnösand - Strandgatan 2]]></name>
        <description><![CDATA[Lidl Härnösand - Strandgatan 2, Härnösand]]></description>
        <Point><coordinates>17.93376,62.63463,0</coordinates></Point>
        <styleUrl>#icon-22</styleUrl>
      </Placemark>
      <Placemark>
        <name><![CDATA[Lidl Sollentuna - Tistelvägen 21]]></name>
        <description><![CDATA[Lidl Sollentuna - Tistelvägen 21, Sollentuna]]></description>
        <Point><coordinates>17.93619,59.43001,0</coordinates></Point>
        <styleUrl>#icon-22</styleUrl>
      </Placemark>
      <Placemark>
        <name><![CDATA[Lidl Hägersten - Elisabeth Tamms Gata 2]]></name>
        <description><![CDATA[Lidl Hägersten - Elisabeth Tamms Gata 2, Hägersten]]></description>
        <Point><coordinates>17.95419,59.28523,0</coordinates></Point>
        <styleUrl>#icon-22</styleUrl>
      </Placemark>
      <Placemark>
        <name><![CDATA[Lidl Nynäshamn - Nynäsvägen 10]]></name>
        <description><![CDATA[Lidl Nynäshamn - Nynäsvägen 10, Nynäshamn]]></description>
        <Point><coordinates>17.95468,58.90949,0</coordinates></Point>
        <styleUrl>#icon-22</styleUrl>
      </Placemark>
      <Placemark>
        <name><![CDATA[Lidl Sundbyberg - Landsvägen 47]]></name>
        <description><![CDATA[Lidl Sundbyberg - Landsvägen 47, Sundbyberg]]></description>
        <Point><coordinates>17.96926,59.36106,0</coordinates></Point>
        <styleUrl>#icon-22</styleUrl>
      </Placemark>
      <Placemark>
        <name><![CDATA[Lidl Solna - Ankdammsgatan 35]]></name>
        <description><![CDATA[Lidl Solna - Ankdammsgatan 35, Solna]]></description>
        <Point><coordinates>17.98739,59.35803,0</coordinates></Point>
        <styleUrl>#icon-22</styleUrl>
      </Placemark>
      <Placemark>
        <name><![CDATA[Lidl Bandhagen - Rågsvedsvägen 106]]></name>
        <description><![CDATA[Lidl Bandhagen - Rågsvedsvägen 106, Bandhagen]]></description>
        <Point><coordinates>18.015,59.25715,0</coordinates></Point>
        <styleUrl>#icon-22</styleUrl>
      </Placemark>
      <Placemark>
        <name><![CDATA[Lidl Stockholm - Liljeholmstorget 44]]></name>
        <description><![CDATA[Lidl Stockholm - Liljeholmstorget 44, Stockholm]]></description>
        <Point><coordinates>18.02313,59.31007,0</coordinates></Point>
        <styleUrl>#icon-22</styleUrl>
      </Placemark>
      <Placemark>
        <name><![CDATA[Lidl Stockholm - Sankt Göransgatan 70]]></name>
        <description><![CDATA[Lidl Stockholm - Sankt Göransgatan 70, Stockholm]]></description>
        <Point><coordinates>18.0292,59.3337,0</coordinates></Point>
        <styleUrl>#icon-22</styleUrl>
      </Placemark>
      <Placemark>
        <name><![CDATA[Lidl Täby - Enhagsvägen 24]]></name>
        <description><![CDATA[Lidl Täby - Enhagsvägen 24, Täby]]></description>
        <Point><coordinates>18.03775,59.44011,0</coordinates></Point>
        <styleUrl>#icon-22</styleUrl>
      </Placemark>
      <Placemark>
        <name><![CDATA[Lidl Stockholm - Sankt Eriksgatan 113]]></name>
        <description><![CDATA[Lidl Stockholm - Sankt Eriksgatan 113, Stockholm]]></description>
        <Point><coordinates>18.03959,59.34601,0</coordinates></Point>
        <styleUrl>#icon-22</styleUrl>
      </Placemark>
      <Placemark>
        <name><![CDATA[Lidl Danderyd - Stockholmsvägen 1]]></name>
        <description><![CDATA[Lidl Danderyd - Stockholmsvägen 1, Danderyd]]></description>
        <Point><coordinates>18.04504,59.38532,0</coordinates></Point>
        <styleUrl>#icon-22</styleUrl>
      </Placemark>
      <Placemark>
        <name><![CDATA[Lidl Stockholm - Bussens Väg 5]]></name>
        <description><![CDATA[Lidl Stockholm - Bussens Väg 5, Stockholm]]></description>
        <Point><coordinates>18.04883,59.28537,0</coordinates></Point>
        <styleUrl>#icon-22</styleUrl>
      </Placemark>
      <Placemark>
        <name><![CDATA[Lidl Årsta - Årstavägen 53]]></name>
        <description><![CDATA[Lidl Årsta - Årstavägen 53, Årsta]]></description>
        <Point><coordinates>18.05101,59.29687,0</coordinates></Point>
        <styleUrl>#icon-22</styleUrl>
      </Placemark>
      <Placemark>
        <name><![CDATA[Lidl Stockholm - Saltmätarg 18-20]]></name>
        <description><![CDATA[Lidl Stockholm - Saltmätarg 18-20, Stockholm]]></description>
        <Point><coordinates>18.05829,59.34082,0</coordinates></Point>
        <styleUrl>#icon-22</styleUrl>
      </Placemark>
      <Placemark>
        <name><![CDATA[Lidl Stockholm - Magnus Ladulåsgatan 3]]></name>
        <description><![CDATA[Lidl Stockholm - Magnus Ladulåsgatan 3, Stockholm]]></description>
        <Point><coordinates>18.05912,59.31167,0</coordinates></Point>
        <styleUrl>#icon-22</styleUrl>
      </Placemark>
      <Placemark>
        <name><![CDATA[Lidl Farsta - Havsörnsvägen 3]]></name>
        <description><![CDATA[Lidl Farsta - Havsörnsvägen 3, Farsta]]></description>
        <Point><coordinates>18.06425,59.24752,0</coordinates></Point>
        <styleUrl>#icon-22</styleUrl>
      </Placemark>
      <Placemark>
        <name><![CDATA[Lidl Stockholm - Folkungagatan 51]]></name>
        <description><![CDATA[Lidl Stockholm - Folkungagatan 51, Stockholm]]></description>
        <Point><coordinates>18.07497,59.31446,0</coordinates></Point>
        <styleUrl>#icon-22</styleUrl>
      </Placemark>
      <Placemark>
        <name><![CDATA[Lidl Vallentuna - Tellusvägen 1]]></name>
        <description><![CDATA[Lidl Vallentuna - Tellusvägen 1, Vallentuna]]></description>
        <Point><coordinates>18.08461,59.53308,0</coordinates></Point>
        <styleUrl>#icon-22</styleUrl>
      </Placemark>
      <Placemark>
        <name><![CDATA[Lidl Farsta - Storforsplan 36]]></name>
        <description><![CDATA[Lidl Farsta - Storforsplan 36, Farsta]]></description>
        <Point><coordinates>18.09338,59.24196,0</coordinates></Point>
        <styleUrl>#icon-22</styleUrl>
      </Placemark>
      <Placemark>
        <name><![CDATA[Lidl Stockholm - Hammarby Allé 118]]></name>
        <description><![CDATA[Lidl Stockholm - Hammarby Allé 118, Stockholm]]></description>
        <Point><coordinates>18.10221,59.30206,0</coordinates></Point>
        <styleUrl>#icon-22</styleUrl>
      </Placemark>
      <Placemark>
        <name><![CDATA[Lidl Haninge - Torfastleden 1]]></name>
        <description><![CDATA[Lidl Haninge - Torfastleden 1, Haninge]]></description>
        <Point><coordinates>18.17536,59.19117,0</coordinates></Point>
        <styleUrl>#icon-22</styleUrl>
      </Placemark>
      <Placemark>
        <name><![CDATA[Lidl Tyresö - Bollmoravägen 186]]></name>
        <description><![CDATA[Lidl Tyresö - Bollmoravägen 186, Tyresö]]></description>
        <Point><coordinates>18.19797,59.2432,0</coordinates></Point>
        <styleUrl>#icon-22</styleUrl>
      </Placemark>
      <Placemark>
        <name><![CDATA[Lidl Saltsjö-boo - Värmdövägen 691]]></name>
        <description><![CDATA[Lidl Saltsjö-boo - Värmdövägen 691, Saltsjö-boo]]></description>
        <Point><coordinates>18.25636,59.32294,0</coordinates></Point>
        <styleUrl>#icon-22</styleUrl>
      </Placemark>
      <Placemark>
        <name><![CDATA[Lidl Åkersberga - Rallarvägen 3]]></name>
        <description><![CDATA[Lidl Åkersberga - Rallarvägen 3, Åkersberga]]></description>
        <Point><coordinates>18.28487,59.48079,0</coordinates></Point>
        <styleUrl>#icon-22</styleUrl>
      </Placemark>
      <Placemark>
        <name><![CDATA[Lidl Gustavsberg - Medeas Väg 2]]></name>
        <description><![CDATA[Lidl Gustavsberg - Medeas Väg 2, Gustavsberg]]></description>
        <Point><coordinates>18.42422,59.31244,0</coordinates></Point>
        <styleUrl>#icon-22</styleUrl>
      </Placemark>
      <Placemark>
        <name><![CDATA[Lidl Orlová - 17. Listopadu 1431]]></name>
        <description><![CDATA[Lidl Orlová - 17. Listopadu 1431, Orlová]]></description>
        <Point><coordinates>18.43723,49.87557,0</coordinates></Point>
        <styleUrl>#icon-22</styleUrl>
      </Placemark>
      <Placemark>
        <name><![CDATA[Lidl Norrtälje - Baldersgatan 27b]]></name>
        <description><![CDATA[Lidl Norrtälje - Baldersgatan 27b, Norrtälje]]></description>
        <Point><coordinates>18.69507,59.76612,0</coordinates></Point>
        <styleUrl>#icon-22</styleUrl>
      </Placemark>
      <Placemark>
        <name><![CDATA[Lidl Örnsköldsvik - Ångermanlandsgatan 17]]></name>
        <description><![CDATA[Lidl Örnsköldsvik - Ångermanlandsgatan 17, Örnsköldsvik]]></description>
        <Point><coordinates>18.71793,63.30291,0</coordinates></Point>
        <styleUrl>#icon-22</styleUrl>
      </Placemark>
      <Placemark>
        <name><![CDATA[Lidl Närpiö - Tegelbruksvägen 2]]></name>
        <description><![CDATA[Lidl Närpiö - Tegelbruksvägen 2, Närpiö]]></description>
        <Point><coordinates>21.39446,62.47628,0</coordinates></Point>
        <styleUrl>#icon-22</styleUrl>
      </Placemark>
      <Placemark>
        <name><![CDATA[Lidl Uusikaupunki - Levysepänkatu 2]]></name>
        <description><![CDATA[Lidl Uusikaupunki - Levysepänkatu 2, Uusikaupunki]]></description>
        <Point><coordinates>21.42822,60.80659,0</coordinates></Point>
        <styleUrl>#icon-22</styleUrl>
      </Placemark>
      <Placemark>
        <name><![CDATA[Lidl Rauma - Papinhaankatu 7]]></name>
        <description><![CDATA[Lidl Rauma - Papinhaankatu 7, Rauma]]></description>
        <Point><coordinates>21.50215,61.13711,0</coordinates></Point>
        <styleUrl>#icon-22</styleUrl>
      </Placemark>
      <Placemark>
        <name><![CDATA[Lidl Vaasa - Sepänkyläntie 4]]></name>
        <description><![CDATA[Lidl Vaasa - Sepänkyläntie 4, Vaasa]]></description>
        <Point><coordinates>21.62904,63.09856,0</coordinates></Point>
        <styleUrl>#icon-22</styleUrl>
      </Placemark>
      <Placemark>
        <name><![CDATA[Lidl Vaasa - Kaarnatie 1]]></name>
        <description><![CDATA[Lidl Vaasa - Kaarnatie 1, Vaasa]]></description>
        <Point><coordinates>21.69875,63.08487,0</coordinates></Point>
        <styleUrl>#icon-22</styleUrl>
      </Placemark>
      <Placemark>
        <name><![CDATA[Lidl Pori - Eteläväylä 9]]></name>
        <description><![CDATA[Lidl Pori - Eteläväylä 9, Pori]]></description>
        <Point><coordinates>21.75231,61.47493,0</coordinates></Point>
        <styleUrl>#icon-22</styleUrl>
      </Placemark>
      <Placemark>
        <name><![CDATA[Lidl Pori - Paanakedonkatu 10]]></name>
        <description><![CDATA[Lidl Pori - Paanakedonkatu 10, Pori]]></description>
        <Point><coordinates>21.80938,61.48453,0</coordinates></Point>
        <styleUrl>#icon-22</styleUrl>
      </Placemark>
      <Placemark>
        <name><![CDATA[Lidl Naantali - Rautakatu 1]]></name>
        <description><![CDATA[Lidl Naantali - Rautakatu 1, Naantali]]></description>
        <Point><coordinates>22.04838,60.47532,0</coordinates></Point>
        <styleUrl>#icon-22</styleUrl>
      </Placemark>
      <Placemark>
        <name><![CDATA[Lidl Harjavalta - Teollisuuskatu 4a]]></name>
        <description><![CDATA[Lidl Harjavalta - Teollisuuskatu 4a, Harjavalta]]></description>
        <Point><coordinates>22.13881,61.30937,0</coordinates></Point>
        <styleUrl>#icon-22</styleUrl>
      </Placemark>
      <Placemark>
        <name><![CDATA[Lidl Raisio - Kyläpajankatu 2]]></name>
        <description><![CDATA[Lidl Raisio - Kyläpajankatu 2, Raisio]]></description>
        <Point><coordinates>22.16085,60.4802,0</coordinates></Point>
        <styleUrl>#icon-22</styleUrl>
      </Placemark>
      <Placemark>
        <name><![CDATA[Lidl Kauhajoki - Puistotie 60]]></name>
        <description><![CDATA[Lidl Kauhajoki - Puistotie 60, Kauhajoki]]></description>
        <Point><coordinates>22.17902,62.43252,0</coordinates></Point>
        <styleUrl>#icon-22</styleUrl>
      </Placemark>
      <Placemark>
        <name><![CDATA[Lidl Turku - Kollikatu 1]]></name>
        <description><![CDATA[Lidl Turku - Kollikatu 1, Turku]]></description>
        <Point><coordinates>22.24146,60.4548,0</coordinates></Point>
        <styleUrl>#icon-22</styleUrl>
      </Placemark>
      <Placemark>
        <name><![CDATA[Lidl Turku - Eerikinkatu 4]]></name>
        <description><![CDATA[Lidl Turku - Eerikinkatu 4, Turku]]></description>
        <Point><coordinates>22.27211,60.45229,0</coordinates></Point>
        <styleUrl>#icon-22</styleUrl>
      </Placemark>
      <Placemark>
        <name><![CDATA[Lidl Turku - Kärsämäentie 2]]></name>
        <description><![CDATA[Lidl Turku - Kärsämäentie 2, Turku]]></description>
        <Point><coordinates>22.28274,60.473,0</coordinates></Point>
        <styleUrl>#icon-22</styleUrl>
      </Placemark>
      <Placemark>
        <name><![CDATA[Lidl Turku - Kalevantie 19-23]]></name>
        <description><![CDATA[Lidl Turku - Kalevantie 19-23, Turku]]></description>
        <Point><coordinates>22.30612,60.45029,0</coordinates></Point>
        <styleUrl>#icon-22</styleUrl>
      </Placemark>
      <Placemark>
        <name><![CDATA[Lidl Kokemäki - Pyhänkorvantie 2]]></name>
        <description><![CDATA[Lidl Kokemäki - Pyhänkorvantie 2, Kokemäki]]></description>
        <Point><coordinates>22.33909,61.2566,0</coordinates></Point>
        <styleUrl>#icon-22</styleUrl>
      </Placemark>
      <Placemark>
        <name><![CDATA[Lidl Kaarina - Lautakunnankatu 7]]></name>
        <description><![CDATA[Lidl Kaarina - Lautakunnankatu 7, Kaarina]]></description>
        <Point><coordinates>22.36339,60.4086,0</coordinates></Point>
        <styleUrl>#icon-22</styleUrl>
      </Placemark>
      <Placemark>
        <name><![CDATA[Lidl Kankaanpää - Asemakatu 2]]></name>
        <description><![CDATA[Lidl Kankaanpää - Asemakatu 2, Kankaanpää]]></description>
        <Point><coordinates>22.37676,61.8124,0</coordinates></Point>
        <styleUrl>#icon-22</styleUrl>
      </Placemark>
      <Placemark>
        <name><![CDATA[Lidl Lieto - Simpukkatie 4]]></name>
        <description><![CDATA[Lidl Lieto - Simpukkatie 4, Lieto]]></description>
        <Point><coordinates>22.46114,60.50282,0</coordinates></Point>
        <styleUrl>#icon-22</styleUrl>
      </Placemark>
      <Placemark>
        <name><![CDATA[Lidl Huittinen - Risto Rytin Katu 12]]></name>
        <description><![CDATA[Lidl Huittinen - Risto Rytin Katu 12, Huittinen]]></description>
        <Point><coordinates>22.68916,61.17359,0</coordinates></Point>
        <styleUrl>#icon-22</styleUrl>
      </Placemark>
      <Placemark>
        <name><![CDATA[Lidl Pietarsaari - Itäinen Rengastie 31]]></name>
        <description><![CDATA[Lidl Pietarsaari - Itäinen Rengastie 31, Pietarsaari]]></description>
        <Point><coordinates>22.72102,63.67819,0</coordinates></Point>
        <styleUrl>#icon-22</styleUrl>
      </Placemark>
      <Placemark>
        <name><![CDATA[Lidl Seinäjoki - Verkatehtaankatu 12]]></name>
        <description><![CDATA[Lidl Seinäjoki - Verkatehtaankatu 12, Seinäjoki]]></description>
        <Point><coordinates>22.83093,62.79481,0</coordinates></Point>
        <styleUrl>#icon-22</styleUrl>
      </Placemark>
      <Placemark>
        <name><![CDATA[Lidl Sastamala - Nuutilankatu 1]]></name>
        <description><![CDATA[Lidl Sastamala - Nuutilankatu 1, Sastamala]]></description>
        <Point><coordinates>22.91776,61.32683,0</coordinates></Point>
        <styleUrl>#icon-22</styleUrl>
      </Placemark>
      <Placemark>
        <name><![CDATA[Lidl Hanko - Esplanaadi 134]]></name>
        <description><![CDATA[Lidl Hanko - Esplanaadi 134, Hanko]]></description>
        <Point><coordinates>22.98694,59.83019,0</coordinates></Point>
        <styleUrl>#icon-22</styleUrl>
      </Placemark>
      <Placemark>
        <name><![CDATA[Lidl Parkano - Humalankatu 2]]></name>
        <description><![CDATA[Lidl Parkano - Humalankatu 2, Parkano]]></description>
        <Point><coordinates>23.01097,62.00786,0</coordinates></Point>
        <styleUrl>#icon-22</styleUrl>
      </Placemark>
      <Placemark>
        <name><![CDATA[Lidl Lapua - Rakentajantie 4]]></name>
        <description><![CDATA[Lidl Lapua - Rakentajantie 4, Lapua]]></description>
        <Point><coordinates>23.0254,62.97456,0</coordinates></Point>
        <styleUrl>#icon-22</styleUrl>
      </Placemark>
      <Placemark>
        <name><![CDATA[Lidl Kauhava - Heimolankuja 2]]></name>
        <description><![CDATA[Lidl Kauhava - Heimolankuja 2, Kauhava]]></description>
        <Point><coordinates>23.05422,63.10038,0</coordinates></Point>
        <styleUrl>#icon-22</styleUrl>
      </Placemark>
      <Placemark>
        <name><![CDATA[Lidl Ikaalinen - Pirkantie 2]]></name>
        <description><![CDATA[Lidl Ikaalinen - Pirkantie 2, Ikaalinen]]></description>
        <Point><coordinates>23.06861,61.76371,0</coordinates></Point>
        <styleUrl>#icon-22</styleUrl>
      </Placemark>
      <Placemark>
        <name><![CDATA[Lidl Kokkola - Tervahovintie 4]]></name>
        <description><![CDATA[Lidl Kokkola - Tervahovintie 4, Kokkola]]></description>
        <Point><coordinates>23.1161,63.83534,0</coordinates></Point>
        <styleUrl>#icon-22</styleUrl>
      </Placemark>
      <Placemark>
        <name><![CDATA[Lidl Salo - Savipajankatu 3]]></name>
        <description><![CDATA[Lidl Salo - Savipajankatu 3, Salo]]></description>
        <Point><coordinates>23.12662,60.39476,0</coordinates></Point>
        <styleUrl>#icon-22</styleUrl>
      </Placemark>
      <Placemark>
        <name><![CDATA[Lidl Tammisaari - Oikotie 2]]></name>
        <description><![CDATA[Lidl Tammisaari - Oikotie 2, Tammisaari]]></description>
        <Point><coordinates>23.45729,59.98129,0</coordinates></Point>
        <styleUrl>#icon-22</styleUrl>
      </Placemark>
      <Placemark>
        <name><![CDATA[Lidl Nokia - Nuijamiestentie 2]]></name>
        <description><![CDATA[Lidl Nokia - Nuijamiestentie 2, Nokia]]></description>
        <Point><coordinates>23.50617,61.46582,0</coordinates></Point>
        <styleUrl>#icon-22</styleUrl>
      </Placemark>
      <Placemark>
        <name><![CDATA[Lidl Somero - Hämeentie 6]]></name>
        <description><![CDATA[Lidl Somero - Hämeentie 6, Somero]]></description>
        <Point><coordinates>23.51747,60.63143,0</coordinates></Point>
        <styleUrl>#icon-22</styleUrl>
      </Placemark>
      <Placemark>
        <name><![CDATA[Lidl Ylöjärvi - Mastontie 8]]></name>
        <description><![CDATA[Lidl Ylöjärvi - Mastontie 8, Ylöjärvi]]></description>
        <Point><coordinates>23.59301,61.54752,0</coordinates></Point>
        <styleUrl>#icon-22</styleUrl>
      </Placemark>
      <Placemark>
        <name><![CDATA[Lidl Forssa - Pihlajakatu 2]]></name>
        <description><![CDATA[Lidl Forssa - Pihlajakatu 2, Forssa]]></description>
        <Point><coordinates>23.62077,60.80745,0</coordinates></Point>
        <styleUrl>#icon-22</styleUrl>
      </Placemark>
      <Placemark>
        <name><![CDATA[Lidl Karjaa - Ratakatu 50]]></name>
        <description><![CDATA[Lidl Karjaa - Ratakatu 50, Karjaa]]></description>
        <Point><coordinates>23.66512,60.07062,0</coordinates></Point>
        <styleUrl>#icon-22</styleUrl>
      </Placemark>
      <Placemark>
        <name><![CDATA[Lidl Tampere - Harjuntausta 11]]></name>
        <description><![CDATA[Lidl Tampere - Harjuntausta 11, Tampere]]></description>
        <Point><coordinates>23.66599,61.51657,0</coordinates></Point>
        <styleUrl>#icon-22</styleUrl>
      </Placemark>
      <Placemark>
        <name><![CDATA[Lidl Pirkkala - Kaartotie 1]]></name>
        <description><![CDATA[Lidl Pirkkala - Kaartotie 1, Pirkkala]]></description>
        <Point><coordinates>23.71156,61.4692,0</coordinates></Point>
        <styleUrl>#icon-22</styleUrl>
      </Placemark>
      <Placemark>
        <name><![CDATA[Lidl Tampere - Hallituskatu 14-16]]></name>
        <description><![CDATA[Lidl Tampere - Hallituskatu 14-16, Tampere]]></description>
        <Point><coordinates>23.75637,61.49635,0</coordinates></Point>
        <styleUrl>#icon-22</styleUrl>
      </Placemark>
      <Placemark>
        <name><![CDATA[Lidl Lempäälä - Liikekatu 3]]></name>
        <description><![CDATA[Lidl Lempäälä - Liikekatu 3, Lempäälä]]></description>
        <Point><coordinates>23.75974,61.31374,0</coordinates></Point>
        <styleUrl>#icon-22</styleUrl>
      </Placemark>
      <Placemark>
        <name><![CDATA[Lidl Tampere - Rautatienkatu 21]]></name>
        <description><![CDATA[Lidl Tampere - Rautatienkatu 21, Tampere]]></description>
        <Point><coordinates>23.77119,61.50001,0</coordinates></Point>
        <styleUrl>#icon-22</styleUrl>
      </Placemark>
      <Placemark>
        <name><![CDATA[Lidl Alajärvi - Yrittäjäntie 1]]></name>
        <description><![CDATA[Lidl Alajärvi - Yrittäjäntie 1, Alajärvi]]></description>
        <Point><coordinates>23.80257,63.00378,0</coordinates></Point>
        <styleUrl>#icon-22</styleUrl>
      </Placemark>
      <Placemark>
        <name><![CDATA[Lidl Tampere - Sammon Valtatie 16]]></name>
        <description><![CDATA[Lidl Tampere - Sammon Valtatie 16, Tampere]]></description>
        <Point><coordinates>23.84332,61.4919,0</coordinates></Point>
        <styleUrl>#icon-22</styleUrl>
      </Placemark>
      <Placemark>
        <name><![CDATA[Lidl Tampere - Insinöörinkatu 23]]></name>
        <description><![CDATA[Lidl Tampere - Insinöörinkatu 23, Tampere]]></description>
        <Point><coordinates>23.851,61.45099,0</coordinates></Point>
        <styleUrl>#icon-22</styleUrl>
      </Placemark>
      <Placemark>
        <name><![CDATA[Lidl Kangasala - Lentolankuja 8]]></name>
        <description><![CDATA[Lidl Kangasala - Lentolankuja 8, Kangasala]]></description>
        <Point><coordinates>23.98935,61.47268,0</coordinates></Point>
        <styleUrl>#icon-22</styleUrl>
      </Placemark>
      <Placemark>
        <name><![CDATA[Lidl Valkeakoski - Asemantie 1]]></name>
        <description><![CDATA[Lidl Valkeakoski - Asemantie 1, Valkeakoski]]></description>
        <Point><coordinates>24.01661,61.27528,0</coordinates></Point>
        <styleUrl>#icon-22</styleUrl>
      </Placemark>
      <Placemark>
        <name><![CDATA[Lidl Lohja - Reunakatu 1]]></name>
        <description><![CDATA[Lidl Lohja - Reunakatu 1, Lohja]]></description>
        <Point><coordinates>24.02734,60.22595,0</coordinates></Point>
        <styleUrl>#icon-22</styleUrl>
      </Placemark>
      <Placemark>
        <name><![CDATA[Lidl Tornio - Teollisuuskatu 12]]></name>
        <description><![CDATA[Lidl Tornio - Teollisuuskatu 12, Tornio]]></description>
        <Point><coordinates>24.18592,65.84375,0</coordinates></Point>
        <styleUrl>#icon-22</styleUrl>
      </Placemark>
      <Placemark>
        <name><![CDATA[Lidl Karkkila - Yrittäjäntie 4]]></name>
        <description><![CDATA[Lidl Karkkila - Yrittäjäntie 4, Karkkila]]></description>
        <Point><coordinates>24.23605,60.53331,0</coordinates></Point>
        <styleUrl>#icon-22</styleUrl>
      </Placemark>
      <Placemark>
        <name><![CDATA[Lidl Nummela - Asemantie 4]]></name>
        <description><![CDATA[Lidl Nummela - Asemantie 4, Nummela]]></description>
        <Point><coordinates>24.31932,60.33274,0</coordinates></Point>
        <styleUrl>#icon-22</styleUrl>
      </Placemark>
      <Placemark>
        <name><![CDATA[Lidl Orivesi - Kääjäntie 5]]></name>
        <description><![CDATA[Lidl Orivesi - Kääjäntie 5, Orivesi]]></description>
        <Point><coordinates>24.35217,61.67571,0</coordinates></Point>
        <styleUrl>#icon-22</styleUrl>
      </Placemark>
      <Placemark>
        <name><![CDATA[Lidl Hämeenlinna - Pitkätanhuankatu 4]]></name>
        <description><![CDATA[Lidl Hämeenlinna - Pitkätanhuankatu 4, Hämeenlinna]]></description>
        <Point><coordinates>24.41415,61.00914,0</coordinates></Point>
        <styleUrl>#icon-22</styleUrl>
      </Placemark>
      <Placemark>
        <name><![CDATA[Lidl Kirkkonummi - Munkinmäentie 8]]></name>
        <description><![CDATA[Lidl Kirkkonummi - Munkinmäentie 8, Kirkkonummi]]></description>
        <Point><coordinates>24.43646,60.11894,0</coordinates></Point>
        <styleUrl>#icon-22</styleUrl>
      </Placemark>
      <Placemark>
        <name><![CDATA[Lidl Raahe - Fellmaninpuistokatu 15]]></name>
        <description><![CDATA[Lidl Raahe - Fellmaninpuistokatu 15, Raahe]]></description>
        <Point><coordinates>24.47991,64.68319,0</coordinates></Point>
        <styleUrl>#icon-22</styleUrl>
      </Placemark>
      <Placemark>
        <name><![CDATA[Lidl Hämeenlinna - Liikekatu 1]]></name>
        <description><![CDATA[Lidl Hämeenlinna - Liikekatu 1, Hämeenlinna]]></description>
        <Point><coordinates>24.48696,61.00123,0</coordinates></Point>
        <styleUrl>#icon-22</styleUrl>
      </Placemark>
      <Placemark>
        <name><![CDATA[Lidl Ylivieska - Ollilanojankatu 2]]></name>
        <description><![CDATA[Lidl Ylivieska - Ollilanojankatu 2, Ylivieska]]></description>
        <Point><coordinates>24.55976,64.06239,0</coordinates></Point>
        <styleUrl>#icon-22</styleUrl>
      </Placemark>
      <Placemark>
        <name><![CDATA[Lidl Kemi - Täikönkatu 4]]></name>
        <description><![CDATA[Lidl Kemi - Täikönkatu 4, Kemi]]></description>
        <Point><coordinates>24.56669,65.73938,0</coordinates></Point>
        <styleUrl>#icon-22</styleUrl>
      </Placemark>
      <Placemark>
        <name><![CDATA[Lidl Espoo - Kukkaromäki 2]]></name>
        <description><![CDATA[Lidl Espoo - Kukkaromäki 2, Espoo]]></description>
        <Point><coordinates>24.63669,60.20803,0</coordinates></Point>
        <styleUrl>#icon-22</styleUrl>
      </Placemark>
      <Placemark>
        <name><![CDATA[Lidl Turenki - Harvialantie 11]]></name>
        <description><![CDATA[Lidl Turenki - Harvialantie 11, Turenki]]></description>
        <Point><coordinates>24.63972,60.9277,0</coordinates></Point>
        <styleUrl>#icon-22</styleUrl>
      </Placemark>
      <Placemark>
        <name><![CDATA[Lidl Espoo - Espoonlahdenkatu 4]]></name>
        <description><![CDATA[Lidl Espoo - Espoonlahdenkatu 4, Espoo]]></description>
        <Point><coordinates>24.65475,60.14963,0</coordinates></Point>
        <styleUrl>#icon-22</styleUrl>
      </Placemark>
      <Placemark>
        <name><![CDATA[Lidl Espoo - Martinsillantie 10]]></name>
        <description><![CDATA[Lidl Espoo - Martinsillantie 10, Espoo]]></description>
        <Point><coordinates>24.69254,60.1588,0</coordinates></Point>
        <styleUrl>#icon-22</styleUrl>
      </Placemark>
      <Placemark>
        <name><![CDATA[Lidl Keuruu - Tehtaantie 6]]></name>
        <description><![CDATA[Lidl Keuruu - Tehtaantie 6, Keuruu]]></description>
        <Point><coordinates>24.69726,62.26064,0</coordinates></Point>
        <styleUrl>#icon-22</styleUrl>
      </Placemark>
      <Placemark>
        <name><![CDATA[Lidl Klaukkala - Lahnuksentie 2]]></name>
        <description><![CDATA[Lidl Klaukkala - Lahnuksentie 2, Klaukkala]]></description>
        <Point><coordinates>24.76072,60.37283,0</coordinates></Point>
        <styleUrl>#icon-22</styleUrl>
      </Placemark>
      <Placemark>
        <name><![CDATA[Lidl Espoo - Mankkaantie 2-4]]></name>
        <description><![CDATA[Lidl Espoo - Mankkaantie 2-4, Espoo]]></description>
        <Point><coordinates>24.76726,60.1946,0</coordinates></Point>
        <styleUrl>#icon-22</styleUrl>
      </Placemark>
      <Placemark>
        <name><![CDATA[Lidl Espoo - Niittymaantie 2]]></name>
        <description><![CDATA[Lidl Espoo - Niittymaantie 2, Espoo]]></description>
        <Point><coordinates>24.77499,60.17079,0</coordinates></Point>
        <styleUrl>#icon-22</styleUrl>
      </Placemark>
      <Placemark>
        <name><![CDATA[Lidl Espoo - Rastaspuistontie 1]]></name>
        <description><![CDATA[Lidl Espoo - Rastaspuistontie 1, Espoo]]></description>
        <Point><coordinates>24.77746,60.23038,0</coordinates></Point>
        <styleUrl>#icon-22</styleUrl>
      </Placemark>
      <Placemark>
        <name><![CDATA[Lidl Riihimäki - Karankatu 15]]></name>
        <description><![CDATA[Lidl Riihimäki - Karankatu 15, Riihimäki]]></description>
        <Point><coordinates>24.78047,60.74684,0</coordinates></Point>
        <styleUrl>#icon-22</styleUrl>
      </Placemark>
      <Placemark>
        <name><![CDATA[Lidl Espoo - Ratsukatu 3]]></name>
        <description><![CDATA[Lidl Espoo - Ratsukatu 3, Espoo]]></description>
        <Point><coordinates>24.80795,60.21752,0</coordinates></Point>
        <styleUrl>#icon-22</styleUrl>
      </Placemark>
      <Placemark>
        <name><![CDATA[Lidl Helsinki - Ristipellontie 9]]></name>
        <description><![CDATA[Lidl Helsinki - Ristipellontie 9, Helsinki]]></description>
        <Point><coordinates>24.85207,60.23907,0</coordinates></Point>
        <styleUrl>#icon-22</styleUrl>
      </Placemark>
      <Placemark>
        <name><![CDATA[Lidl Hyvinkää - Kauppalankatu 20]]></name>
        <description><![CDATA[Lidl Hyvinkää - Kauppalankatu 20, Hyvinkää]]></description>
        <Point><coordinates>24.8531,60.63676,0</coordinates></Point>
        <styleUrl>#icon-22</styleUrl>
      </Placemark>
      <Placemark>
        <name><![CDATA[Lidl Vantaa - Kivivuorentie 4]]></name>
        <description><![CDATA[Lidl Vantaa - Kivivuorentie 4, Vantaa]]></description>
        <Point><coordinates>24.85392,60.27821,0</coordinates></Point>
        <styleUrl>#icon-22</styleUrl>
      </Placemark>
      <Placemark>
        <name><![CDATA[Lidl Vantaa - Vanha Kaarelantie 33b]]></name>
        <description><![CDATA[Lidl Vantaa - Vanha Kaarelantie 33b, Vantaa]]></description>
        <Point><coordinates>24.87422,60.26129,0</coordinates></Point>
        <styleUrl>#icon-22</styleUrl>
      </Placemark>
      <Placemark>
        <name><![CDATA[Lidl Helsinki - Heikkiläntie 4]]></name>
        <description><![CDATA[Lidl Helsinki - Heikkiläntie 4, Helsinki]]></description>
        <Point><coordinates>24.88033,60.15467,0</coordinates></Point>
        <styleUrl>#icon-22</styleUrl>
      </Placemark>
      <Placemark>
        <name><![CDATA[Lidl Helsinki - Pakilantie 46-48]]></name>
        <description><![CDATA[Lidl Helsinki - Pakilantie 46-48, Helsinki]]></description>
        <Point><coordinates>24.92792,60.23638,0</coordinates></Point>
        <styleUrl>#icon-22</styleUrl>
      </Placemark>
      <Placemark>
        <name><![CDATA[Lidl Helsinki - Kampinkuja 2]]></name>
        <description><![CDATA[Lidl Helsinki - Kampinkuja 2, Helsinki]]></description>
        <Point><coordinates>24.93015,60.16844,0</coordinates></Point>
        <styleUrl>#icon-22</styleUrl>
      </Placemark>
      <Placemark>
        <name><![CDATA[Lidl Helsinki - Ratapihantie 3]]></name>
        <description><![CDATA[Lidl Helsinki - Ratapihantie 3, Helsinki]]></description>
        <Point><coordinates>24.93586,60.19751,0</coordinates></Point>
        <styleUrl>#icon-22</styleUrl>
      </Placemark>
      <Placemark>
        <name><![CDATA[Lidl Helsinki - Hämeentie 33]]></name>
        <description><![CDATA[Lidl Helsinki - Hämeentie 33, Helsinki]]></description>
        <Point><coordinates>24.96348,60.18821,0</coordinates></Point>
        <styleUrl>#icon-22</styleUrl>
      </Placemark>
      <Placemark>
        <name><![CDATA[Lidl Nivala - Toritie 18]]></name>
        <description><![CDATA[Lidl Nivala - Toritie 18, Nivala]]></description>
        <Point><coordinates>24.96549,63.92966,0</coordinates></Point>
        <styleUrl>#icon-22</styleUrl>
      </Placemark>
      <Placemark>
        <name><![CDATA[Lidl Vantaa - Säätökuja 2]]></name>
        <description><![CDATA[Lidl Vantaa - Säätökuja 2, Vantaa]]></description>
        <Point><coordinates>24.96985,60.27426,0</coordinates></Point>
        <styleUrl>#icon-22</styleUrl>
      </Placemark>
      <Placemark>
        <name><![CDATA[Lidl Helsinki - Malmin Kauppatie 18]]></name>
        <description><![CDATA[Lidl Helsinki - Malmin Kauppatie 18, Helsinki]]></description>
        <Point><coordinates>25.01145,60.25198,0</coordinates></Point>
        <styleUrl>#icon-22</styleUrl>
      </Placemark>
      <Placemark>
        <name><![CDATA[Lidl Tuusula - Majavantie 1]]></name>
        <description><![CDATA[Lidl Tuusula - Majavantie 1, Tuusula]]></description>
        <Point><coordinates>25.02298,60.37328,0</coordinates></Point>
        <styleUrl>#icon-22</styleUrl>
      </Placemark>
      <Placemark>
        <name><![CDATA[Lidl Helsinki - Aamuruskontie 1]]></name>
        <description><![CDATA[Lidl Helsinki - Aamuruskontie 1, Helsinki]]></description>
        <Point><coordinates>25.02888,60.28432,0</coordinates></Point>
        <styleUrl>#icon-22</styleUrl>
      </Placemark>
      <Placemark>
        <name><![CDATA[Lidl Helsinki - Linnanrakentajantie 4]]></name>
        <description><![CDATA[Lidl Helsinki - Linnanrakentajantie 4, Helsinki]]></description>
        <Point><coordinates>25.03547,60.19388,0</coordinates></Point>
        <styleUrl>#icon-22</styleUrl>
      </Placemark>
      <Placemark>
        <name><![CDATA[Lidl Vantaa - Viitakuja 1]]></name>
        <description><![CDATA[Lidl Vantaa - Viitakuja 1, Vantaa]]></description>
        <Point><coordinates>25.06176,60.32235,0</coordinates></Point>
        <styleUrl>#icon-22</styleUrl>
      </Placemark>
      <Placemark>
        <name><![CDATA[Lidl Helsinki - Itäkatu 7]]></name>
        <description><![CDATA[Lidl Helsinki - Itäkatu 7, Helsinki]]></description>
        <Point><coordinates>25.08298,60.21117,0</coordinates></Point>
        <styleUrl>#icon-22</styleUrl>
      </Placemark>
      <Placemark>
        <name><![CDATA[Lidl Helsinki - Ostostie 4]]></name>
        <description><![CDATA[Lidl Helsinki - Ostostie 4, Helsinki]]></description>
        <Point><coordinates>25.08344,60.23772,0</coordinates></Point>
        <styleUrl>#icon-22</styleUrl>
      </Placemark>
      <Placemark>
        <name><![CDATA[Lidl Vantaa - Murmelikuja 11]]></name>
        <description><![CDATA[Lidl Vantaa - Murmelikuja 11, Vantaa]]></description>
        <Point><coordinates>25.10583,60.345,0</coordinates></Point>
        <styleUrl>#icon-22</styleUrl>
      </Placemark>
      <Placemark>
        <name><![CDATA[Lidl Kerava - Santaniitynkatu 7]]></name>
        <description><![CDATA[Lidl Kerava - Santaniitynkatu 7, Kerava]]></description>
        <Point><coordinates>25.11108,60.39958,0</coordinates></Point>
        <styleUrl>#icon-22</styleUrl>
      </Placemark>
      <Placemark>
        <name><![CDATA[Lidl Järvenpää - Kinnarinkatu 6]]></name>
        <description><![CDATA[Lidl Järvenpää - Kinnarinkatu 6, Järvenpää]]></description>
        <Point><coordinates>25.112,60.47462,0</coordinates></Point>
        <styleUrl>#icon-22</styleUrl>
      </Placemark>
      <Placemark>
        <name><![CDATA[Lidl Helsinki - Rastilantie 1]]></name>
        <description><![CDATA[Lidl Helsinki - Rastilantie 1, Helsinki]]></description>
        <Point><coordinates>25.13375,60.21399,0</coordinates></Point>
        <styleUrl>#icon-22</styleUrl>
      </Placemark>
      <Placemark>
        <name><![CDATA[Lidl Jämsä - Esankatu 4]]></name>
        <description><![CDATA[Lidl Jämsä - Esankatu 4, Jämsä]]></description>
        <Point><coordinates>25.17775,61.86326,0</coordinates></Point>
        <styleUrl>#icon-22</styleUrl>
      </Placemark>
      <Placemark>
        <name><![CDATA[Lidl Saarijärvi - Jyväskyläntie 31a]]></name>
        <description><![CDATA[Lidl Saarijärvi - Jyväskyläntie 31a, Saarijärvi]]></description>
        <Point><coordinates>25.28924,62.69699,0</coordinates></Point>
        <styleUrl>#icon-22</styleUrl>
      </Placemark>
      <Placemark>
        <name><![CDATA[Lidl Mäntsälä - Töyrynummentie 2]]></name>
        <description><![CDATA[Lidl Mäntsälä - Töyrynummentie 2, Mäntsälä]]></description>
        <Point><coordinates>25.29243,60.62356,0</coordinates></Point>
        <styleUrl>#icon-22</styleUrl>
      </Placemark>
      <Placemark>
        <name><![CDATA[Lidl Haukipudas - Revontie 38]]></name>
        <description><![CDATA[Lidl Haukipudas - Revontie 38, Haukipudas]]></description>
        <Point><coordinates>25.34528,65.16612,0</coordinates></Point>
        <styleUrl>#icon-22</styleUrl>
      </Placemark>
      <Placemark>
        <name><![CDATA[Lidl Oulu - Isokatu 51]]></name>
        <description><![CDATA[Lidl Oulu - Isokatu 51, Oulu]]></description>
        <Point><coordinates>25.46791,65.00847,0</coordinates></Point>
        <styleUrl>#icon-22</styleUrl>
      </Placemark>
      <Placemark>
        <name><![CDATA[Lidl Oulu - Tuirantie 14]]></name>
        <description><![CDATA[Lidl Oulu - Tuirantie 14, Oulu]]></description>
        <Point><coordinates>25.4694,65.02676,0</coordinates></Point>
        <styleUrl>#icon-22</styleUrl>
      </Placemark>
      <Placemark>
        <name><![CDATA[Lidl Oulu - Ruukinkuja 1]]></name>
        <description><![CDATA[Lidl Oulu - Ruukinkuja 1, Oulu]]></description>
        <Point><coordinates>25.51401,64.98598,0</coordinates></Point>
        <styleUrl>#icon-22</styleUrl>
      </Placemark>
      <Placemark>
        <name><![CDATA[Lidl Hollola - Terveystie 49]]></name>
        <description><![CDATA[Lidl Hollola - Terveystie 49, Hollola]]></description>
        <Point><coordinates>25.53418,60.98776,0</coordinates></Point>
        <styleUrl>#icon-22</styleUrl>
      </Placemark>
      <Placemark>
        <name><![CDATA[Lidl Kempele - Myllytie 3]]></name>
        <description><![CDATA[Lidl Kempele - Myllytie 3, Kempele]]></description>
        <Point><coordinates>25.54272,64.90504,0</coordinates></Point>
        <styleUrl>#icon-22</styleUrl>
      </Placemark>
      <Placemark>
        <name><![CDATA[Lidl Oulu - Karttatie 2]]></name>
        <description><![CDATA[Lidl Oulu - Karttatie 2, Oulu]]></description>
        <Point><coordinates>25.54727,65.02506,0</coordinates></Point>
        <styleUrl>#icon-22</styleUrl>
      </Placemark>
      <Placemark>
        <name><![CDATA[Lidl Porvoo - Maistraatinkatu 2]]></name>
        <description><![CDATA[Lidl Porvoo - Maistraatinkatu 2, Porvoo]]></description>
        <Point><coordinates>25.65172,60.39043,0</coordinates></Point>
        <styleUrl>#icon-22</styleUrl>
      </Placemark>
      <Placemark>
        <name><![CDATA[Lidl Lahti - Launeenkatu 86]]></name>
        <description><![CDATA[Lidl Lahti - Launeenkatu 86, Lahti]]></description>
        <Point><coordinates>25.65301,60.95988,0</coordinates></Point>
        <styleUrl>#icon-22</styleUrl>
      </Placemark>
      <Placemark>
        <name><![CDATA[Lidl Lahti - Vapaudenkatu 23]]></name>
        <description><![CDATA[Lidl Lahti - Vapaudenkatu 23, Lahti]]></description>
        <Point><coordinates>25.66564,60.98313,0</coordinates></Point>
        <styleUrl>#icon-22</styleUrl>
      </Placemark>
      <Placemark>
        <name><![CDATA[Lidl Lahti - Kivistönkatu 1]]></name>
        <description><![CDATA[Lidl Lahti - Kivistönkatu 1, Lahti]]></description>
        <Point><coordinates>25.66809,60.99657,0</coordinates></Point>
        <styleUrl>#icon-22</styleUrl>
      </Placemark>
      <Placemark>
        <name><![CDATA[Lidl Porvoo - Asentajantie 5]]></name>
        <description><![CDATA[Lidl Porvoo - Asentajantie 5, Porvoo]]></description>
        <Point><coordinates>25.6878,60.40198,0</coordinates></Point>
        <styleUrl>#icon-22</styleUrl>
      </Placemark>
      <Placemark>
        <name><![CDATA[Lidl Rovaniemi - Oijustie 2]]></name>
        <description><![CDATA[Lidl Rovaniemi - Oijustie 2, Rovaniemi]]></description>
        <Point><coordinates>25.69249,66.49091,0</coordinates></Point>
        <styleUrl>#icon-22</styleUrl>
      </Placemark>
      <Placemark>
        <name><![CDATA[Lidl Jyväskylä - Kylmälahdentie 13]]></name>
        <description><![CDATA[Lidl Jyväskylä - Kylmälahdentie 13, Jyväskylä]]></description>
        <Point><coordinates>25.71887,62.21714,0</coordinates></Point>
        <styleUrl>#icon-22</styleUrl>
      </Placemark>
      <Placemark>
        <name><![CDATA[Lidl Äänekoski - Kuhnamontie 5a]]></name>
        <description><![CDATA[Lidl Äänekoski - Kuhnamontie 5a, Äänekoski]]></description>
        <Point><coordinates>25.7251,62.59888,0</coordinates></Point>
        <styleUrl>#icon-22</styleUrl>
      </Placemark>
      <Placemark>
        <name><![CDATA[Lidl Orimattila - Niementie 1]]></name>
        <description><![CDATA[Lidl Orimattila - Niementie 1, Orimattila]]></description>
        <Point><coordinates>25.72795,60.80604,0</coordinates></Point>
        <styleUrl>#icon-22</styleUrl>
      </Placemark>
      <Placemark>
        <name><![CDATA[Lidl Saarenkylä - Pulkamontie 2]]></name>
        <description><![CDATA[Lidl Saarenkylä - Pulkamontie 2, Saarenkylä]]></description>
        <Point><coordinates>25.75818,66.51745,0</coordinates></Point>
        <styleUrl>#icon-22</styleUrl>
      </Placemark>
      <Placemark>
        <name><![CDATA[Lidl Jyväskylä - Vasarakatu 4]]></name>
        <description><![CDATA[Lidl Jyväskylä - Vasarakatu 4, Jyväskylä]]></description>
        <Point><coordinates>25.77213,62.25419,0</coordinates></Point>
        <styleUrl>#icon-22</styleUrl>
      </Placemark>
      <Placemark>
        <name><![CDATA[Lidl Viitasaari - Haapaniementie 2-4]]></name>
        <description><![CDATA[Lidl Viitasaari - Haapaniementie 2-4, Viitasaari]]></description>
        <Point><coordinates>25.86326,63.07637,0</coordinates></Point>
        <styleUrl>#icon-22</styleUrl>
      </Placemark>
      <Placemark>
        <name><![CDATA[Lidl Laukaa - Vuojärventie 1]]></name>
        <description><![CDATA[Lidl Laukaa - Vuojärventie 1, Laukaa]]></description>
        <Point><coordinates>25.94851,62.41478,0</coordinates></Point>
        <styleUrl>#icon-22</styleUrl>
      </Placemark>
      <Placemark>
        <name><![CDATA[Lidl Nastola - Muurarintie 2]]></name>
        <description><![CDATA[Lidl Nastola - Muurarintie 2, Nastola]]></description>
        <Point><coordinates>25.96108,60.93669,0</coordinates></Point>
        <styleUrl>#icon-22</styleUrl>
      </Placemark>
      <Placemark>
        <name><![CDATA[Lidl Heinola - Siltakatu 21-23]]></name>
        <description><![CDATA[Lidl Heinola - Siltakatu 21-23, Heinola]]></description>
        <Point><coordinates>26.03776,61.20465,0</coordinates></Point>
        <styleUrl>#icon-22</styleUrl>
      </Placemark>
      <Placemark>
        <name><![CDATA[Lidl Loviisa - Porvoonkatu 7]]></name>
        <description><![CDATA[Lidl Loviisa - Porvoonkatu 7, Loviisa]]></description>
        <Point><coordinates>26.20045,60.45672,0</coordinates></Point>
        <styleUrl>#icon-22</styleUrl>
      </Placemark>
      <Placemark>
        <name><![CDATA[Lidl Sodankylä - Lapintie 1]]></name>
        <description><![CDATA[Lidl Sodankylä - Lapintie 1, Sodankylä]]></description>
        <Point><coordinates>26.58725,67.41475,0</coordinates></Point>
        <styleUrl>#icon-22</styleUrl>
      </Placemark>
      <Placemark>
        <name><![CDATA[Lidl Kuusankoski - Sepäntie 2]]></name>
        <description><![CDATA[Lidl Kuusankoski - Sepäntie 2, Kuusankoski]]></description>
        <Point><coordinates>26.60799,60.90442,0</coordinates></Point>
        <styleUrl>#icon-22</styleUrl>
      </Placemark>
      <Placemark>
        <name><![CDATA[Lidl Kouvola - Laturinkatu 1]]></name>
        <description><![CDATA[Lidl Kouvola - Laturinkatu 1, Kouvola]]></description>
        <Point><coordinates>26.67168,60.8683,0</coordinates></Point>
        <styleUrl>#icon-22</styleUrl>
      </Placemark>
      <Placemark>
        <name><![CDATA[Lidl Inkeroinen - Laaksotie 4]]></name>
        <description><![CDATA[Lidl Inkeroinen - Laaksotie 4, Inkeroinen]]></description>
        <Point><coordinates>26.84493,60.69796,0</coordinates></Point>
        <styleUrl>#icon-22</styleUrl>
      </Placemark>
      <Placemark>
        <name><![CDATA[Lidl Kotka - Vesitorninkatu 12]]></name>
        <description><![CDATA[Lidl Kotka - Vesitorninkatu 12, Kotka]]></description>
        <Point><coordinates>26.93491,60.51328,0</coordinates></Point>
        <styleUrl>#icon-22</styleUrl>
      </Placemark>
      <Placemark>
        <name><![CDATA[Lidl Pieksämäki - Keskuskatu 3]]></name>
        <description><![CDATA[Lidl Pieksämäki - Keskuskatu 3, Pieksämäki]]></description>
        <Point><coordinates>27.16073,62.3011,0</coordinates></Point>
        <styleUrl>#icon-22</styleUrl>
      </Placemark>
      <Placemark>
        <name><![CDATA[Lidl Iisalmi - Kilpivirrantie 1]]></name>
        <description><![CDATA[Lidl Iisalmi - Kilpivirrantie 1, Iisalmi]]></description>
        <Point><coordinates>27.18382,63.56971,0</coordinates></Point>
        <styleUrl>#icon-22</styleUrl>
      </Placemark>
      <Placemark>
        <name><![CDATA[Lidl Hamina - Maariankatu 20]]></name>
        <description><![CDATA[Lidl Hamina - Maariankatu 20, Hamina]]></description>
        <Point><coordinates>27.19305,60.56543,0</coordinates></Point>
        <styleUrl>#icon-22</styleUrl>
      </Placemark>
      <Placemark>
        <name><![CDATA[Lidl Mikkeli - Setrikatu 3]]></name>
        <description><![CDATA[Lidl Mikkeli - Setrikatu 3, Mikkeli]]></description>
        <Point><coordinates>27.26976,61.67836,0</coordinates></Point>
        <styleUrl>#icon-22</styleUrl>
      </Placemark>
      <Placemark>
        <name><![CDATA[Lidl Kemijärvi - Kirkkokatu 2-4]]></name>
        <description><![CDATA[Lidl Kemijärvi - Kirkkokatu 2-4, Kemijärvi]]></description>
        <Point><coordinates>27.42784,66.71632,0</coordinates></Point>
        <styleUrl>#icon-22</styleUrl>
      </Placemark>
      <Placemark>
        <name><![CDATA[Lidl Kuopio - Petosentie 4]]></name>
        <description><![CDATA[Lidl Kuopio - Petosentie 4, Kuopio]]></description>
        <Point><coordinates>27.64823,62.83936,0</coordinates></Point>
        <styleUrl>#icon-22</styleUrl>
      </Placemark>
      <Placemark>
        <name><![CDATA[Lidl Siilinjärvi - Kuiluntie 6]]></name>
        <description><![CDATA[Lidl Siilinjärvi - Kuiluntie 6, Siilinjärvi]]></description>
        <Point><coordinates>27.65886,63.0726,0</coordinates></Point>
        <styleUrl>#icon-22</styleUrl>
      </Placemark>
      <Placemark>
        <name><![CDATA[Lidl Kuopio - Sisustajantie 8]]></name>
        <description><![CDATA[Lidl Kuopio - Sisustajantie 8, Kuopio]]></description>
        <Point><coordinates>27.68241,62.90579,0</coordinates></Point>
        <styleUrl>#icon-22</styleUrl>
      </Placemark>
      <Placemark>
        <name><![CDATA[Lidl Kajaani - Sotkamontie 7]]></name>
        <description><![CDATA[Lidl Kajaani - Sotkamontie 7, Kajaani]]></description>
        <Point><coordinates>27.72885,64.22083,0</coordinates></Point>
        <styleUrl>#icon-22</styleUrl>
      </Placemark>
      <Placemark>
        <name><![CDATA[Lidl Leppävirta - Tarhurintie 3]]></name>
        <description><![CDATA[Lidl Leppävirta - Tarhurintie 3, Leppävirta]]></description>
        <Point><coordinates>27.76989,62.49021,0</coordinates></Point>
        <styleUrl>#icon-22</styleUrl>
      </Placemark>
      <Placemark>
        <name><![CDATA[Lidl Varkaus - Kauppakatu 73]]></name>
        <description><![CDATA[Lidl Varkaus - Kauppakatu 73, Varkaus]]></description>
        <Point><coordinates>27.86149,62.31831,0</coordinates></Point>
        <styleUrl>#icon-22</styleUrl>
      </Placemark>
      <Placemark>
        <name><![CDATA[Lidl Lappeenranta - Puhakankatu 1]]></name>
        <description><![CDATA[Lidl Lappeenranta - Puhakankatu 1, Lappeenranta]]></description>
        <Point><coordinates>28.17525,61.05008,0</coordinates></Point>
        <styleUrl>#icon-22</styleUrl>
      </Placemark>
      <Placemark>
        <name><![CDATA[Lidl Lappeenranta - Myllymäenkatu 36]]></name>
        <description><![CDATA[Lidl Lappeenranta - Myllymäenkatu 36, Lappeenranta]]></description>
        <Point><coordinates>28.21782,61.04202,0</coordinates></Point>
        <styleUrl>#icon-22</styleUrl>
      </Placemark>
      <Placemark>
        <name><![CDATA[Lidl Sotkamo - Ratatie 17]]></name>
        <description><![CDATA[Lidl Sotkamo - Ratatie 17, Sotkamo]]></description>
        <Point><coordinates>28.34758,64.13531,0</coordinates></Point>
        <styleUrl>#icon-22</styleUrl>
      </Placemark>
      <Placemark>
        <name><![CDATA[Lidl Imatra - Tietäjänkatu 1]]></name>
        <description><![CDATA[Lidl Imatra - Tietäjänkatu 1, Imatra]]></description>
        <Point><coordinates>28.76943,61.18786,0</coordinates></Point>
        <styleUrl>#icon-22</styleUrl>
      </Placemark>
      <Placemark>
        <name><![CDATA[Lidl Imatra - Valvatinkatu 8]]></name>
        <description><![CDATA[Lidl Imatra - Valvatinkatu 8, Imatra]]></description>
        <Point><coordinates>28.84053,61.2247,0</coordinates></Point>
        <styleUrl>#icon-22</styleUrl>
      </Placemark>
      <Placemark>
        <name><![CDATA[Lidl Savonlinna - Ilokallionkatu 4]]></name>
        <description><![CDATA[Lidl Savonlinna - Ilokallionkatu 4, Savonlinna]]></description>
        <Point><coordinates>28.92255,61.86979,0</coordinates></Point>
        <styleUrl>#icon-22</styleUrl>
      </Placemark>
      <Placemark>
        <name><![CDATA[Lidl Kuusamo - Airotie 13]]></name>
        <description><![CDATA[Lidl Kuusamo - Airotie 13, Kuusamo]]></description>
        <Point><coordinates>29.16284,65.95821,0</coordinates></Point>
        <styleUrl>#icon-22</styleUrl>
      </Placemark>
      <Placemark>
        <name><![CDATA[Lidl Joensuu - Kuurnankatu 3a]]></name>
        <description><![CDATA[Lidl Joensuu - Kuurnankatu 3a, Joensuu]]></description>
        <Point><coordinates>29.7712,62.61856,0</coordinates></Point>
        <styleUrl>#icon-22</styleUrl>
      </Placemark>
      <Placemark>
        <name><![CDATA[Lidl Lieksa - Mönninkatu 2]]></name>
        <description><![CDATA[Lidl Lieksa - Mönninkatu 2, Lieksa]]></description>
        <Point><coordinates>30.02468,63.31756,0</coordinates></Point>
        <styleUrl>#icon-22</styleUrl>
      </Placemark>
    </Folder>
  </Document>
</kml>