<?xml version="1.0" encoding="UTF-8"?>
<kml xmlns="http://www.opengis.net/kml/2.2">
  <Document>
    <name><![CDATA[Normal]]></name>
    <description/>
    <Style id="icon-22-normal"><IconStyle><scale>1.1</scale><Icon><href>https://www.gstatic.com/mapspro/images/stock/22-blue-dot.png</href></Icon><hotSpot x="16" xunits="pixels" y="32" yunits="insetPixels"/></IconStyle><LabelStyle><scale>0</scale></LabelStyle></Style>
    <Style id="icon-22-highlight"><IconStyle><scale>1.1</scale><Icon><href>https://www.gstatic.com/mapspro/images/stock/22-blue-dot.png</href></Icon><hotSpot x="16" xunits="pixels" y="32" yunits="insetPixels"/></IconStyle><LabelStyle><scale>1.1</scale></LabelStyle></Style>
    <StyleMap id="icon-22"><Pair><key>normal</key><styleUrl>#icon-22-normal</styleUrl></Pair><Pair><key>highlight</key><styleUrl>#icon-22-highlight</styleUrl></Pair></StyleMap>
    <Folder>
      <name><![CDATA[Normal]]></name>
      <Placemark>
        <name><![CDATA[Normal - Torp Köpcentrum]]></name>
        <description><![CDATA[Normal - Torp Köpcentrum, Uddevalla]]></description>
        <Point><coordinates>11.810418,58.3539,0</coordinates></Point>
        <styleUrl>#icon-22</styleUrl>
      </Placemark>
      <Placemark>
        <name><![CDATA[Normal - Töcksfors Shopping Center]]></name>
        <description><![CDATA[Normal - Töcksfors Shopping Center, Töcksfors]]></description>
        <Point><coordinates>11.845,59.5065,0</coordinates></Point>
        <styleUrl>#icon-22</styleUrl>
      </Placemark>
      <Placemark>
        <name><![CDATA[Normal - Frölunda Torg]]></name>
        <description><![CDATA[Normal - Frölunda Torg, Västra Frölunda]]></description>
        <Point><coordinates>11.9096,57.652,0</coordinates></Point>
        <styleUrl>#icon-22</styleUrl>
      </Placemark>
      <Placemark>
        <name><![CDATA[Normal - Kongahälla Shopping]]></name>
        <description><![CDATA[Normal - Kongahälla Shopping, Kungälv]]></description>
        <Point><coordinates>11.968544,57.873764,0</coordinates></Point>
        <styleUrl>#icon-22</styleUrl>
      </Placemark>
      <Placemark>
        <name><![CDATA[Normal - Nordstan]]></name>
        <description><![CDATA[Normal - Nordstan, Göteborg]]></description>
        <Point><coordinates>11.969153,57.708726,0</coordinates></Point>
        <styleUrl>#icon-22</styleUrl>
      </Placemark>
      <Placemark>
        <name><![CDATA[Normal - Mölndal Galleria]]></name>
        <description><![CDATA[Normal - Mölndal Galleria, Mölndal]]></description>
        <Point><coordinates>12.014702,57.655206,0</coordinates></Point>
        <styleUrl>#icon-22</styleUrl>
      </Placemark>
      <Placemark>
        <name><![CDATA[Normal - Kungsmässan]]></name>
        <description><![CDATA[Normal - Kungsmässan, Kungsbacka]]></description>
        <Point><coordinates>12.073941,57.491398,0</coordinates></Point>
        <styleUrl>#icon-22</styleUrl>
      </Placemark>
      <Placemark>
        <name><![CDATA[Normal - Allum]]></name>
        <description><![CDATA[Normal - Allum, Partille]]></description>
        <Point><coordinates>12.106112,57.739274,0</coordinates></Point>
        <styleUrl>#icon-22</styleUrl>
      </Placemark>
      <Placemark>
        <name><![CDATA[Normal - Charlottenberg Shoppingcenter]]></name>
        <description><![CDATA[Normal - Charlottenberg Shoppingcenter, Charlottenberg]]></description>
        <Point><coordinates>12.29063,59.881115,0</coordinates></Point>
        <styleUrl>#icon-22</styleUrl>
      </Placemark>
      <Placemark>
        <name><![CDATA[Normal - Etage Galleria]]></name>
        <description><![CDATA[Normal - Etage Galleria, Trollhättan]]></description>
        <Point><coordinates>12.308698,58.312379,0</coordinates></Point>
        <styleUrl>#icon-22</styleUrl>
      </Placemark>
      <Placemark>
        <name><![CDATA[Normal - Storken]]></name>
        <description><![CDATA[Normal - Storken, Alingsås]]></description>
        <Point><coordinates>12.535695,57.929998,0</coordinates></Point>
        <styleUrl>#icon-22</styleUrl>
      </Placemark>
      <Placemark>
        <name><![CDATA[Normal - Stenbocken]]></name>
        <description><![CDATA[Normal - Stenbocken, Helsingborg]]></description>
        <Point><coordinates>12.69386,56.048015,0</coordinates></Point>
        <styleUrl>#icon-22</styleUrl>
      </Placemark>
      <Placemark>
        <name><![CDATA[Normal - Söder Galleria]]></name>
        <description><![CDATA[Normal - Söder Galleria, Helsingborg]]></description>
        <Point><coordinates>12.701388,56.04047,0</coordinates></Point>
        <styleUrl>#icon-22</styleUrl>
      </Placemark>
      <Placemark>
        <name><![CDATA[Normal - Väla]]></name>
        <description><![CDATA[Normal - Väla, Ödåkra-Väla]]></description>
        <Point><coordinates>12.757149,56.091244,0</coordinates></Point>
        <styleUrl>#icon-22</styleUrl>
      </Placemark>
      <Placemark>
        <name><![CDATA[Normal - Storgatan]]></name>
        <description><![CDATA[Normal - Storgatan, Halmstad]]></description>
        <Point><coordinates>12.859165,56.674744,0</coordinates></Point>
        <styleUrl>#icon-22</styleUrl>
      </Placemark>
      <Placemark>
        <name><![CDATA[Normal - Hallarna Köpcentrum]]></name>
        <description><![CDATA[Normal - Hallarna Köpcentrum, Halmstad]]></description>
        <Point><coordinates>12.908367,56.656271,0</coordinates></Point>
        <styleUrl>#icon-22</styleUrl>
      </Placemark>
      <Placemark>
        <name><![CDATA[Normal - Pallas Shopping]]></name>
        <description><![CDATA[Normal - Pallas Shopping, Borås]]></description>
        <Point><coordinates>12.937962,57.720018,0</coordinates></Point>
        <styleUrl>#icon-22</styleUrl>
      </Placemark>
      <Placemark>
        <name><![CDATA[Normal - Emporia]]></name>
        <description><![CDATA[Normal - Emporia, Malmö]]></description>
        <Point><coordinates>12.973394,55.564452,0</coordinates></Point>
        <styleUrl>#icon-22</styleUrl>
      </Placemark>
      <Placemark>
        <name><![CDATA[Normal - Södergatan]]></name>
        <description><![CDATA[Normal - Södergatan, Malmö]]></description>
        <Point><coordinates>13.001362,55.604405,0</coordinates></Point>
        <styleUrl>#icon-22</styleUrl>
      </Placemark>
      <Placemark>
        <name><![CDATA[Normal - Triangeln]]></name>
        <description><![CDATA[Normal - Triangeln, Malmö]]></description>
        <Point><coordinates>13.002807,55.595237,0</coordinates></Point>
        <styleUrl>#icon-22</styleUrl>
      </Placemark>
      <Placemark>
        <name><![CDATA[Normal - Mobilia]]></name>
        <description><![CDATA[Normal - Mobilia, Malmö]]></description>
        <Point><coordinates>13.003988,55.580456,0</coordinates></Point>
        <styleUrl>#icon-22</styleUrl>
      </Placemark>
      <Placemark>
        <name><![CDATA[Normal - Jägersro Center]]></name>
        <description><![CDATA[Normal - Jägersro Center, Malmö]]></description>
        <Point><coordinates>13.058652,55.570116,0</coordinates></Point>
        <styleUrl>#icon-22</styleUrl>
      </Placemark>
      <Placemark>
        <name><![CDATA[Normal - Burlöv Center]]></name>
        <description><![CDATA[Normal - Burlöv Center, Arlöv]]></description>
        <Point><coordinates>13.084284,55.639942,0</coordinates></Point>
        <styleUrl>#icon-22</styleUrl>
      </Placemark>
      <Placemark>
        <name><![CDATA[Normal - Valengallerian]]></name>
        <description><![CDATA[Normal - Valengallerian, Trelleborg]]></description>
        <Point><coordinates>13.157999,55.374282,0</coordinates></Point>
        <styleUrl>#icon-22</styleUrl>
      </Placemark>
      <Placemark>
        <name><![CDATA[Normal - Nova Lund]]></name>
        <description><![CDATA[Normal - Nova Lund, Lund]]></description>
        <Point><coordinates>13.15998,55.713946,0</coordinates></Point>
        <styleUrl>#icon-22</styleUrl>
      </Placemark>
      <Placemark>
        <name><![CDATA[Normal - Bergvik Köpcenter]]></name>
        <description><![CDATA[Normal - Bergvik Köpcenter, Karlstad]]></description>
        <Point><coordinates>13.426,59.377,0</coordinates></Point>
        <styleUrl>#icon-22</styleUrl>
      </Placemark>
      <Placemark>
        <name><![CDATA[Normal - Drottninggatan]]></name>
        <description><![CDATA[Normal - Drottninggatan, Karlstad]]></description>
        <Point><coordinates>13.502914,59.379105,0</coordinates></Point>
        <styleUrl>#icon-22</styleUrl>
      </Placemark>
      <Placemark>
        <name><![CDATA[Normal - Stora Östergatan]]></name>
        <description><![CDATA[Normal - Stora Östergatan, Ystad]]></description>
        <Point><coordinates>13.822546,55.430386,0</coordinates></Point>
        <styleUrl>#icon-22</styleUrl>
      </Placemark>
      <Placemark>
        <name><![CDATA[Normal - Storgatan]]></name>
        <description><![CDATA[Normal - Storgatan, Skövde]]></description>
        <Point><coordinates>13.844652,58.389567,0</coordinates></Point>
        <styleUrl>#icon-22</styleUrl>
      </Placemark>
      <Placemark>
        <name><![CDATA[Normal - Galleria Boulevard]]></name>
        <description><![CDATA[Normal - Galleria Boulevard, Kristianstad]]></description>
        <Point><coordinates>14.159667,56.029348,0</coordinates></Point>
        <styleUrl>#icon-22</styleUrl>
      </Placemark>
      <Placemark>
        <name><![CDATA[Normal - Östra Storgatan]]></name>
        <description><![CDATA[Normal - Östra Storgatan, Jönköping]]></description>
        <Point><coordinates>14.173,57.782,0</coordinates></Point>
        <styleUrl>#icon-22</styleUrl>
      </Placemark>
      <Placemark>
        <name><![CDATA[Normal - C4 shopping]]></name>
        <description><![CDATA[Normal - C4 shopping, Kristianstad]]></description>
        <Point><coordinates>14.205517,56.02839,0</coordinates></Point>
        <styleUrl>#icon-22</styleUrl>
      </Placemark>
      <Placemark>
        <name><![CDATA[Normal - Prästgatan]]></name>
        <description><![CDATA[Normal - Prästgatan, Östersund]]></description>
        <Point><coordinates>14.636985,63.178461,0</coordinates></Point>
        <styleUrl>#icon-22</styleUrl>
      </Placemark>
      <Placemark>
        <name><![CDATA[Normal - Grand Samarkand]]></name>
        <description><![CDATA[Normal - Grand Samarkand, Växjö]]></description>
        <Point><coordinates>14.76642,56.884553,0</coordinates></Point>
        <styleUrl>#icon-22</styleUrl>
      </Placemark>
      <Placemark>
        <name><![CDATA[Normal - Storgatan]]></name>
        <description><![CDATA[Normal - Storgatan, Växjö]]></description>
        <Point><coordinates>14.806605,56.878684,0</coordinates></Point>
        <styleUrl>#icon-22</styleUrl>
      </Placemark>
      <Placemark>
        <name><![CDATA[Normal - Marieberg Galleria]]></name>
        <description><![CDATA[Normal - Marieberg Galleria, Örebro]]></description>
        <Point><coordinates>15.137682,59.217282,0</coordinates></Point>
        <styleUrl>#icon-22</styleUrl>
      </Placemark>
      <Placemark>
        <name><![CDATA[Normal - Krämaren]]></name>
        <description><![CDATA[Normal - Krämaren, Örebro]]></description>
        <Point><coordinates>15.2098,59.26948,0</coordinates></Point>
        <styleUrl>#icon-22</styleUrl>
      </Placemark>
      <Placemark>
        <name><![CDATA[Normal - Kupolen]]></name>
        <description><![CDATA[Normal - Kupolen, Borlänge]]></description>
        <Point><coordinates>15.418436,60.484466,0</coordinates></Point>
        <styleUrl>#icon-22</styleUrl>
      </Placemark>
      <Placemark>
        <name><![CDATA[Normal - Tanneforsgatan]]></name>
        <description><![CDATA[Normal - Tanneforsgatan, Linköping]]></description>
        <Point><coordinates>15.623467,58.410309,0</coordinates></Point>
        <styleUrl>#icon-22</styleUrl>
      </Placemark>
      <Placemark>
        <name><![CDATA[Normal - Falan Galleria]]></name>
        <description><![CDATA[Normal - Falan Galleria, Falun]]></description>
        <Point><coordinates>15.62964,60.606862,0</coordinates></Point>
        <styleUrl>#icon-22</styleUrl>
      </Placemark>
      <Placemark>
        <name><![CDATA[Normal - Mirum Galleria]]></name>
        <description><![CDATA[Normal - Mirum Galleria, Norrköping]]></description>
        <Point><coordinates>16.20959,58.573399,0</coordinates></Point>
        <styleUrl>#icon-22</styleUrl>
      </Placemark>
      <Placemark>
        <name><![CDATA[Normal - Kvarteret Giraffen]]></name>
        <description><![CDATA[Normal - Kvarteret Giraffen, Kalmar]]></description>
        <Point><coordinates>16.337721,56.670515,0</coordinates></Point>
        <styleUrl>#icon-22</styleUrl>
      </Placemark>
      <Placemark>
        <name><![CDATA[Normal - Baronen]]></name>
        <description><![CDATA[Normal - Baronen, Kalmar]]></description>
        <Point><coordinates>16.365096,56.661095,0</coordinates></Point>
        <styleUrl>#icon-22</styleUrl>
      </Placemark>
      <Placemark>
        <name><![CDATA[Normal - Erikslund Shopping Center]]></name>
        <description><![CDATA[Normal - Erikslund Shopping Center, Västerås]]></description>
        <Point><coordinates>16.45479,59.608845,0</coordinates></Point>
        <styleUrl>#icon-22</styleUrl>
      </Placemark>
      <Placemark>
        <name><![CDATA[Normal - Cityhuset]]></name>
        <description><![CDATA[Normal - Cityhuset, Eskilstuna]]></description>
        <Point><coordinates>16.510014,59.371826,0</coordinates></Point>
        <styleUrl>#icon-22</styleUrl>
      </Placemark>
      <Placemark>
        <name><![CDATA[Normal - Vasagatan]]></name>
        <description><![CDATA[Normal - Vasagatan, Västerås]]></description>
        <Point><coordinates>16.545345,59.610506,0</coordinates></Point>
        <styleUrl>#icon-22</styleUrl>
      </Placemark>
      <Placemark>
        <name><![CDATA[Normal - Valbo Köpcentrum]]></name>
        <description><![CDATA[Normal - Valbo Köpcentrum, Valbo]]></description>
        <Point><coordinates>17.008251,60.643031,0</coordinates></Point>
        <styleUrl>#icon-22</styleUrl>
      </Placemark>
      <Placemark>
        <name><![CDATA[Normal - Birsta City]]></name>
        <description><![CDATA[Normal - Birsta City, Sundsvall]]></description>
        <Point><coordinates>17.33233,62.44706,0</coordinates></Point>
        <styleUrl>#icon-22</styleUrl>
      </Placemark>
      <Placemark>
        <name><![CDATA[Normal - Södertälje Telgehuset]]></name>
        <description><![CDATA[Normal - Södertälje Telgehuset, Södertälje]]></description>
        <Point><coordinates>17.627283,59.195583,0</coordinates></Point>
        <styleUrl>#icon-22</styleUrl>
      </Placemark>
      <Placemark>
        <name><![CDATA[Normal - S:t Per Gallerian]]></name>
        <description><![CDATA[Normal - S:t Per Gallerian, Uppsala]]></description>
        <Point><coordinates>17.637516,59.860139,0</coordinates></Point>
        <styleUrl>#icon-22</styleUrl>
      </Placemark>
      <Placemark>
        <name><![CDATA[Normal - Gränbystaden]]></name>
        <description><![CDATA[Normal - Gränbystaden, Uppsala]]></description>
        <Point><coordinates>17.674116,59.877256,0</coordinates></Point>
        <styleUrl>#icon-22</styleUrl>
      </Placemark>
      <Placemark>
        <name><![CDATA[Normal - Jakobsberg Centrum]]></name>
        <description><![CDATA[Normal - Jakobsberg Centrum, Järfälla]]></description>
        <Point><coordinates>17.836933,59.423662,0</coordinates></Point>
        <styleUrl>#icon-22</styleUrl>
      </Placemark>
      <Placemark>
        <name><![CDATA[Normal - Vällingby Centrum]]></name>
        <description><![CDATA[Normal - Vällingby Centrum, Vällingby]]></description>
        <Point><coordinates>17.871634,59.365964,0</coordinates></Point>
        <styleUrl>#icon-22</styleUrl>
      </Placemark>
      <Placemark>
        <name><![CDATA[Normal - Skärholmen Centrum]]></name>
        <description><![CDATA[Normal - Skärholmen Centrum, Skärholmen]]></description>
        <Point><coordinates>17.90819,59.274339,0</coordinates></Point>
        <styleUrl>#icon-22</styleUrl>
      </Placemark>
      <Placemark>
        <name><![CDATA[Normal - Väsby Centrum]]></name>
        <description><![CDATA[Normal - Väsby Centrum, Upplands Väsby]]></description>
        <Point><coordinates>17.913884,59.518524,0</coordinates></Point>
        <styleUrl>#icon-22</styleUrl>
      </Placemark>
      <Placemark>
        <name><![CDATA[Normal - Kungens Kurva]]></name>
        <description><![CDATA[Normal - Kungens Kurva, Kungens Kurva]]></description>
        <Point><coordinates>17.917192,59.269672,0</coordinates></Point>
        <styleUrl>#icon-22</styleUrl>
      </Placemark>
      <Placemark>
        <name><![CDATA[Normal - Kista Galleria]]></name>
        <description><![CDATA[Normal - Kista Galleria, Kista]]></description>
        <Point><coordinates>17.945734,59.40231,0</coordinates></Point>
        <styleUrl>#icon-22</styleUrl>
      </Placemark>
      <Placemark>
        <name><![CDATA[Normal - Sollentuna Centrum]]></name>
        <description><![CDATA[Normal - Sollentuna Centrum, Sollentuna]]></description>
        <Point><coordinates>17.951204,59.428219,0</coordinates></Point>
        <styleUrl>#icon-22</styleUrl>
      </Placemark>
      <Placemark>
        <name><![CDATA[Normal - Solna Centrum]]></name>
        <description><![CDATA[Normal - Solna Centrum, Solna]]></description>
        <Point><coordinates>18.000211,59.36002,0</coordinates></Point>
        <styleUrl>#icon-22</styleUrl>
      </Placemark>
      <Placemark>
        <name><![CDATA[Normal - Liljeholmstorget Galleria]]></name>
        <description><![CDATA[Normal - Liljeholmstorget Galleria, Stockholm]]></description>
        <Point><coordinates>18.022328,59.309318,0</coordinates></Point>
        <styleUrl>#icon-22</styleUrl>
      </Placemark>
      <Placemark>
        <name><![CDATA[Normal - Sveavägen]]></name>
        <description><![CDATA[Normal - Sveavägen, Stockholm]]></description>
        <Point><coordinates>18.059723,59.340057,0</coordinates></Point>
        <styleUrl>#icon-22</styleUrl>
      </Placemark>
      <Placemark>
        <name><![CDATA[Normal - Klarabergsgatan]]></name>
        <description><![CDATA[Normal - Klarabergsgatan, Stockholm]]></description>
        <Point><coordinates>18.060097,59.3318,0</coordinates></Point>
        <styleUrl>#icon-22</styleUrl>
      </Placemark>
      <Placemark>
        <name><![CDATA[Normal - Drottninggatan]]></name>
        <description><![CDATA[Normal - Drottninggatan, Stockholm]]></description>
        <Point><coordinates>18.063069,59.331866,0</coordinates></Point>
        <styleUrl>#icon-22</styleUrl>
      </Placemark>
      <Placemark>
        <name><![CDATA[Normal - Gallerian]]></name>
        <description><![CDATA[Normal - Gallerian, Stockholm]]></description>
        <Point><coordinates>18.067457,59.331324,0</coordinates></Point>
        <styleUrl>#icon-22</styleUrl>
      </Placemark>
      <Placemark>
        <name><![CDATA[Normal - Götgatan]]></name>
        <description><![CDATA[Normal - Götgatan, Stockholm]]></description>
        <Point><coordinates>18.071253,59.318233,0</coordinates></Point>
        <styleUrl>#icon-22</styleUrl>
      </Placemark>
      <Placemark>
        <name><![CDATA[Normal - Täby Centrum]]></name>
        <description><![CDATA[Normal - Täby Centrum, Täby]]></description>
        <Point><coordinates>18.071898,59.445307,0</coordinates></Point>
        <styleUrl>#icon-22</styleUrl>
      </Placemark>
      <Placemark>
        <name><![CDATA[Normal - Fältöversten]]></name>
        <description><![CDATA[Normal - Fältöversten, Stockholm]]></description>
        <Point><coordinates>18.091386,59.339648,0</coordinates></Point>
        <styleUrl>#icon-22</styleUrl>
      </Placemark>
      <Placemark>
        <name><![CDATA[Normal - Farsta Centrum]]></name>
        <description><![CDATA[Normal - Farsta Centrum, Farsta]]></description>
        <Point><coordinates>18.092491,59.243937,0</coordinates></Point>
        <styleUrl>#icon-22</styleUrl>
      </Placemark>
      <Placemark>
        <name><![CDATA[Normal - Sickla Galleria]]></name>
        <description><![CDATA[Normal - Sickla Galleria, Nacka]]></description>
        <Point><coordinates>18.123253,59.305256,0</coordinates></Point>
        <styleUrl>#icon-22</styleUrl>
      </Placemark>
      <Placemark>
        <name><![CDATA[Normal - Haninge Centrum]]></name>
        <description><![CDATA[Normal - Haninge Centrum, Handen]]></description>
        <Point><coordinates>18.140055,59.169186,0</coordinates></Point>
        <styleUrl>#icon-22</styleUrl>
      </Placemark>
      <Placemark>
        <name><![CDATA[Normal - Nacka Forum]]></name>
        <description><![CDATA[Normal - Nacka Forum, Nacka]]></description>
        <Point><coordinates>18.165112,59.310144,0</coordinates></Point>
        <styleUrl>#icon-22</styleUrl>
      </Placemark>
      <Placemark>
        <name><![CDATA[Normal - Tyresö Centrum]]></name>
        <description><![CDATA[Normal - Tyresö Centrum, Tyresö]]></description>
        <Point><coordinates>18.30146,59.2367,0</coordinates></Point>
        <styleUrl>#icon-22</styleUrl>
      </Placemark>
      <Placemark>
        <name><![CDATA[Normal - Avion Shopping]]></name>
        <description><![CDATA[Normal - Avion Shopping, Umeå]]></description>
        <Point><coordinates>20.253885,63.806797,0</coordinates></Point>
        <styleUrl>#icon-22</styleUrl>
      </Placemark>
      <Placemark>
        <name><![CDATA[Normal - Citykompaniet]]></name>
        <description><![CDATA[Normal - Citykompaniet, Skellefteå]]></description>
        <Point><coordinates>20.954727,64.749749,0</coordinates></Point>
        <styleUrl>#icon-22</styleUrl>
      </Placemark>
      <Placemark>
        <name><![CDATA[Normal - Smedjan Galleria]]></name>
        <description><![CDATA[Normal - Smedjan Galleria, Luleå]]></description>
        <Point><coordinates>22.15287,65.58398,0</coordinates></Point>
        <styleUrl>#icon-22</styleUrl>
      </Placemark>
    </Folder>
  </Document>
</kml>