<?xml version="1.0" encoding="UTF-8"?>
<kml xmlns="http://www.opengis.net/kml/2.2">
  <Document>
    <name>Polarn O. Pyret</name>
    <description/>
    <Style id="icon-22-normal">
      <IconStyle>
        <scale>1.1</scale>
        <Icon>
          <href>https://www.gstatic.com/mapspro/images/stock/22-blue-dot.png</href>
        </Icon>
        <hotSpot x="16" xunits="pixels" y="32" yunits="insetPixels"/>
      </IconStyle>
      <LabelStyle>
        <scale>0</scale>
      </LabelStyle>
    </Style>
    <Style id="icon-22-highlight">
      <IconStyle>
        <scale>1.1</scale>
        <Icon>
          <href>https://www.gstatic.com/mapspro/images/stock/22-blue-dot.png</href>
        </Icon>
        <hotSpot x="16" xunits="pixels" y="32" yunits="insetPixels"/>
      </IconStyle>
      <LabelStyle>
        <scale>1.1</scale>
      </LabelStyle>
    </Style>
    <StyleMap id="icon-22">
      <Pair>
        <key>normal</key>
        <styleUrl>#icon-22-normal</styleUrl>
      </Pair>
      <Pair>
        <key>highlight</key>
        <styleUrl>#icon-22-highlight</styleUrl>
      </Pair>
    </StyleMap>
    <Folder>
      <name><![CDATA[Polarn O. Pyret]]></name>
      <Placemark>
        <name><![CDATA[Polarn O. Pyret Västra Frölunda]]></name>
        <description>Polarn O. Pyret Västra Frölunda, Västra Frölunda</description>
        <styleUrl>#icon-22</styleUrl>
        <Point><coordinates>11.910537,57.650886,0</coordinates></Point>
      </Placemark>
      <Placemark>
        <name><![CDATA[Polarn O. Pyret Vallgatan]]></name>
        <description>Polarn O. Pyret Vallgatan, Göteborg</description>
        <styleUrl>#icon-22</styleUrl>
        <Point><coordinates>11.964856,57.703684,0</coordinates></Point>
      </Placemark>
      <Placemark>
        <name><![CDATA[Polarn O. Pyret Femman]]></name>
        <description>Polarn O. Pyret Femman, Göteborg</description>
        <styleUrl>#icon-22</styleUrl>
        <Point><coordinates>11.969497,57.70846,0</coordinates></Point>
      </Placemark>
      <Placemark>
        <name><![CDATA[Polarn O. Pyret Varberg]]></name>
        <description>Polarn O. Pyret Varberg, Varberg</description>
        <styleUrl>#icon-22</styleUrl>
        <Point><coordinates>12.252092,57.105654,0</coordinates></Point>
      </Placemark>
      <Placemark>
        <name><![CDATA[Polarn O. Pyret Trollhättan]]></name>
        <description>Polarn O. Pyret Trollhättan, Trollhättan</description>
        <styleUrl>#icon-22</styleUrl>
        <Point><coordinates>12.308697,58.312379,0</coordinates></Point>
      </Placemark>
      <Placemark>
        <name><![CDATA[Polarn O. Pyret Väla]]></name>
        <description>Polarn O. Pyret Väla, Ödåkra</description>
        <styleUrl>#icon-22</styleUrl>
        <Point><coordinates>12.756816,56.092055,0</coordinates></Point>
      </Placemark>
      <Placemark>
        <name><![CDATA[Polarn O. Pyret Emporia]]></name>
        <description>Polarn O. Pyret Emporia, Malmö</description>
        <styleUrl>#icon-22</styleUrl>
        <Point><coordinates>12.972771,55.563308,0</coordinates></Point>
      </Placemark>
      <Placemark>
        <name><![CDATA[Polarn O. Pyret Triangeln]]></name>
        <description>Polarn O. Pyret Triangeln, Malmö</description>
        <styleUrl>#icon-22</styleUrl>
        <Point><coordinates>13.002758,55.594727,0</coordinates></Point>
      </Placemark>
      <Placemark>
        <name><![CDATA[Polarn O. Pyret Nova Lund]]></name>
        <description>Polarn O. Pyret Nova Lund, Lund</description>
        <styleUrl>#icon-22</styleUrl>
        <Point><coordinates>13.159907,55.713922,0</coordinates></Point>
      </Placemark>
      <Placemark>
        <name><![CDATA[Polarn O. Pyret Lund]]></name>
        <description>Polarn O. Pyret Lund, Lund</description>
        <styleUrl>#icon-22</styleUrl>
        <Point><coordinates>13.19166,55.704015,0</coordinates></Point>
      </Placemark>
      <Placemark>
        <name><![CDATA[Polarn O. Pyret Bergvik]]></name>
        <description>Polarn O. Pyret Bergvik, Karlstad</description>
        <styleUrl>#icon-22</styleUrl>
        <Point><coordinates>13.427018,59.375947,0</coordinates></Point>
      </Placemark>
      <Placemark>
        <name><![CDATA[Polarn O. Pyret Skövde]]></name>
        <description>Polarn O. Pyret Skövde, Skövde</description>
        <styleUrl>#icon-22</styleUrl>
        <Point><coordinates>13.844033,58.389478,0</coordinates></Point>
      </Placemark>
      <Placemark>
        <name><![CDATA[Polarn O. Pyret Kristianstad]]></name>
        <description>Polarn O. Pyret Kristianstad, Kristianstad</description>
        <styleUrl>#icon-22</styleUrl>
        <Point><coordinates>14.156241,56.02909,0</coordinates></Point>
      </Placemark>
      <Placemark>
        <name><![CDATA[Polarn O. Pyret A6]]></name>
        <description>Polarn O. Pyret A6, Jönköping</description>
        <styleUrl>#icon-22</styleUrl>
        <Point><coordinates>14.202253,57.773382,0</coordinates></Point>
      </Placemark>
      <Placemark>
        <name><![CDATA[Polarn O. Pyret Östersund]]></name>
        <description>Polarn O. Pyret Östersund, Östersund</description>
        <styleUrl>#icon-22</styleUrl>
        <Point><coordinates>14.635788,63.17884,0</coordinates></Point>
      </Placemark>
      <Placemark>
        <name><![CDATA[Polarn O. Pyret Samarkand]]></name>
        <description>Polarn O. Pyret Samarkand, Samarkand, Växjö</description>
        <styleUrl>#icon-22</styleUrl>
        <Point><coordinates>14.766961,56.884678,0</coordinates></Point>
      </Placemark>
      <Placemark>
        <name><![CDATA[Polarn O. Pyret Örebro]]></name>
        <description>Polarn O. Pyret Örebro, Örebro</description>
        <styleUrl>#icon-22</styleUrl>
        <Point><coordinates>15.212278,59.270703,0</coordinates></Point>
      </Placemark>
      <Placemark>
        <name><![CDATA[Polarn O. Pyret Karlskrona]]></name>
        <description>Polarn O. Pyret Karlskrona, Karlskrona</description>
        <styleUrl>#icon-22</styleUrl>
        <Point><coordinates>15.587169,56.162366,0</coordinates></Point>
      </Placemark>
      <Placemark>
        <name><![CDATA[Polarn O. Pyret Gränden]]></name>
        <description>Polarn O. Pyret Gränden, Linköping</description>
        <styleUrl>#icon-22</styleUrl>
        <Point><coordinates>15.626587,58.410058,0</coordinates></Point>
      </Placemark>
      <Placemark>
        <name><![CDATA[Polarn O. Pyret Kalmar]]></name>
        <description>Polarn O. Pyret Kalmar, Kalmar</description>
        <styleUrl>#icon-22</styleUrl>
        <Point><coordinates>16.363883,56.66272,0</coordinates></Point>
      </Placemark>
      <Placemark>
        <name><![CDATA[Polarn O. Pyret Erikslund]]></name>
        <description>Polarn O. Pyret Erikslund, Västerås</description>
        <styleUrl>#icon-22</styleUrl>
        <Point><coordinates>16.454807,59.609976,0</coordinates></Point>
      </Placemark>
      <Placemark>
        <name><![CDATA[Polarn O. Pyret Eskilstuna]]></name>
        <description>Polarn O. Pyret Eskilstuna, Eskilstuna</description>
        <styleUrl>#icon-22</styleUrl>
        <Point><coordinates>16.470137,59.371111,0</coordinates></Point>
      </Placemark>
      <Placemark>
        <name><![CDATA[Polarn O. Pyret Västerås]]></name>
        <description>Polarn O. Pyret Västerås, Västerås</description>
        <styleUrl>#icon-22</styleUrl>
        <Point><coordinates>16.544552,59.611817,0</coordinates></Point>
      </Placemark>
      <Placemark>
        <name><![CDATA[Polarn O. Pyret Nyköping]]></name>
        <description>Polarn O. Pyret Nyköping, Nyköping</description>
        <styleUrl>#icon-22</styleUrl>
        <Point><coordinates>17.006302,58.751965,0</coordinates></Point>
      </Placemark>
      <Placemark>
        <name><![CDATA[Polarn O. Pyret Gävle]]></name>
        <description>Polarn O. Pyret Gävle, Gävle</description>
        <styleUrl>#icon-22</styleUrl>
        <Point><coordinates>17.140439,60.67371,0</coordinates></Point>
      </Placemark>
      <Placemark>
        <name><![CDATA[Polarn O. Pyret Birsta]]></name>
        <description>Polarn O. Pyret Birsta, Birsta, Sundsvall</description>
        <styleUrl>#icon-22</styleUrl>
        <Point><coordinates>17.335876,62.447124,0</coordinates></Point>
      </Placemark>
      <Placemark>
        <name><![CDATA[Polarn O. Pyret Uppsala]]></name>
        <description>Polarn O. Pyret Uppsala, Uppsala</description>
        <styleUrl>#icon-22</styleUrl>
        <Point><coordinates>17.641239,59.857386,0</coordinates></Point>
      </Placemark>
      <Placemark>
        <name><![CDATA[Polarn O. Pyret Sollentuna]]></name>
        <description>Polarn O. Pyret Sollentuna, Sollentuna</description>
        <styleUrl>#icon-22</styleUrl>
        <Point><coordinates>17.951702,59.429066,0</coordinates></Point>
      </Placemark>
      <Placemark>
        <name><![CDATA[Polarn O. Pyret Mall of Scandinavia]]></name>
        <description>Polarn O. Pyret Mall of Scandinavia, Solna</description>
        <styleUrl>#icon-22</styleUrl>
        <Point><coordinates>18.0038,59.372218,0</coordinates></Point>
      </Placemark>
      <Placemark>
        <name><![CDATA[Polarn O. Pyret Liljeholmen]]></name>
        <description>Polarn O. Pyret Liljeholmen, Stockholm</description>
        <styleUrl>#icon-22</styleUrl>
        <Point><coordinates>18.021402,59.308605,0</coordinates></Point>
      </Placemark>
      <Placemark>
        <name><![CDATA[Polarn O. Pyret Västermalm]]></name>
        <description>Polarn O. Pyret Västermalm, Stockholm</description>
        <styleUrl>#icon-22</styleUrl>
        <Point><coordinates>18.03233,59.334658,0</coordinates></Point>
      </Placemark>
      <Placemark>
        <name><![CDATA[Polarn O. Pyret Täby]]></name>
        <description>Polarn O. Pyret Täby, Täby</description>
        <styleUrl>#icon-22</styleUrl>
        <Point><coordinates>18.066459,59.442097,0</coordinates></Point>
      </Placemark>
      <Placemark>
        <name><![CDATA[Polarn O. Pyret Gallerian]]></name>
        <description>Polarn O. Pyret Gallerian, Stockholm</description>
        <styleUrl>#icon-22</styleUrl>
        <Point><coordinates>18.067367,59.331332,0</coordinates></Point>
      </Placemark>
      <Placemark>
        <name><![CDATA[Polarn O. Pyret PK-Huset]]></name>
        <description>Polarn O. Pyret PK-Huset, Stockholm</description>
        <styleUrl>#icon-22</styleUrl>
        <Point><coordinates>18.068945,59.333007,0</coordinates></Point>
      </Placemark>
      <Placemark>
        <name><![CDATA[Polarn O. Pyret Ringen]]></name>
        <description>Polarn O. Pyret Ringen, Stockholm</description>
        <styleUrl>#icon-22</styleUrl>
        <Point><coordinates>18.07584,59.308588,0</coordinates></Point>
      </Placemark>
      <Placemark>
        <name><![CDATA[Polarn O. Pyret Fältöversten]]></name>
        <description>Polarn O. Pyret Fältöversten, Stockholm</description>
        <styleUrl>#icon-22</styleUrl>
        <Point><coordinates>18.090217,59.337139,0</coordinates></Point>
      </Placemark>
      <Placemark>
        <name><![CDATA[Polarn O. Pyret Farsta]]></name>
        <description>Polarn O. Pyret Farsta, Farsta</description>
        <styleUrl>#icon-22</styleUrl>
        <Point><coordinates>18.091986,59.242338,0</coordinates></Point>
      </Placemark>
      <Placemark>
        <name><![CDATA[Polarn O. Pyret Sickla]]></name>
        <description>Polarn O. Pyret Sickla, Sickla</description>
        <styleUrl>#icon-22</styleUrl>
        <Point><coordinates>18.124495,59.306034,0</coordinates></Point>
      </Placemark>
      <Placemark>
        <name><![CDATA[Polarn O. Pyret Umeå]]></name>
        <description>Polarn O. Pyret Umeå, Umeå</description>
        <styleUrl>#icon-22</styleUrl>
        <Point><coordinates>20.265128,63.824632,0</coordinates></Point>
      </Placemark>
    </Folder>
  </Document>
</kml>