<?xml version="1.0" encoding="UTF-8"?>
<kml xmlns="http://www.opengis.net/kml/2.2">
  <Document>
    <name><![CDATA[Polarn O. Pyret]]></name>
    <description/>
    <Style id="icon-22-normal"><IconStyle><scale>1.1</scale><Icon><href>https://www.gstatic.com/mapspro/images/stock/22-blue-dot.png</href></Icon><hotSpot x="16" xunits="pixels" y="32" yunits="insetPixels"/></IconStyle><LabelStyle><scale>0</scale></LabelStyle></Style>
    <Style id="icon-22-highlight"><IconStyle><scale>1.1</scale><Icon><href>https://www.gstatic.com/mapspro/images/stock/22-blue-dot.png</href></Icon><hotSpot x="16" xunits="pixels" y="32" yunits="insetPixels"/></IconStyle><LabelStyle><scale>1.1</scale></LabelStyle></Style>
    <StyleMap id="icon-22"><Pair><key>normal</key><styleUrl>#icon-22-normal</styleUrl></Pair><Pair><key>highlight</key><styleUrl>#icon-22-highlight</styleUrl></Pair></StyleMap>
    <Folder>
      <name><![CDATA[Polarn O. Pyret]]></name>
      <Placemark>
        <name><![CDATA[Polarn O. Pyret Västra Frölunda]]></name>
        <description><![CDATA[Polarn O. Pyret Västra Frölunda, Västra Frölunda]]></description>
        <Point><coordinates>11.910537,57.650886,0</coordinates></Point>
        <styleUrl>#icon-22</styleUrl>
      </Placemark>
      <Placemark>
        <name><![CDATA[Polarn O. Pyret Vallgatan]]></name>
        <description><![CDATA[Polarn O. Pyret Vallgatan, Göteborg]]></description>
        <Point><coordinates>11.964856,57.703684,0</coordinates></Point>
        <styleUrl>#icon-22</styleUrl>
      </Placemark>
      <Placemark>
        <name><![CDATA[Polarn O. Pyret Femman]]></name>
        <description><![CDATA[Polarn O. Pyret Femman, Göteborg]]></description>
        <Point><coordinates>11.969497,57.70846,0</coordinates></Point>
        <styleUrl>#icon-22</styleUrl>
      </Placemark>
      <Placemark>
        <name><![CDATA[Polarn O. Pyret Varberg]]></name>
        <description><![CDATA[Polarn O. Pyret Varberg, Varberg]]></description>
        <Point><coordinates>12.252092,57.105654,0</coordinates></Point>
        <styleUrl>#icon-22</styleUrl>
      </Placemark>
      <Placemark>
        <name><![CDATA[Polarn O. Pyret Trollhättan]]></name>
        <description><![CDATA[Polarn O. Pyret Trollhättan, Trollhättan]]></description>
        <Point><coordinates>12.308697,58.312379,0</coordinates></Point>
        <styleUrl>#icon-22</styleUrl>
      </Placemark>
      <Placemark>
        <name><![CDATA[Polarn O. Pyret Väla]]></name>
        <description><![CDATA[Polarn O. Pyret Väla, Ödåkra]]></description>
        <Point><coordinates>12.756816,56.092055,0</coordinates></Point>
        <styleUrl>#icon-22</styleUrl>
      </Placemark>
      <Placemark>
        <name><![CDATA[Polarn O. Pyret Emporia]]></name>
        <description><![CDATA[Polarn O. Pyret Emporia, Malmö]]></description>
        <Point><coordinates>12.972771,55.563308,0</coordinates></Point>
        <styleUrl>#icon-22</styleUrl>
      </Placemark>
      <Placemark>
        <name><![CDATA[Polarn O. Pyret Triangeln]]></name>
        <description><![CDATA[Polarn O. Pyret Triangeln, Malmö]]></description>
        <Point><coordinates>13.002758,55.594727,0</coordinates></Point>
        <styleUrl>#icon-22</styleUrl>
      </Placemark>
      <Placemark>
        <name><![CDATA[Polarn O. Pyret Nova Lund]]></name>
        <description><![CDATA[Polarn O. Pyret Nova Lund, Lund]]></description>
        <Point><coordinates>13.159907,55.713922,0</coordinates></Point>
        <styleUrl>#icon-22</styleUrl>
      </Placemark>
      <Placemark>
        <name><![CDATA[Polarn O. Pyret Lund]]></name>
        <description><![CDATA[Polarn O. Pyret Lund, Lund]]></description>
        <Point><coordinates>13.19166,55.704015,0</coordinates></Point>
        <styleUrl>#icon-22</styleUrl>
      </Placemark>
      <Placemark>
        <name><![CDATA[Polarn O. Pyret Bergvik]]></name>
        <description><![CDATA[Polarn O. Pyret Bergvik, Karlstad]]></description>
        <Point><coordinates>13.427018,59.375947,0</coordinates></Point>
        <styleUrl>#icon-22</styleUrl>
      </Placemark>
      <Placemark>
        <name><![CDATA[Polarn O. Pyret Skövde]]></name>
        <description><![CDATA[Polarn O. Pyret Skövde, Skövde]]></description>
        <Point><coordinates>13.844033,58.389478,0</coordinates></Point>
        <styleUrl>#icon-22</styleUrl>
      </Placemark>
      <Placemark>
        <name><![CDATA[Polarn O. Pyret Kristianstad]]></name>
        <description><![CDATA[Polarn O. Pyret Kristianstad, Kristianstad]]></description>
        <Point><coordinates>14.156241,56.02909,0</coordinates></Point>
        <styleUrl>#icon-22</styleUrl>
      </Placemark>
      <Placemark>
        <name><![CDATA[Polarn O. Pyret A6]]></name>
        <description><![CDATA[Polarn O. Pyret A6, Jönköping]]></description>
        <Point><coordinates>14.202253,57.773382,0</coordinates></Point>
        <styleUrl>#icon-22</styleUrl>
      </Placemark>
      <Placemark>
        <name><![CDATA[Polarn O. Pyret Östersund]]></name>
        <description><![CDATA[Polarn O. Pyret Östersund, Östersund]]></description>
        <Point><coordinates>14.635788,63.17884,0</coordinates></Point>
        <styleUrl>#icon-22</styleUrl>
      </Placemark>
      <Placemark>
        <name><![CDATA[Polarn O. Pyret Samarkand]]></name>
        <description><![CDATA[Polarn O. Pyret Samarkand, Samarkand, Växjö]]></description>
        <Point><coordinates>14.766961,56.884678,0</coordinates></Point>
        <styleUrl>#icon-22</styleUrl>
      </Placemark>
      <Placemark>
        <name><![CDATA[Polarn O. Pyret Örebro]]></name>
        <description><![CDATA[Polarn O. Pyret Örebro, Örebro]]></description>
        <Point><coordinates>15.212278,59.270703,0</coordinates></Point>
        <styleUrl>#icon-22</styleUrl>
      </Placemark>
      <Placemark>
        <name><![CDATA[Polarn O. Pyret Karlskrona]]></name>
        <description><![CDATA[Polarn O. Pyret Karlskrona, Karlskrona]]></description>
        <Point><coordinates>15.587169,56.162366,0</coordinates></Point>
        <styleUrl>#icon-22</styleUrl>
      </Placemark>
      <Placemark>
        <name><![CDATA[Polarn O. Pyret Gränden]]></name>
        <description><![CDATA[Polarn O. Pyret Gränden, Linköping]]></description>
        <Point><coordinates>15.626587,58.410058,0</coordinates></Point>
        <styleUrl>#icon-22</styleUrl>
      </Placemark>
      <Placemark>
        <name><![CDATA[Polarn O. Pyret Kalmar]]></name>
        <description><![CDATA[Polarn O. Pyret Kalmar, Kalmar]]></description>
        <Point><coordinates>16.363883,56.66272,0</coordinates></Point>
        <styleUrl>#icon-22</styleUrl>
      </Placemark>
      <Placemark>
        <name><![CDATA[Polarn O. Pyret Erikslund]]></name>
        <description><![CDATA[Polarn O. Pyret Erikslund, Västerås]]></description>
        <Point><coordinates>16.454807,59.609976,0</coordinates></Point>
        <styleUrl>#icon-22</styleUrl>
      </Placemark>
      <Placemark>
        <name><![CDATA[Polarn O. Pyret Eskilstuna]]></name>
        <description><![CDATA[Polarn O. Pyret Eskilstuna, Eskilstuna]]></description>
        <Point><coordinates>16.470137,59.371111,0</coordinates></Point>
        <styleUrl>#icon-22</styleUrl>
      </Placemark>
      <Placemark>
        <name><![CDATA[Polarn O. Pyret Västerås]]></name>
        <description><![CDATA[Polarn O. Pyret Västerås, Västerås]]></description>
        <Point><coordinates>16.544552,59.611817,0</coordinates></Point>
        <styleUrl>#icon-22</styleUrl>
      </Placemark>
      <Placemark>
        <name><![CDATA[Polarn O. Pyret Nyköping]]></name>
        <description><![CDATA[Polarn O. Pyret Nyköping, Nyköping]]></description>
        <Point><coordinates>17.006302,58.751965,0</coordinates></Point>
        <styleUrl>#icon-22</styleUrl>
      </Placemark>
      <Placemark>
        <name><![CDATA[Polarn O. Pyret Gävle]]></name>
        <description><![CDATA[Polarn O. Pyret Gävle, Gävle]]></description>
        <Point><coordinates>17.140439,60.67371,0</coordinates></Point>
        <styleUrl>#icon-22</styleUrl>
      </Placemark>
      <Placemark>
        <name><![CDATA[Polarn O. Pyret Birsta]]></name>
        <description><![CDATA[Polarn O. Pyret Birsta, Birsta, Sundsvall]]></description>
        <Point><coordinates>17.335876,62.447124,0</coordinates></Point>
        <styleUrl>#icon-22</styleUrl>
      </Placemark>
      <Placemark>
        <name><![CDATA[Polarn O. Pyret Uppsala]]></name>
        <description><![CDATA[Polarn O. Pyret Uppsala, Uppsala]]></description>
        <Point><coordinates>17.641239,59.857386,0</coordinates></Point>
        <styleUrl>#icon-22</styleUrl>
      </Placemark>
      <Placemark>
        <name><![CDATA[Polarn O. Pyret Sollentuna]]></name>
        <description><![CDATA[Polarn O. Pyret Sollentuna, Sollentuna]]></description>
        <Point><coordinates>17.951702,59.429066,0</coordinates></Point>
        <styleUrl>#icon-22</styleUrl>
      </Placemark>
      <Placemark>
        <name><![CDATA[Polarn O. Pyret Mall of Scandinavia]]></name>
        <description><![CDATA[Polarn O. Pyret Mall of Scandinavia, Solna]]></description>
        <Point><coordinates>18.0038,59.372218,0</coordinates></Point>
        <styleUrl>#icon-22</styleUrl>
      </Placemark>
      <Placemark>
        <name><![CDATA[Polarn O. Pyret Liljeholmen]]></name>
        <description><![CDATA[Polarn O. Pyret Liljeholmen, Stockholm]]></description>
        <Point><coordinates>18.021402,59.308605,0</coordinates></Point>
        <styleUrl>#icon-22</styleUrl>
      </Placemark>
      <Placemark>
        <name><![CDATA[Polarn O. Pyret Västermalm]]></name>
        <description><![CDATA[Polarn O. Pyret Västermalm, Stockholm]]></description>
        <Point><coordinates>18.03233,59.334658,0</coordinates></Point>
        <styleUrl>#icon-22</styleUrl>
      </Placemark>
      <Placemark>
        <name><![CDATA[Polarn O. Pyret Täby]]></name>
        <description><![CDATA[Polarn O. Pyret Täby, Täby]]></description>
        <Point><coordinates>18.066459,59.442097,0</coordinates></Point>
        <styleUrl>#icon-22</styleUrl>
      </Placemark>
      <Placemark>
        <name><![CDATA[Polarn O. Pyret Gallerian]]></name>
        <description><![CDATA[Polarn O. Pyret Gallerian, Stockholm]]></description>
        <Point><coordinates>18.067367,59.331332,0</coordinates></Point>
        <styleUrl>#icon-22</styleUrl>
      </Placemark>
      <Placemark>
        <name><![CDATA[Polarn O. Pyret PK-Huset]]></name>
        <description><![CDATA[Polarn O. Pyret PK-Huset, Stockholm]]></description>
        <Point><coordinates>18.068945,59.333007,0</coordinates></Point>
        <styleUrl>#icon-22</styleUrl>
      </Placemark>
      <Placemark>
        <name><![CDATA[Polarn O. Pyret Ringen]]></name>
        <description><![CDATA[Polarn O. Pyret Ringen, Stockholm]]></description>
        <Point><coordinates>18.07584,59.308588,0</coordinates></Point>
        <styleUrl>#icon-22</styleUrl>
      </Placemark>
      <Placemark>
        <name><![CDATA[Polarn O. Pyret Fältöversten]]></name>
        <description><![CDATA[Polarn O. Pyret Fältöversten, Stockholm]]></description>
        <Point><coordinates>18.090217,59.337139,0</coordinates></Point>
        <styleUrl>#icon-22</styleUrl>
      </Placemark>
      <Placemark>
        <name><![CDATA[Polarn O. Pyret Farsta]]></name>
        <description><![CDATA[Polarn O. Pyret Farsta, Farsta]]></description>
        <Point><coordinates>18.091986,59.242338,0</coordinates></Point>
        <styleUrl>#icon-22</styleUrl>
      </Placemark>
      <Placemark>
        <name><![CDATA[Polarn O. Pyret Sickla]]></name>
        <description><![CDATA[Polarn O. Pyret Sickla, Sickla]]></description>
        <Point><coordinates>18.124495,59.306034,0</coordinates></Point>
        <styleUrl>#icon-22</styleUrl>
      </Placemark>
      <Placemark>
        <name><![CDATA[Polarn O. Pyret Umeå]]></name>
        <description><![CDATA[Polarn O. Pyret Umeå, Umeå]]></description>
        <Point><coordinates>20.265128,63.824632,0</coordinates></Point>
        <styleUrl>#icon-22</styleUrl>
      </Placemark>
    </Folder>
  </Document>
</kml>