<?xml version="1.0" encoding="UTF-8"?>
<kml xmlns="http://www.opengis.net/kml/2.2">
  <Document>
    <name>Pressbyrån</name>
    <description/>
    <Style id="icon-22-normal">
      <IconStyle>
        <scale>1.1</scale>
        <Icon>
          <href>https://www.gstatic.com/mapspro/images/stock/22-blue-dot.png</href>
        </Icon>
        <hotSpot x="16" xunits="pixels" y="32" yunits="insetPixels"/>
      </IconStyle>
      <LabelStyle>
        <scale>0</scale>
      </LabelStyle>
    </Style>
    <Style id="icon-22-highlight">
      <IconStyle>
        <scale>1.1</scale>
        <Icon>
          <href>https://www.gstatic.com/mapspro/images/stock/22-blue-dot.png</href>
        </Icon>
        <hotSpot x="16" xunits="pixels" y="32" yunits="insetPixels"/>
      </IconStyle>
      <LabelStyle>
        <scale>1.1</scale>
      </LabelStyle>
    </Style>
    <StyleMap id="icon-22">
      <Pair>
        <key>normal</key>
        <styleUrl>#icon-22-normal</styleUrl>
      </Pair>
      <Pair>
        <key>highlight</key>
        <styleUrl>#icon-22-highlight</styleUrl>
      </Pair>
    </StyleMap>
    <Folder>
      <name><![CDATA[Pressbyrån]]></name>
      <Placemark>
        <name><![CDATA[Pressbyrån Strömstad]]></name>
        <description>Pressbyrån Strömstad, Strömstad</description>
        <styleUrl>#icon-22</styleUrl>
        <Point><coordinates>11.170875,58.939387,0</coordinates></Point>
      </Placemark>
      <Placemark>
        <name><![CDATA[Pressbyrån Kungshamn Buss]]></name>
        <description>Pressbyrån Kungshamn Buss, Kungshamn</description>
        <styleUrl>#icon-22</styleUrl>
        <Point><coordinates>11.249265,58.361515,0</coordinates></Point>
      </Placemark>
      <Placemark>
        <name><![CDATA[Pressbyrån Uddevalla Torp]]></name>
        <description>Pressbyrån Uddevalla Torp, Uddevalla</description>
        <styleUrl>#icon-22</styleUrl>
        <Point><coordinates>11.809645,58.353581,0</coordinates></Point>
      </Placemark>
      <Placemark>
        <name><![CDATA[Pressbyrån Frölunda Buss]]></name>
        <description>Pressbyrån Frölunda Buss, Västra Frölunda</description>
        <styleUrl>#icon-22</styleUrl>
        <Point><coordinates>11.909845,57.652256,0</coordinates></Point>
      </Placemark>
      <Placemark>
        <name><![CDATA[Pressbyrån Gbg Eketrägatan]]></name>
        <description>Pressbyrån Gbg Eketrägatan, Göteborg</description>
        <styleUrl>#icon-22</styleUrl>
        <Point><coordinates>11.910145,57.715937,0</coordinates></Point>
      </Placemark>
      <Placemark>
        <name><![CDATA[Pressbyrån Frölunda Torg]]></name>
        <description>Pressbyrån Frölunda Torg, Västra Frölunda</description>
        <styleUrl>#icon-22</styleUrl>
        <Point><coordinates>11.912066,57.650941,0</coordinates></Point>
      </Placemark>
      <Placemark>
        <name><![CDATA[Pressbyrån Uddevalla Jvg]]></name>
        <description>Pressbyrån Uddevalla Jvg, Uddevalla</description>
        <styleUrl>#icon-22</styleUrl>
        <Point><coordinates>11.923685,58.35375,0</coordinates></Point>
      </Placemark>
      <Placemark>
        <name><![CDATA[Pressbyrån Uddevalla Buss]]></name>
        <description>Pressbyrån Uddevalla Buss, Uddevalla</description>
        <styleUrl>#icon-22</styleUrl>
        <Point><coordinates>11.931152,58.349993,0</coordinates></Point>
      </Placemark>
      <Placemark>
        <name><![CDATA[Pressbyrån Stigbergstorget]]></name>
        <description>Pressbyrån Stigbergstorget, Göteborg</description>
        <styleUrl>#icon-22</styleUrl>
        <Point><coordinates>11.934764,57.699037,0</coordinates></Point>
      </Placemark>
      <Placemark>
        <name><![CDATA[Pressbyrån Gbg Marklandsplatsen]]></name>
        <description>Pressbyrån Gbg Marklandsplatsen, Göteborg</description>
        <styleUrl>#icon-22</styleUrl>
        <Point><coordinates>11.935508,57.674275,0</coordinates></Point>
      </Placemark>
      <Placemark>
        <name><![CDATA[Pressbyrån Gbg Lindholmspiren]]></name>
        <description>Pressbyrån Gbg Lindholmspiren, Göteborg</description>
        <styleUrl>#icon-22</styleUrl>
        <Point><coordinates>11.939274,57.707248,0</coordinates></Point>
      </Placemark>
      <Placemark>
        <name><![CDATA[Pressbyrån GBG Järntorget]]></name>
        <description>Pressbyrån GBG Järntorget, Göteborg</description>
        <styleUrl>#icon-22</styleUrl>
        <Point><coordinates>11.952736,57.699812,0</coordinates></Point>
      </Placemark>
      <Placemark>
        <name><![CDATA[Pressbyrån Gbg Hjalmar Brantingsplatsen]]></name>
        <description>Pressbyrån Gbg Hjalmar Brantingsplatsen, Göteborg</description>
        <styleUrl>#icon-22</styleUrl>
        <Point><coordinates>11.953822,57.720896,0</coordinates></Point>
      </Placemark>
      <Placemark>
        <name><![CDATA[Pressbyrån Stenpiren]]></name>
        <description>Pressbyrån Stenpiren, Göteborg</description>
        <styleUrl>#icon-22</styleUrl>
        <Point><coordinates>11.958001,57.706171,0</coordinates></Point>
      </Placemark>
      <Placemark>
        <name><![CDATA[Pressbyrån Gbg Sahlgrenska St. Ing]]></name>
        <description>Pressbyrån Gbg Sahlgrenska St. Ing, Göteborg</description>
        <styleUrl>#icon-22</styleUrl>
        <Point><coordinates>11.960724,57.683338,0</coordinates></Point>
      </Placemark>
      <Placemark>
        <name><![CDATA[Pressbyrån Gbg Sahlgrenska Centralkomplexet]]></name>
        <description>Pressbyrån Gbg Sahlgrenska Centralkomplexet, Göteborg</description>
        <styleUrl>#icon-22</styleUrl>
        <Point><coordinates>11.961428,57.68242,0</coordinates></Point>
      </Placemark>
      <Placemark>
        <name><![CDATA[Pressbyrån Gbg Östra Hamngatan 26]]></name>
        <description>Pressbyrån Gbg Östra Hamngatan 26, Göteborg</description>
        <styleUrl>#icon-22</styleUrl>
        <Point><coordinates>11.967917,57.707772,0</coordinates></Point>
      </Placemark>
      <Placemark>
        <name><![CDATA[Kungälvs Resecentrum]]></name>
        <description>Kungälvs Resecentrum, Kungälv</description>
        <styleUrl>#icon-22</styleUrl>
        <Point><coordinates>11.968446,57.871986,0</coordinates></Point>
      </Placemark>
      <Placemark>
        <name><![CDATA[Pressbyrån Gbg Nordstadstorget]]></name>
        <description>Pressbyrån Gbg Nordstadstorget, Göteborg</description>
        <styleUrl>#icon-22</styleUrl>
        <Point><coordinates>11.968914,57.70956,0</coordinates></Point>
      </Placemark>
      <Placemark>
        <name><![CDATA[Pressbyrån Norra Hamngatan]]></name>
        <description>Pressbyrån Norra Hamngatan, Göteborg</description>
        <styleUrl>#icon-22</styleUrl>
        <Point><coordinates>11.969069,57.707204,0</coordinates></Point>
      </Placemark>
      <Placemark>
        <name><![CDATA[Pressbyrån Gbg Götgatan]]></name>
        <description>Pressbyrån Gbg Götgatan, Göteborg</description>
        <styleUrl>#icon-22</styleUrl>
        <Point><coordinates>11.96918,57.708026,0</coordinates></Point>
      </Placemark>
      <Placemark>
        <name><![CDATA[Pressbyrån Kungsport]]></name>
        <description>Pressbyrån Kungsport, Göteborg</description>
        <styleUrl>#icon-22</styleUrl>
        <Point><coordinates>11.97035,57.70408,0</coordinates></Point>
      </Placemark>
      <Placemark>
        <name><![CDATA[Pressbyrån Gbg Södra Hamngatan]]></name>
        <description>Pressbyrån Gbg Södra Hamngatan, Göteborg</description>
        <styleUrl>#icon-22</styleUrl>
        <Point><coordinates>11.970374,57.706698,0</coordinates></Point>
      </Placemark>
      <Placemark>
        <name><![CDATA[Pressbyrån Gbg Nils Ericsonsplatsen]]></name>
        <description>Pressbyrån Gbg Nils Ericsonsplatsen, Göteborg</description>
        <styleUrl>#icon-22</styleUrl>
        <Point><coordinates>11.970468,57.70898,0</coordinates></Point>
      </Placemark>
      <Placemark>
        <name><![CDATA[Pressbyrån Nils Ericsonsgatan Göteborg]]></name>
        <description>Pressbyrån Nils Ericsonsgatan Göteborg, Göteborg</description>
        <styleUrl>#icon-22</styleUrl>
        <Point><coordinates>11.97069,57.708987,0</coordinates></Point>
      </Placemark>
      <Placemark>
        <name><![CDATA[Pressbyrån Gbg Centralen taxi 1]]></name>
        <description>Pressbyrån Gbg Centralen taxi 1, Göteborg</description>
        <styleUrl>#icon-22</styleUrl>
        <Point><coordinates>11.973081,57.708481,0</coordinates></Point>
      </Placemark>
      <Placemark>
        <name><![CDATA[Pressbyrån Gbg Cstn huvudentrén]]></name>
        <description>Pressbyrån Gbg Cstn huvudentrén, Göteborg</description>
        <styleUrl>#icon-22</styleUrl>
        <Point><coordinates>11.973179,57.708508,0</coordinates></Point>
      </Placemark>
      <Placemark>
        <name><![CDATA[Pressbyrån Ggb Drottningtorget]]></name>
        <description>Pressbyrån Ggb Drottningtorget, Göteborg</description>
        <styleUrl>#icon-22</styleUrl>
        <Point><coordinates>11.973233,57.708053,0</coordinates></Point>
      </Placemark>
      <Placemark>
        <name><![CDATA[Pressbyrån Gbg Cstn (Centralhuset)]]></name>
        <description>Pressbyrån Gbg Cstn (Centralhuset), Göteborg</description>
        <styleUrl>#icon-22</styleUrl>
        <Point><coordinates>11.97324,57.709042,0</coordinates></Point>
      </Placemark>
      <Placemark>
        <name><![CDATA[Pressbyrån Centralstationen Huvudstråket]]></name>
        <description>Pressbyrån Centralstationen Huvudstråket, Göteborg</description>
        <styleUrl>#icon-22</styleUrl>
        <Point><coordinates>11.973427,57.709299,0</coordinates></Point>
      </Placemark>
      <Placemark>
        <name><![CDATA[Pressbyrån Gbg Valand]]></name>
        <description>Pressbyrån Gbg Valand, Göteborg</description>
        <styleUrl>#icon-22</styleUrl>
        <Point><coordinates>11.974038,57.7005,0</coordinates></Point>
      </Placemark>
      <Placemark>
        <name><![CDATA[Pressbyrån Gbg Heden Buss]]></name>
        <description>Pressbyrån Gbg Heden Buss, Göteborg</description>
        <styleUrl>#icon-22</styleUrl>
        <Point><coordinates>11.974808,57.702362,0</coordinates></Point>
      </Placemark>
      <Placemark>
        <name><![CDATA[Pressbyrån GBG Korsvägen]]></name>
        <description>Pressbyrån GBG Korsvägen, Göteborg</description>
        <styleUrl>#icon-22</styleUrl>
        <Point><coordinates>11.986741,57.696637,0</coordinates></Point>
      </Placemark>
      <Placemark>
        <name><![CDATA[Pressbyrån Redbergsplatsen]]></name>
        <description>Pressbyrån Redbergsplatsen, Göteborg</description>
        <styleUrl>#icon-22</styleUrl>
        <Point><coordinates>12.004891,57.716434,0</coordinates></Point>
      </Placemark>
      <Placemark>
        <name><![CDATA[Pressbyrån Gamlestaden Resecentrum]]></name>
        <description>Pressbyrån Gamlestaden Resecentrum, Göteborg</description>
        <styleUrl>#icon-22</styleUrl>
        <Point><coordinates>12.00545,57.727831,0</coordinates></Point>
      </Placemark>
      <Placemark>
        <name><![CDATA[Pressbyrån Gamlestadens brygga]]></name>
        <description>Pressbyrån Gamlestadens brygga, Göteborg</description>
        <styleUrl>#icon-22</styleUrl>
        <Point><coordinates>12.00573,57.72757,0</coordinates></Point>
      </Placemark>
      <Placemark>
        <name><![CDATA[Pressbyrån Mölndals Sjukhus]]></name>
        <description>Pressbyrån Mölndals Sjukhus, Mölndal</description>
        <styleUrl>#icon-22</styleUrl>
        <Point><coordinates>12.012209,57.661227,0</coordinates></Point>
      </Placemark>
      <Placemark>
        <name><![CDATA[Pressbyrån Mölndals Bro]]></name>
        <description>Pressbyrån Mölndals Bro, Mölndal</description>
        <styleUrl>#icon-22</styleUrl>
        <Point><coordinates>12.017509,57.655556,0</coordinates></Point>
      </Placemark>
      <Placemark>
        <name><![CDATA[Pressbyrån Östra sjukhuset]]></name>
        <description>Pressbyrån Östra sjukhuset, Göteborg</description>
        <styleUrl>#icon-22</styleUrl>
        <Point><coordinates>12.048769,57.722256,0</coordinates></Point>
      </Placemark>
      <Placemark>
        <name><![CDATA[Pressbyrån Angered Resecentrum]]></name>
        <description>Pressbyrån Angered Resecentrum, Angered</description>
        <styleUrl>#icon-22</styleUrl>
        <Point><coordinates>12.048934,57.795691,0</coordinates></Point>
      </Placemark>
      <Placemark>
        <name><![CDATA[Pressbyrån Angered Entré]]></name>
        <description>Pressbyrån Angered Entré, Angered</description>
        <styleUrl>#icon-22</styleUrl>
        <Point><coordinates>12.050382,57.796426,0</coordinates></Point>
      </Placemark>
      <Placemark>
        <name><![CDATA[Pressbyrån Kungsbacka, Kungsmässan]]></name>
        <description>Pressbyrån Kungsbacka, Kungsmässan, Kungsbacka</description>
        <styleUrl>#icon-22</styleUrl>
        <Point><coordinates>12.074361,57.492369,0</coordinates></Point>
      </Placemark>
      <Placemark>
        <name><![CDATA[Pressbyrån Kungsbacka Resecentrum]]></name>
        <description>Pressbyrån Kungsbacka Resecentrum, Kungsbacka</description>
        <styleUrl>#icon-22</styleUrl>
        <Point><coordinates>12.079403,57.489795,0</coordinates></Point>
      </Placemark>
      <Placemark>
        <name><![CDATA[Pressbyrån Partille Köpcentrum]]></name>
        <description>Pressbyrån Partille Köpcentrum, Partille</description>
        <styleUrl>#icon-22</styleUrl>
        <Point><coordinates>12.105045,57.73866,0</coordinates></Point>
      </Placemark>
      <Placemark>
        <name><![CDATA[Pressbyrån Landvetter]]></name>
        <description>Pressbyrån Landvetter, Landvetter</description>
        <styleUrl>#icon-22</styleUrl>
        <Point><coordinates>12.212741,57.68612,0</coordinates></Point>
      </Placemark>
      <Placemark>
        <name><![CDATA[Pressbyrån Varberg Buss]]></name>
        <description>Pressbyrån Varberg Buss, Varberg</description>
        <styleUrl>#icon-22</styleUrl>
        <Point><coordinates>12.249055,57.109541,0</coordinates></Point>
      </Placemark>
      <Placemark>
        <name><![CDATA[Pressbyrån Charlottenberg]]></name>
        <description>Pressbyrån Charlottenberg, Charlottenberg</description>
        <styleUrl>#icon-22</styleUrl>
        <Point><coordinates>12.288315,59.880787,0</coordinates></Point>
      </Placemark>
      <Placemark>
        <name><![CDATA[Pressbyrån Incheckningshallen]]></name>
        <description>Pressbyrån Incheckningshallen, Landvetter</description>
        <styleUrl>#icon-22</styleUrl>
        <Point><coordinates>12.294538,57.66797,0</coordinates></Point>
      </Placemark>
      <Placemark>
        <name><![CDATA[Pressbyrån Landvetter Gate 17]]></name>
        <description>Pressbyrån Landvetter Gate 17, Landvetter</description>
        <styleUrl>#icon-22</styleUrl>
        <Point><coordinates>12.295107,57.668756,0</coordinates></Point>
      </Placemark>
      <Placemark>
        <name><![CDATA[Pressbyrån Utrikes avgångshall]]></name>
        <description>Pressbyrån Utrikes avgångshall, Landvetter</description>
        <styleUrl>#icon-22</styleUrl>
        <Point><coordinates>12.295675,57.669462,0</coordinates></Point>
      </Placemark>
      <Placemark>
        <name><![CDATA[Pressbyrån Falkenberg Stortorget]]></name>
        <description>Pressbyrån Falkenberg Stortorget, Falkenberg</description>
        <styleUrl>#icon-22</styleUrl>
        <Point><coordinates>12.491538,56.905164,0</coordinates></Point>
      </Placemark>
      <Placemark>
        <name><![CDATA[Pressbyrån Alingsås]]></name>
        <description>Pressbyrån Alingsås, Alingsås</description>
        <styleUrl>#icon-22</styleUrl>
        <Point><coordinates>12.53196,57.927067,0</coordinates></Point>
      </Placemark>
      <Placemark>
        <name><![CDATA[Pressbyrån H-borg Knutpunkten, Term. 1]]></name>
        <description>Pressbyrån H-borg Knutpunkten, Term. 1, Helsingborg</description>
        <styleUrl>#icon-22</styleUrl>
        <Point><coordinates>12.693827,56.04442,0</coordinates></Point>
      </Placemark>
      <Placemark>
        <name><![CDATA[Pressbyrån H-borg Knutpunkten-Centralhallen]]></name>
        <description>Pressbyrån H-borg Knutpunkten-Centralhallen, Helsingborg</description>
        <styleUrl>#icon-22</styleUrl>
        <Point><coordinates>12.694149,56.044539,0</coordinates></Point>
      </Placemark>
      <Placemark>
        <name><![CDATA[Pressbyrån H-borg Stortorget]]></name>
        <description>Pressbyrån H-borg Stortorget, Helsingborg</description>
        <styleUrl>#icon-22</styleUrl>
        <Point><coordinates>12.69451,56.04646,0</coordinates></Point>
      </Placemark>
      <Placemark>
        <name><![CDATA[Pressbyrån Helsingborg Buss]]></name>
        <description>Pressbyrån Helsingborg Buss, Helsingborg</description>
        <styleUrl>#icon-22</styleUrl>
        <Point><coordinates>12.694969,56.043626,0</coordinates></Point>
      </Placemark>
      <Placemark>
        <name><![CDATA[Pressbyrån Helsingborgs Lasarett]]></name>
        <description>Pressbyrån Helsingborgs Lasarett, Helsingborg</description>
        <styleUrl>#icon-22</styleUrl>
        <Point><coordinates>12.703639,56.04575,0</coordinates></Point>
      </Placemark>
      <Placemark>
        <name><![CDATA[Pressbyrån Väla Köpcentrum]]></name>
        <description>Pressbyrån Väla Köpcentrum, Ödåkra-Väla</description>
        <styleUrl>#icon-22</styleUrl>
        <Point><coordinates>12.7553,56.091342,0</coordinates></Point>
      </Placemark>
      <Placemark>
        <name><![CDATA[Pressbyrån Landskrona Station]]></name>
        <description>Pressbyrån Landskrona Station, Landskrona</description>
        <styleUrl>#icon-22</styleUrl>
        <Point><coordinates>12.856662,55.879154,0</coordinates></Point>
      </Placemark>
      <Placemark>
        <name><![CDATA[Pressbyrån Stora Torg Halmstad]]></name>
        <description>Pressbyrån Stora Torg Halmstad, Halmstad</description>
        <styleUrl>#icon-22</styleUrl>
        <Point><coordinates>12.856982,56.674268,0</coordinates></Point>
      </Placemark>
      <Placemark>
        <name><![CDATA[Pressbyrån Ängelholms sjukhus]]></name>
        <description>Pressbyrån Ängelholms sjukhus, Ängelholm</description>
        <styleUrl>#icon-22</styleUrl>
        <Point><coordinates>12.86079,56.239243,0</coordinates></Point>
      </Placemark>
      <Placemark>
        <name><![CDATA[Pressbyrån Halmstad Cstn]]></name>
        <description>Pressbyrån Halmstad Cstn, Halmstad</description>
        <styleUrl>#icon-22</styleUrl>
        <Point><coordinates>12.863887,56.668823,0</coordinates></Point>
      </Placemark>
      <Placemark>
        <name><![CDATA[Pressbyrån Borås Cstn]]></name>
        <description>Pressbyrån Borås Cstn, Borås</description>
        <styleUrl>#icon-22</styleUrl>
        <Point><coordinates>12.932281,57.720658,0</coordinates></Point>
      </Placemark>
      <Placemark>
        <name><![CDATA[Pressbyrån Borås Resecentum]]></name>
        <description>Pressbyrån Borås Resecentum, Borås</description>
        <styleUrl>#icon-22</styleUrl>
        <Point><coordinates>12.932421,57.719948,0</coordinates></Point>
      </Placemark>
      <Placemark>
        <name><![CDATA[Pressbyrån Borås Knallen]]></name>
        <description>Pressbyrån Borås Knallen, Borås</description>
        <styleUrl>#icon-22</styleUrl>
        <Point><coordinates>12.938848,57.733645,0</coordinates></Point>
      </Placemark>
      <Placemark>
        <name><![CDATA[Pressbyrån Borås Österlånggatan]]></name>
        <description>Pressbyrån Borås Österlånggatan, Borås</description>
        <styleUrl>#icon-22</styleUrl>
        <Point><coordinates>12.941592,57.719644,0</coordinates></Point>
      </Placemark>
      <Placemark>
        <name><![CDATA[Pressbyrån Lasarettsgatan Borås]]></name>
        <description>Pressbyrån Lasarettsgatan Borås, Borås</description>
        <styleUrl>#icon-22</styleUrl>
        <Point><coordinates>12.960825,57.723617,0</coordinates></Point>
      </Placemark>
      <Placemark>
        <name><![CDATA[Pressbyrån Malmö Hyllie]]></name>
        <description>Pressbyrån Malmö Hyllie, Malmö</description>
        <styleUrl>#icon-22</styleUrl>
        <Point><coordinates>12.976326,55.56287,0</coordinates></Point>
      </Placemark>
      <Placemark>
        <name><![CDATA[Pressbyrån Malmö Cstn]]></name>
        <description>Pressbyrån Malmö Cstn, Malmö</description>
        <styleUrl>#icon-22</styleUrl>
        <Point><coordinates>13.000021,55.609216,0</coordinates></Point>
      </Placemark>
      <Placemark>
        <name><![CDATA[Pressbyrån Malmö Gustav Adolfs Torg]]></name>
        <description>Pressbyrån Malmö Gustav Adolfs Torg, Malmö</description>
        <styleUrl>#icon-22</styleUrl>
        <Point><coordinates>13.000679,55.603104,0</coordinates></Point>
      </Placemark>
      <Placemark>
        <name><![CDATA[Pressbyrån Malmö MAS Långa Raden]]></name>
        <description>Pressbyrån Malmö MAS Långa Raden, Malmö</description>
        <styleUrl>#icon-22</styleUrl>
        <Point><coordinates>13.000963,55.587563,0</coordinates></Point>
      </Placemark>
      <Placemark>
        <name><![CDATA[Pressbyrån Malmö Södergatan 11]]></name>
        <description>Pressbyrån Malmö Södergatan 11, Malmö</description>
        <styleUrl>#icon-22</styleUrl>
        <Point><coordinates>13.001085,55.604511,0</coordinates></Point>
      </Placemark>
      <Placemark>
        <name><![CDATA[Pressbyrån Södra Förstadsgatan 12]]></name>
        <description>Pressbyrån Södra Förstadsgatan 12, Malmö</description>
        <styleUrl>#icon-22</styleUrl>
        <Point><coordinates>13.001392,55.599797,0</coordinates></Point>
      </Placemark>
      <Placemark>
        <name><![CDATA[Pressbyrån Malmö MAS Kirurgen]]></name>
        <description>Pressbyrån Malmö MAS Kirurgen, Malmö</description>
        <styleUrl>#icon-22</styleUrl>
        <Point><coordinates>13.001525,55.589405,0</coordinates></Point>
      </Placemark>
      <Placemark>
        <name><![CDATA[Pressbyrån Södervärn/Buss]]></name>
        <description>Pressbyrån Södervärn/Buss, Malmö</description>
        <styleUrl>#icon-22</styleUrl>
        <Point><coordinates>13.006117,55.588874,0</coordinates></Point>
      </Placemark>
      <Placemark>
        <name><![CDATA[Pressbyrån Holiday Club Åre]]></name>
        <description>Pressbyrån Holiday Club Åre, Åre</description>
        <styleUrl>#icon-22</styleUrl>
        <Point><coordinates>13.075875,63.398104,0</coordinates></Point>
      </Placemark>
      <Placemark>
        <name><![CDATA[Resecentrum Trelleborg]]></name>
        <description>Resecentrum Trelleborg, Trelleborg</description>
        <styleUrl>#icon-22</styleUrl>
        <Point><coordinates>13.159078,55.371816,0</coordinates></Point>
      </Placemark>
      <Placemark>
        <name><![CDATA[Pressbyrån Lidköping Jvg]]></name>
        <description>Pressbyrån Lidköping Jvg, Lidköping</description>
        <styleUrl>#icon-22</styleUrl>
        <Point><coordinates>13.16337,58.504491,0</coordinates></Point>
      </Placemark>
      <Placemark>
        <name><![CDATA[Pressbyrån Lund V:a Stationsgatan]]></name>
        <description>Pressbyrån Lund V:a Stationsgatan, Lund</description>
        <styleUrl>#icon-22</styleUrl>
        <Point><coordinates>13.186,55.70551,0</coordinates></Point>
      </Placemark>
      <Placemark>
        <name><![CDATA[Pressbyrån Lund Godsmagasinet]]></name>
        <description>Pressbyrån Lund Godsmagasinet, Lund</description>
        <styleUrl>#icon-22</styleUrl>
        <Point><coordinates>13.186966,55.706918,0</coordinates></Point>
      </Placemark>
      <Placemark>
        <name><![CDATA[Pressbyrån Lund Cstn]]></name>
        <description>Pressbyrån Lund Cstn, Lund</description>
        <styleUrl>#icon-22</styleUrl>
        <Point><coordinates>13.187226,55.705378,0</coordinates></Point>
      </Placemark>
      <Placemark>
        <name><![CDATA[Pressbyrån Lund Botulfsplatsen]]></name>
        <description>Pressbyrån Lund Botulfsplatsen, Lund</description>
        <styleUrl>#icon-22</styleUrl>
        <Point><coordinates>13.194068,55.702206,0</coordinates></Point>
      </Placemark>
      <Placemark>
        <name><![CDATA[Pressbyrån Skånes Universitetssjukhus i Lund]]></name>
        <description>Pressbyrån Skånes Universitetssjukhus i Lund, Lund</description>
        <styleUrl>#icon-22</styleUrl>
        <Point><coordinates>13.196265,55.712142,0</coordinates></Point>
      </Placemark>
      <Placemark>
        <name><![CDATA[Pressbyrån Malmö-Sturup]]></name>
        <description>Pressbyrån Malmö-Sturup, Malmö-Sturup</description>
        <styleUrl>#icon-22</styleUrl>
        <Point><coordinates>13.366585,55.540555,0</coordinates></Point>
      </Placemark>
      <Placemark>
        <name><![CDATA[Pressbyrån Skara Jvg]]></name>
        <description>Pressbyrån Skara Jvg, Skara</description>
        <styleUrl>#icon-22</styleUrl>
        <Point><coordinates>13.439145,58.383464,0</coordinates></Point>
      </Placemark>
      <Placemark>
        <name><![CDATA[Pressbyrån Götene Jvg]]></name>
        <description>Pressbyrån Götene Jvg, Götene</description>
        <styleUrl>#icon-22</styleUrl>
        <Point><coordinates>13.492546,58.527897,0</coordinates></Point>
      </Placemark>
      <Placemark>
        <name><![CDATA[Pressbyrån Karlstad Drottningg]]></name>
        <description>Pressbyrån Karlstad Drottningg, Karlstad</description>
        <styleUrl>#icon-22</styleUrl>
        <Point><coordinates>13.500105,59.37927,0</coordinates></Point>
      </Placemark>
      <Placemark>
        <name><![CDATA[Pressbyrån Karlstad Cstn]]></name>
        <description>Pressbyrån Karlstad Cstn, Karlstad</description>
        <styleUrl>#icon-22</styleUrl>
        <Point><coordinates>13.500121,59.378032,0</coordinates></Point>
      </Placemark>
      <Placemark>
        <name><![CDATA[Pressbyrån Kungsgatan Karlstad]]></name>
        <description>Pressbyrån Kungsgatan Karlstad, Karlstad</description>
        <styleUrl>#icon-22</styleUrl>
        <Point><coordinates>13.503626,59.38107,0</coordinates></Point>
      </Placemark>
      <Placemark>
        <name><![CDATA[Pressbyrån Falköping Jvg]]></name>
        <description>Pressbyrån Falköping Jvg, Falköping</description>
        <styleUrl>#icon-22</styleUrl>
        <Point><coordinates>13.552558,58.175461,0</coordinates></Point>
      </Placemark>
      <Placemark>
        <name><![CDATA[Pressbyrån Karlstad Studenternas Hus]]></name>
        <description>Pressbyrån Karlstad Studenternas Hus, Karlstad</description>
        <styleUrl>#icon-22</styleUrl>
        <Point><coordinates>13.579543,59.405815,0</coordinates></Point>
      </Placemark>
      <Placemark>
        <name><![CDATA[Pressbyrån Hässleholm Norra Stn]]></name>
        <description>Pressbyrån Hässleholm Norra Stn, Hässleholm</description>
        <styleUrl>#icon-22</styleUrl>
        <Point><coordinates>13.761854,56.158477,0</coordinates></Point>
      </Placemark>
      <Placemark>
        <name><![CDATA[Pressbyrån Hässleholm Cstn]]></name>
        <description>Pressbyrån Hässleholm Cstn, Hässleholm</description>
        <styleUrl>#icon-22</styleUrl>
        <Point><coordinates>13.76343,56.15732,0</coordinates></Point>
      </Placemark>
      <Placemark>
        <name><![CDATA[Pressbyrån Ystad]]></name>
        <description>Pressbyrån Ystad, Ystad</description>
        <styleUrl>#icon-22</styleUrl>
        <Point><coordinates>13.823984,55.427705,0</coordinates></Point>
      </Placemark>
      <Placemark>
        <name><![CDATA[Pressbyrån Skövde Sandtorget]]></name>
        <description>Pressbyrån Skövde Sandtorget, Skövde</description>
        <styleUrl>#icon-22</styleUrl>
        <Point><coordinates>13.846035,58.39126,0</coordinates></Point>
      </Placemark>
      <Placemark>
        <name><![CDATA[Pressbyrån Skövde Sjukhus]]></name>
        <description>Pressbyrån Skövde Sjukhus, Skövde</description>
        <styleUrl>#icon-22</styleUrl>
        <Point><coordinates>13.851828,58.427023,0</coordinates></Point>
      </Placemark>
      <Placemark>
        <name><![CDATA[Pressbyrån Skövde Jvg]]></name>
        <description>Pressbyrån Skövde Jvg, Skövde</description>
        <styleUrl>#icon-22</styleUrl>
        <Point><coordinates>13.851968,58.389618,0</coordinates></Point>
      </Placemark>
      <Placemark>
        <name><![CDATA[Pressbyrån Töreboda Kungsgatan]]></name>
        <description>Pressbyrån Töreboda Kungsgatan, Töreboda</description>
        <styleUrl>#icon-22</styleUrl>
        <Point><coordinates>14.127397,58.705826,0</coordinates></Point>
      </Placemark>
      <Placemark>
        <name><![CDATA[Pressbyrån Kristianstad]]></name>
        <description>Pressbyrån Kristianstad, Kristianstad</description>
        <styleUrl>#icon-22</styleUrl>
        <Point><coordinates>14.151909,56.031542,0</coordinates></Point>
      </Placemark>
      <Placemark>
        <name><![CDATA[Pressbyrån Klostergatan, Jönköping]]></name>
        <description>Pressbyrån Klostergatan, Jönköping, Jönköping</description>
        <styleUrl>#icon-22</styleUrl>
        <Point><coordinates>14.154961,57.776285,0</coordinates></Point>
      </Placemark>
      <Placemark>
        <name><![CDATA[Pressbyrån Jönköping Barnarpsgatan]]></name>
        <description>Pressbyrån Jönköping Barnarpsgatan, Jönköping</description>
        <styleUrl>#icon-22</styleUrl>
        <Point><coordinates>14.16222,57.781124,0</coordinates></Point>
      </Placemark>
      <Placemark>
        <name><![CDATA[Pressbyrån Jönköping Jvg]]></name>
        <description>Pressbyrån Jönköping Jvg, Jönköping</description>
        <styleUrl>#icon-22</styleUrl>
        <Point><coordinates>14.1627,57.78446,0</coordinates></Point>
      </Placemark>
      <Placemark>
        <name><![CDATA[Pressbyrån Östra Storgatan 8, 553 21 Jönköping]]></name>
        <description>Pressbyrån Östra Storgatan 8, 553 21 Jönköping, Jönköping</description>
        <styleUrl>#icon-22</styleUrl>
        <Point><coordinates>14.170527,57.782551,0</coordinates></Point>
      </Placemark>
      <Placemark>
        <name><![CDATA[Pressbyrån CSK]]></name>
        <description>Pressbyrån CSK, Kristianstad</description>
        <styleUrl>#icon-22</styleUrl>
        <Point><coordinates>14.17397,56.02983,0</coordinates></Point>
      </Placemark>
      <Placemark>
        <name><![CDATA[Pressbyrån Jönköping A6]]></name>
        <description>Pressbyrån Jönköping A6, Jönköping</description>
        <styleUrl>#icon-22</styleUrl>
        <Point><coordinates>14.203455,57.773287,0</coordinates></Point>
      </Placemark>
      <Placemark>
        <name><![CDATA[Pressbyrån C4 Shopping]]></name>
        <description>Pressbyrån C4 Shopping, Kristianstad</description>
        <styleUrl>#icon-22</styleUrl>
        <Point><coordinates>14.206223,56.02631,0</coordinates></Point>
      </Placemark>
      <Placemark>
        <name><![CDATA[Pressbyrån Jönköping Ekhagsringen]]></name>
        <description>Pressbyrån Jönköping Ekhagsringen, Jönköping</description>
        <styleUrl>#icon-22</styleUrl>
        <Point><coordinates>14.2237,57.77789,0</coordinates></Point>
      </Placemark>
      <Placemark>
        <name><![CDATA[Pressbyrån Karlskoga Lasarett]]></name>
        <description>Pressbyrån Karlskoga Lasarett, Karlskoga</description>
        <styleUrl>#icon-22</styleUrl>
        <Point><coordinates>14.505386,59.315526,0</coordinates></Point>
      </Placemark>
      <Placemark>
        <name><![CDATA[Pressbyrån Alvesta Jvg]]></name>
        <description>Pressbyrån Alvesta Jvg, Alvesta</description>
        <styleUrl>#icon-22</styleUrl>
        <Point><coordinates>14.556676,56.89899,0</coordinates></Point>
      </Placemark>
      <Placemark>
        <name><![CDATA[Pressbyrån Sölvesborg]]></name>
        <description>Pressbyrån Sölvesborg, Sölvesborg</description>
        <styleUrl>#icon-22</styleUrl>
        <Point><coordinates>14.58344,56.04994,0</coordinates></Point>
      </Placemark>
      <Placemark>
        <name><![CDATA[Pressbyrån Östersund Jvg]]></name>
        <description>Pressbyrån Östersund Jvg, Östersund</description>
        <styleUrl>#icon-22</styleUrl>
        <Point><coordinates>14.637505,63.170689,0</coordinates></Point>
      </Placemark>
      <Placemark>
        <name><![CDATA[Pressbyrån Östersunds Sjh]]></name>
        <description>Pressbyrån Östersunds Sjh, Östersund</description>
        <styleUrl>#icon-22</styleUrl>
        <Point><coordinates>14.637799,63.182316,0</coordinates></Point>
      </Placemark>
      <Placemark>
        <name><![CDATA[Pressbyrån Östersund Kärnan]]></name>
        <description>Pressbyrån Östersund Kärnan, Östersund</description>
        <styleUrl>#icon-22</styleUrl>
        <Point><coordinates>14.638536,63.176351,0</coordinates></Point>
      </Placemark>
      <Placemark>
        <name><![CDATA[Pressbyrån Nässjö Jvg]]></name>
        <description>Pressbyrån Nässjö Jvg, Nässjö</description>
        <styleUrl>#icon-22</styleUrl>
        <Point><coordinates>14.694956,57.65243,0</coordinates></Point>
      </Placemark>
      <Placemark>
        <name><![CDATA[Pressbyrån Växjö Storgatan]]></name>
        <description>Pressbyrån Växjö Storgatan, Växjö</description>
        <styleUrl>#icon-22</styleUrl>
        <Point><coordinates>14.80107,56.87926,0</coordinates></Point>
      </Placemark>
      <Placemark>
        <name><![CDATA[Pressbyrån Växjö Jvg]]></name>
        <description>Pressbyrån Växjö Jvg, Växjö</description>
        <styleUrl>#icon-22</styleUrl>
        <Point><coordinates>14.8067,56.8768,0</coordinates></Point>
      </Placemark>
      <Placemark>
        <name><![CDATA[Pressbyrån Växjö Lasarett]]></name>
        <description>Pressbyrån Växjö Lasarett, Växjö</description>
        <styleUrl>#icon-22</styleUrl>
        <Point><coordinates>14.80743,56.87459,0</coordinates></Point>
      </Placemark>
      <Placemark>
        <name><![CDATA[Pressbyrån Växjö Punkten]]></name>
        <description>Pressbyrån Växjö Punkten, Växjö</description>
        <styleUrl>#icon-22</styleUrl>
        <Point><coordinates>14.80786,56.87856,0</coordinates></Point>
      </Placemark>
      <Placemark>
        <name><![CDATA[Pressbyrån Växjö Universitet]]></name>
        <description>Pressbyrån Växjö Universitet, Växjö</description>
        <styleUrl>#icon-22</styleUrl>
        <Point><coordinates>14.828721,56.855114,0</coordinates></Point>
      </Placemark>
      <Placemark>
        <name><![CDATA[Pressbyrån Tranås Jvg]]></name>
        <description>Pressbyrån Tranås Jvg, Tranås</description>
        <styleUrl>#icon-22</styleUrl>
        <Point><coordinates>14.97638,58.0381,0</coordinates></Point>
      </Placemark>
      <Placemark>
        <name><![CDATA[Pressbyrån Vetlanda Jvg]]></name>
        <description>Pressbyrån Vetlanda Jvg, Vetlanda</description>
        <styleUrl>#icon-22</styleUrl>
        <Point><coordinates>15.08263,57.42583,0</coordinates></Point>
      </Placemark>
      <Placemark>
        <name><![CDATA[Pressbyrån Hallsberg C]]></name>
        <description>Pressbyrån Hallsberg C, Hallsberg</description>
        <styleUrl>#icon-22</styleUrl>
        <Point><coordinates>15.110632,59.066711,0</coordinates></Point>
      </Placemark>
      <Placemark>
        <name><![CDATA[Pressbyrån Mjölby Jvg]]></name>
        <description>Pressbyrån Mjölby Jvg, Mjölby</description>
        <styleUrl>#icon-22</styleUrl>
        <Point><coordinates>15.13245,58.32283,0</coordinates></Point>
      </Placemark>
      <Placemark>
        <name><![CDATA[Pressbyrån Våghustorget, Örebro]]></name>
        <description>Pressbyrån Våghustorget, Örebro, Örebro</description>
        <styleUrl>#icon-22</styleUrl>
        <Point><coordinates>15.209939,59.270036,0</coordinates></Point>
      </Placemark>
      <Placemark>
        <name><![CDATA[Pressbyrån Örebro Jvg]]></name>
        <description>Pressbyrån Örebro Jvg, Örebro</description>
        <styleUrl>#icon-22</styleUrl>
        <Point><coordinates>15.211617,59.278914,0</coordinates></Point>
      </Placemark>
      <Placemark>
        <name><![CDATA[Pressbyrån Örebro Drottninggatan]]></name>
        <description>Pressbyrån Örebro Drottninggatan, Örebro</description>
        <styleUrl>#icon-22</styleUrl>
        <Point><coordinates>15.212074,59.27243,0</coordinates></Point>
      </Placemark>
      <Placemark>
        <name><![CDATA[Pressbyrån Örebro Järntorget]]></name>
        <description>Pressbyrån Örebro Järntorget, Örebro</description>
        <styleUrl>#icon-22</styleUrl>
        <Point><coordinates>15.21375,59.27471,0</coordinates></Point>
      </Placemark>
      <Placemark>
        <name><![CDATA[Pressbyrån Örebro Universitetssjukhus]]></name>
        <description>Pressbyrån Örebro Universitetssjukhus, Örebro</description>
        <styleUrl>#icon-22</styleUrl>
        <Point><coordinates>15.227448,59.275825,0</coordinates></Point>
      </Placemark>
      <Placemark>
        <name><![CDATA[Pressbyrån Örebro Universitet]]></name>
        <description>Pressbyrån Örebro Universitet, Örebro</description>
        <styleUrl>#icon-22</styleUrl>
        <Point><coordinates>15.244142,59.253937,0</coordinates></Point>
      </Placemark>
      <Placemark>
        <name><![CDATA[Pressbyrån Ronneby Jvg]]></name>
        <description>Pressbyrån Ronneby Jvg, Ronneby</description>
        <styleUrl>#icon-22</styleUrl>
        <Point><coordinates>15.28307,56.20706,0</coordinates></Point>
      </Placemark>
      <Placemark>
        <name><![CDATA[Pressbyrån Borlänge Jvg]]></name>
        <description>Pressbyrån Borlänge Jvg, Borlänge</description>
        <styleUrl>#icon-22</styleUrl>
        <Point><coordinates>15.426572,60.48299,0</coordinates></Point>
      </Placemark>
      <Placemark>
        <name><![CDATA[Pressbyrån Linköping Universitet]]></name>
        <description>Pressbyrån Linköping Universitet, Linköping</description>
        <styleUrl>#icon-22</styleUrl>
        <Point><coordinates>15.57757,58.39683,0</coordinates></Point>
      </Placemark>
      <Placemark>
        <name><![CDATA[Pressbyrån Universitetssjukhuset Linköping]]></name>
        <description>Pressbyrån Universitetssjukhuset Linköping, Linköping</description>
        <styleUrl>#icon-22</styleUrl>
        <Point><coordinates>15.621164,58.401925,0</coordinates></Point>
      </Placemark>
      <Placemark>
        <name><![CDATA[Pressbyrån Linköping Stora torget]]></name>
        <description>Pressbyrån Linköping Stora torget, Linköping</description>
        <styleUrl>#icon-22</styleUrl>
        <Point><coordinates>15.621507,58.410372,0</coordinates></Point>
      </Placemark>
      <Placemark>
        <name><![CDATA[Pressbyrån Trädgårdstorget Linköping]]></name>
        <description>Pressbyrån Trädgårdstorget Linköping, Linköping</description>
        <styleUrl>#icon-22</styleUrl>
        <Point><coordinates>15.6244,58.40933,0</coordinates></Point>
      </Placemark>
      <Placemark>
        <name><![CDATA[Pressbyrån Linköping Cstn]]></name>
        <description>Pressbyrån Linköping Cstn, Linköping</description>
        <styleUrl>#icon-22</styleUrl>
        <Point><coordinates>15.62619,58.41593,0</coordinates></Point>
      </Placemark>
      <Placemark>
        <name><![CDATA[Pressbyrån Knutpunkten Falun]]></name>
        <description>Pressbyrån Knutpunkten Falun, Falun</description>
        <styleUrl>#icon-22</styleUrl>
        <Point><coordinates>15.634543,60.604677,0</coordinates></Point>
      </Placemark>
      <Placemark>
        <name><![CDATA[Pressbyrån Finspång]]></name>
        <description>Pressbyrån Finspång, Finspång</description>
        <styleUrl>#icon-22</styleUrl>
        <Point><coordinates>15.772935,58.707964,0</coordinates></Point>
      </Placemark>
      <Placemark>
        <name><![CDATA[Pressbyrån Vrinnevisjukhuset, Norrköping]]></name>
        <description>Pressbyrån Vrinnevisjukhuset, Norrköping, Norrköping</description>
        <styleUrl>#icon-22</styleUrl>
        <Point><coordinates>16.178899,58.563253,0</coordinates></Point>
      </Placemark>
      <Placemark>
        <name><![CDATA[Pressbyrån Norrköping Cstn]]></name>
        <description>Pressbyrån Norrköping Cstn, Norrköping</description>
        <styleUrl>#icon-22</styleUrl>
        <Point><coordinates>16.184267,58.596361,0</coordinates></Point>
      </Placemark>
      <Placemark>
        <name><![CDATA[Pressbyrån Norrköping Repslagaregatan]]></name>
        <description>Pressbyrån Norrköping Repslagaregatan, Norrköping</description>
        <styleUrl>#icon-22</styleUrl>
        <Point><coordinates>16.188254,58.588713,0</coordinates></Point>
      </Placemark>
      <Placemark>
        <name><![CDATA[Pressbyrån Katrineholm Jvg]]></name>
        <description>Pressbyrån Katrineholm Jvg, Katrineholm</description>
        <styleUrl>#icon-22</styleUrl>
        <Point><coordinates>16.20687,58.99701,0</coordinates></Point>
      </Placemark>
      <Placemark>
        <name><![CDATA[Pressbyrån Norrköping Mirum Galleria]]></name>
        <description>Pressbyrån Norrköping Mirum Galleria, Norrköping</description>
        <styleUrl>#icon-22</styleUrl>
        <Point><coordinates>16.207666,58.572124,0</coordinates></Point>
      </Placemark>
      <Placemark>
        <name><![CDATA[Pressbyrån Norrköping Lindövägen]]></name>
        <description>Pressbyrån Norrköping Lindövägen, Norrköping</description>
        <styleUrl>#icon-22</styleUrl>
        <Point><coordinates>16.21157,58.59013,0</coordinates></Point>
      </Placemark>
      <Placemark>
        <name><![CDATA[Pressbyrån Kalmar Lasarett]]></name>
        <description>Pressbyrån Kalmar Lasarett, Kalmar</description>
        <styleUrl>#icon-22</styleUrl>
        <Point><coordinates>16.3322,56.6576,0</coordinates></Point>
      </Placemark>
      <Placemark>
        <name><![CDATA[Pressbyrån Kalmar Jvg]]></name>
        <description>Pressbyrån Kalmar Jvg, Kalmar</description>
        <styleUrl>#icon-22</styleUrl>
        <Point><coordinates>16.3609,56.6614,0</coordinates></Point>
      </Placemark>
      <Placemark>
        <name><![CDATA[Pressbyrån Kalmar Ö:a Sjögatan]]></name>
        <description>Pressbyrån Kalmar Ö:a Sjögatan, Kalmar</description>
        <styleUrl>#icon-22</styleUrl>
        <Point><coordinates>16.36522,56.66577,0</coordinates></Point>
      </Placemark>
      <Placemark>
        <name><![CDATA[Pressbyrån Bollnäs Jvg]]></name>
        <description>Pressbyrån Bollnäs Jvg, Bollnäs</description>
        <styleUrl>#icon-22</styleUrl>
        <Point><coordinates>16.392572,61.350206,0</coordinates></Point>
      </Placemark>
      <Placemark>
        <name><![CDATA[Pressbyrån Gamleby]]></name>
        <description>Pressbyrån Gamleby, Gamleby</description>
        <styleUrl>#icon-22</styleUrl>
        <Point><coordinates>16.40109,57.89744,0</coordinates></Point>
      </Placemark>
      <Placemark>
        <name><![CDATA[Pressbyrån Västerås Erikslund]]></name>
        <description>Pressbyrån Västerås Erikslund, Västerås</description>
        <styleUrl>#icon-22</styleUrl>
        <Point><coordinates>16.455685,59.608391,0</coordinates></Point>
      </Placemark>
      <Placemark>
        <name><![CDATA[Pressbyrån Tuna Park]]></name>
        <description>Pressbyrån Tuna Park, Eskilstuna</description>
        <styleUrl>#icon-22</styleUrl>
        <Point><coordinates>16.470114,59.371344,0</coordinates></Point>
      </Placemark>
      <Placemark>
        <name><![CDATA[Pressbyrån Eskilstuna Cstn]]></name>
        <description>Pressbyrån Eskilstuna Cstn, Eskilstuna</description>
        <styleUrl>#icon-22</styleUrl>
        <Point><coordinates>16.506483,59.369536,0</coordinates></Point>
      </Placemark>
      <Placemark>
        <name><![CDATA[Pressbyrån Västerås Vasagatan 13]]></name>
        <description>Pressbyrån Västerås Vasagatan 13, Västerås</description>
        <styleUrl>#icon-22</styleUrl>
        <Point><coordinates>16.545898,59.61034,0</coordinates></Point>
      </Placemark>
      <Placemark>
        <name><![CDATA[Pressbyrån Västerås Cstn]]></name>
        <description>Pressbyrån Västerås Cstn, Västerås</description>
        <styleUrl>#icon-22</styleUrl>
        <Point><coordinates>16.551762,59.607501,0</coordinates></Point>
      </Placemark>
      <Placemark>
        <name><![CDATA[Pressbyrån Borgholm]]></name>
        <description>Pressbyrån Borgholm, Borgholm</description>
        <styleUrl>#icon-22</styleUrl>
        <Point><coordinates>16.654894,56.879303,0</coordinates></Point>
      </Placemark>
      <Placemark>
        <name><![CDATA[Pressbyrån Skavsta Flygplats]]></name>
        <description>Pressbyrån Skavsta Flygplats, Nyköping</description>
        <styleUrl>#icon-22</styleUrl>
        <Point><coordinates>16.922046,58.784924,0</coordinates></Point>
      </Placemark>
      <Placemark>
        <name><![CDATA[Pressbyrån Nyköping Cstn]]></name>
        <description>Pressbyrån Nyköping Cstn, Nyköping</description>
        <styleUrl>#icon-22</styleUrl>
        <Point><coordinates>16.99519,58.75579,0</coordinates></Point>
      </Placemark>
      <Placemark>
        <name><![CDATA[Pressbyrån Nyköping Teatergatan]]></name>
        <description>Pressbyrån Nyköping Teatergatan, Nyköping</description>
        <styleUrl>#icon-22</styleUrl>
        <Point><coordinates>17.00177,58.7498,0</coordinates></Point>
      </Placemark>
      <Placemark>
        <name><![CDATA[Pressbyrån Nyköping V Storgatan]]></name>
        <description>Pressbyrån Nyköping V Storgatan, Nyköping</description>
        <styleUrl>#icon-22</styleUrl>
        <Point><coordinates>17.004057,58.751391,0</coordinates></Point>
      </Placemark>
      <Placemark>
        <name><![CDATA[Pressbyrån Sundsvall Köpmangatan]]></name>
        <description>Pressbyrån Sundsvall Köpmangatan, Sundsvall</description>
        <styleUrl>#icon-22</styleUrl>
        <Point><coordinates>17.30554,62.38911,0</coordinates></Point>
      </Placemark>
      <Placemark>
        <name><![CDATA[Pressbyrån Sundsvalls Sjukhus]]></name>
        <description>Pressbyrån Sundsvalls Sjukhus, Sundsvall</description>
        <styleUrl>#icon-22</styleUrl>
        <Point><coordinates>17.305637,62.40804,0</coordinates></Point>
      </Placemark>
      <Placemark>
        <name><![CDATA[Pressbyrån Sundsvall Esplanaden]]></name>
        <description>Pressbyrån Sundsvall Esplanaden, Sundsvall</description>
        <styleUrl>#icon-22</styleUrl>
        <Point><coordinates>17.308421,62.391839,0</coordinates></Point>
      </Placemark>
      <Placemark>
        <name><![CDATA[Pressbyrån Gnesta Jvg]]></name>
        <description>Pressbyrån Gnesta Jvg, Gnesta</description>
        <styleUrl>#icon-22</styleUrl>
        <Point><coordinates>17.311835,59.048139,0</coordinates></Point>
      </Placemark>
      <Placemark>
        <name><![CDATA[Pressbyrån Centralstationen Sundsvall]]></name>
        <description>Pressbyrån Centralstationen Sundsvall, Sundsvall</description>
        <styleUrl>#icon-22</styleUrl>
        <Point><coordinates>17.315609,62.386909,0</coordinates></Point>
      </Placemark>
      <Placemark>
        <name><![CDATA[Pressbyrån Sundsvall Birsta]]></name>
        <description>Pressbyrån Sundsvall Birsta, Sundsvall</description>
        <styleUrl>#icon-22</styleUrl>
        <Point><coordinates>17.334323,62.447089,0</coordinates></Point>
      </Placemark>
      <Placemark>
        <name><![CDATA[Pressbyrån Södertälje Cstn]]></name>
        <description>Pressbyrån Södertälje Cstn, Södertälje</description>
        <styleUrl>#icon-22</styleUrl>
        <Point><coordinates>17.626619,59.192494,0</coordinates></Point>
      </Placemark>
      <Placemark>
        <name><![CDATA[Pressbyrån Södertälje Torget]]></name>
        <description>Pressbyrån Södertälje Torget, Södertälje</description>
        <styleUrl>#icon-22</styleUrl>
        <Point><coordinates>17.626909,59.1974,0</coordinates></Point>
      </Placemark>
      <Placemark>
        <name><![CDATA[Pressbyrån Uppsala S:t Persgatan 10]]></name>
        <description>Pressbyrån Uppsala S:t Persgatan 10, Uppsala</description>
        <styleUrl>#icon-22</styleUrl>
        <Point><coordinates>17.6381,59.8598,0</coordinates></Point>
      </Placemark>
      <Placemark>
        <name><![CDATA[Pressbyrån Uppsala Stora Torget]]></name>
        <description>Pressbyrån Uppsala Stora Torget, Uppsala</description>
        <styleUrl>#icon-22</styleUrl>
        <Point><coordinates>17.638412,59.858466,0</coordinates></Point>
      </Placemark>
      <Placemark>
        <name><![CDATA[Pressbyrån Uppsala Svava Gallerian]]></name>
        <description>Pressbyrån Uppsala Svava Gallerian, Uppsala</description>
        <styleUrl>#icon-22</styleUrl>
        <Point><coordinates>17.644552,59.85813,0</coordinates></Point>
      </Placemark>
      <Placemark>
        <name><![CDATA[Pressbyrån Uppsala Cstn]]></name>
        <description>Pressbyrån Uppsala Cstn, Uppsala</description>
        <styleUrl>#icon-22</styleUrl>
        <Point><coordinates>17.645438,59.858588,0</coordinates></Point>
      </Placemark>
      <Placemark>
        <name><![CDATA[Pressbyrån Sigtuna Stora gatan]]></name>
        <description>Pressbyrån Sigtuna Stora gatan, Sigtuna</description>
        <styleUrl>#icon-22</styleUrl>
        <Point><coordinates>17.723372,59.617085,0</coordinates></Point>
      </Placemark>
      <Placemark>
        <name><![CDATA[Pressbyrån Hallunda C]]></name>
        <description>Pressbyrån Hallunda C, Norsborg</description>
        <styleUrl>#icon-22</styleUrl>
        <Point><coordinates>17.826498,59.244699,0</coordinates></Point>
      </Placemark>
      <Placemark>
        <name><![CDATA[Pressbyrån Jakobsbergs Järnvägsstation]]></name>
        <description>Pressbyrån Jakobsbergs Järnvägsstation, Järfälla</description>
        <styleUrl>#icon-22</styleUrl>
        <Point><coordinates>17.832891,59.423964,0</coordinates></Point>
      </Placemark>
      <Placemark>
        <name><![CDATA[Pressbyrån Tumba C]]></name>
        <description>Pressbyrån Tumba C, Tumba</description>
        <styleUrl>#icon-22</styleUrl>
        <Point><coordinates>17.834661,59.1986,0</coordinates></Point>
      </Placemark>
      <Placemark>
        <name><![CDATA[Pressbyrån Hässelby Gård T-bana]]></name>
        <description>Pressbyrån Hässelby Gård T-bana, Hässelby</description>
        <styleUrl>#icon-22</styleUrl>
        <Point><coordinates>17.843497,59.366966,0</coordinates></Point>
      </Placemark>
      <Placemark>
        <name><![CDATA[Pressbyrån Märsta Stn]]></name>
        <description>Pressbyrån Märsta Stn, Märsta</description>
        <styleUrl>#icon-22</styleUrl>
        <Point><coordinates>17.860905,59.628158,0</coordinates></Point>
      </Placemark>
      <Placemark>
        <name><![CDATA[Pressbyrån Barkarby Stora Torget]]></name>
        <description>Pressbyrån Barkarby Stora Torget, Järfälla</description>
        <styleUrl>#icon-22</styleUrl>
        <Point><coordinates>17.864593,59.413322,0</coordinates></Point>
      </Placemark>
      <Placemark>
        <name><![CDATA[Pressbyrån Vällingby T-ban]]></name>
        <description>Pressbyrån Vällingby T-ban, Vällingby</description>
        <styleUrl>#icon-22</styleUrl>
        <Point><coordinates>17.872276,59.363178,0</coordinates></Point>
      </Placemark>
      <Placemark>
        <name><![CDATA[Pressbyrån Spånga Stn]]></name>
        <description>Pressbyrån Spånga Stn, Spånga</description>
        <styleUrl>#icon-22</styleUrl>
        <Point><coordinates>17.897999,59.382835,0</coordinates></Point>
      </Placemark>
      <Placemark>
        <name><![CDATA[Pressbyrån Tullinge Gård]]></name>
        <description>Pressbyrån Tullinge Gård, Tullinge</description>
        <styleUrl>#icon-22</styleUrl>
        <Point><coordinates>17.898402,59.215954,0</coordinates></Point>
      </Placemark>
      <Placemark>
        <name><![CDATA[Pressbyrån Upplands-Väsby Jvg]]></name>
        <description>Pressbyrån Upplands-Väsby Jvg, Upplands Väsby</description>
        <styleUrl>#icon-22</styleUrl>
        <Point><coordinates>17.8996,59.5218,0</coordinates></Point>
      </Placemark>
      <Placemark>
        <name><![CDATA[Pressbyrån Tullinge Station]]></name>
        <description>Pressbyrån Tullinge Station, Tullinge</description>
        <styleUrl>#icon-22</styleUrl>
        <Point><coordinates>17.903091,59.20522,0</coordinates></Point>
      </Placemark>
      <Placemark>
        <name><![CDATA[Pressbyrån Skärholmen T-bana]]></name>
        <description>Pressbyrån Skärholmen T-bana, Skärholmen</description>
        <styleUrl>#icon-22</styleUrl>
        <Point><coordinates>17.90705,59.277149,0</coordinates></Point>
      </Placemark>
      <Placemark>
        <name><![CDATA[Pressbyrån Skärholmen C]]></name>
        <description>Pressbyrån Skärholmen C, Skärholmen</description>
        <styleUrl>#icon-22</styleUrl>
        <Point><coordinates>17.907661,59.276127,0</coordinates></Point>
      </Placemark>
      <Placemark>
        <name><![CDATA[Pressbyrån Väsby Centrum]]></name>
        <description>Pressbyrån Väsby Centrum, Upplands Väsby</description>
        <styleUrl>#icon-22</styleUrl>
        <Point><coordinates>17.91148,59.518742,0</coordinates></Point>
      </Placemark>
      <Placemark>
        <name><![CDATA[Pressbyrån Arlanda Sky City]]></name>
        <description>Pressbyrån Arlanda Sky City, Stockholm-Arlanda</description>
        <styleUrl>#icon-22</styleUrl>
        <Point><coordinates>17.929258,59.649021,0</coordinates></Point>
      </Placemark>
      <Placemark>
        <name><![CDATA[Pressbyrån Arlanda Reguljär]]></name>
        <description>Pressbyrån Arlanda Reguljär, Stockholm-Arlanda</description>
        <styleUrl>#icon-22</styleUrl>
        <Point><coordinates>17.929559,59.650533,0</coordinates></Point>
      </Placemark>
      <Placemark>
        <name><![CDATA[Pressbyrån Arlanda ANK/Utrikeshallen]]></name>
        <description>Pressbyrån Arlanda ANK/Utrikeshallen, Stockholm-Arlanda</description>
        <styleUrl>#icon-22</styleUrl>
        <Point><coordinates>17.931372,59.651861,0</coordinates></Point>
      </Placemark>
      <Placemark>
        <name><![CDATA[Pressbyrån Arlanda T5]]></name>
        <description>Pressbyrån Arlanda T5, Stockholm-Arlanda</description>
        <styleUrl>#icon-22</styleUrl>
        <Point><coordinates>17.931482,59.652419,0</coordinates></Point>
      </Placemark>
      <Placemark>
        <name><![CDATA[Pressbyrån Bredäng T-ban]]></name>
        <description>Pressbyrån Bredäng T-ban, Skärholmen</description>
        <styleUrl>#icon-22</styleUrl>
        <Point><coordinates>17.93385,59.294797,0</coordinates></Point>
      </Placemark>
      <Placemark>
        <name><![CDATA[Pressbyrån Huddinge Sjh]]></name>
        <description>Pressbyrån Huddinge Sjh, Huddinge</description>
        <styleUrl>#icon-22</styleUrl>
        <Point><coordinates>17.936082,59.221187,0</coordinates></Point>
      </Placemark>
      <Placemark>
        <name><![CDATA[Pressbyrån Arlanda airside A-piren terminal 5]]></name>
        <description>Pressbyrån Arlanda airside A-piren terminal 5, Stockholm-Arlanda</description>
        <styleUrl>#icon-22</styleUrl>
        <Point><coordinates>17.93692,59.65313,0</coordinates></Point>
      </Placemark>
      <Placemark>
        <name><![CDATA[Pressbyrån Brommaplan T-ban]]></name>
        <description>Pressbyrån Brommaplan T-ban, Bromma</description>
        <styleUrl>#icon-22</styleUrl>
        <Point><coordinates>17.938879,59.338425,0</coordinates></Point>
      </Placemark>
      <Placemark>
        <name><![CDATA[Pressbyrån Kista C T-bana]]></name>
        <description>Pressbyrån Kista C T-bana, Kista</description>
        <styleUrl>#icon-22</styleUrl>
        <Point><coordinates>17.942498,59.402877,0</coordinates></Point>
      </Placemark>
      <Placemark>
        <name><![CDATA[Pressbyrån Kista Galleria Brandesgången]]></name>
        <description>Pressbyrån Kista Galleria Brandesgången, Kista</description>
        <styleUrl>#icon-22</styleUrl>
        <Point><coordinates>17.942674,59.403998,0</coordinates></Point>
      </Placemark>
      <Placemark>
        <name><![CDATA[Pressbyrån Bromma flygplats]]></name>
        <description>Pressbyrån Bromma flygplats, Bromma</description>
        <styleUrl>#icon-22</styleUrl>
        <Point><coordinates>17.942722,59.354812,0</coordinates></Point>
      </Placemark>
      <Placemark>
        <name><![CDATA[Pressbyrån Flemingsberg Stn]]></name>
        <description>Pressbyrån Flemingsberg Stn, Huddinge</description>
        <styleUrl>#icon-22</styleUrl>
        <Point><coordinates>17.945673,59.218288,0</coordinates></Point>
      </Placemark>
      <Placemark>
        <name><![CDATA[Pressbyrån Kista C/Kistagången]]></name>
        <description>Pressbyrån Kista C/Kistagången, Kista</description>
        <styleUrl>#icon-22</styleUrl>
        <Point><coordinates>17.946156,59.403145,0</coordinates></Point>
      </Placemark>
      <Placemark>
        <name><![CDATA[Pressbyrån Sollentuna C]]></name>
        <description>Pressbyrån Sollentuna C, Sollentuna</description>
        <styleUrl>#icon-22</styleUrl>
        <Point><coordinates>17.951458,59.427938,0</coordinates></Point>
      </Placemark>
      <Placemark>
        <name><![CDATA[Pressbyrån Fruängen T-bana]]></name>
        <description>Pressbyrån Fruängen T-bana, Hägersten</description>
        <styleUrl>#icon-22</styleUrl>
        <Point><coordinates>17.965001,59.285934,0</coordinates></Point>
      </Placemark>
      <Placemark>
        <name><![CDATA[Pressbyrån Sundbyberg Jvg]]></name>
        <description>Pressbyrån Sundbyberg Jvg, Sundbyberg</description>
        <styleUrl>#icon-22</styleUrl>
        <Point><coordinates>17.970734,59.360676,0</coordinates></Point>
      </Placemark>
      <Placemark>
        <name><![CDATA[Pressbyrån Sundbyberg T-ban]]></name>
        <description>Pressbyrån Sundbyberg T-ban, Sundbyberg</description>
        <styleUrl>#icon-22</styleUrl>
        <Point><coordinates>17.972033,59.360943,0</coordinates></Point>
      </Placemark>
      <Placemark>
        <name><![CDATA[Pressbyrån Solna Strand]]></name>
        <description>Pressbyrån Solna Strand, Solna</description>
        <styleUrl>#icon-22</styleUrl>
        <Point><coordinates>17.973415,59.354703,0</coordinates></Point>
      </Placemark>
      <Placemark>
        <name><![CDATA[Pressbyrån Axelsberg T-bana]]></name>
        <description>Pressbyrån Axelsberg T-bana, Hägersten</description>
        <styleUrl>#icon-22</styleUrl>
        <Point><coordinates>17.975419,59.304413,0</coordinates></Point>
      </Placemark>
      <Placemark>
        <name><![CDATA[Pressbyrån Alviks Torg]]></name>
        <description>Pressbyrån Alviks Torg, Bromma</description>
        <styleUrl>#icon-22</styleUrl>
        <Point><coordinates>17.980193,59.333096,0</coordinates></Point>
      </Placemark>
      <Placemark>
        <name><![CDATA[Pressbyrån Huddinge C]]></name>
        <description>Pressbyrån Huddinge C, Huddinge</description>
        <styleUrl>#icon-22</styleUrl>
        <Point><coordinates>17.980317,59.236479,0</coordinates></Point>
      </Placemark>
      <Placemark>
        <name><![CDATA[Pressbyrån Alvik T-ban]]></name>
        <description>Pressbyrån Alvik T-ban, Bromma</description>
        <styleUrl>#icon-22</styleUrl>
        <Point><coordinates>17.980513,59.333533,0</coordinates></Point>
      </Placemark>
      <Placemark>
        <name><![CDATA[Pressbyrån Örnsberg T-bana]]></name>
        <description>Pressbyrån Örnsberg T-bana, Hägersten</description>
        <styleUrl>#icon-22</styleUrl>
        <Point><coordinates>17.989211,59.305511,0</coordinates></Point>
      </Placemark>
      <Placemark>
        <name><![CDATA[Pressbyrån Telefonplan T-ban]]></name>
        <description>Pressbyrån Telefonplan T-ban, Hägersten</description>
        <styleUrl>#icon-22</styleUrl>
        <Point><coordinates>17.99707,59.298382,0</coordinates></Point>
      </Placemark>
      <Placemark>
        <name><![CDATA[Pressbyrån Solna  T-bana]]></name>
        <description>Pressbyrån Solna  T-bana, Solna</description>
        <styleUrl>#icon-22</styleUrl>
        <Point><coordinates>17.998772,59.358719,0</coordinates></Point>
      </Placemark>
      <Placemark>
        <name><![CDATA[Pressbyrån Kristineberg T-bana]]></name>
        <description>Pressbyrån Kristineberg T-bana, Stockholm</description>
        <styleUrl>#icon-22</styleUrl>
        <Point><coordinates>18.003073,59.332752,0</coordinates></Point>
      </Placemark>
      <Placemark>
        <name><![CDATA[Pressbyrån Västra Skogen T-ban]]></name>
        <description>Pressbyrån Västra Skogen T-ban, Solna</description>
        <styleUrl>#icon-22</styleUrl>
        <Point><coordinates>18.004704,59.348071,0</coordinates></Point>
      </Placemark>
      <Placemark>
        <name><![CDATA[Pressbyrån Solna Station]]></name>
        <description>Pressbyrån Solna Station, Solna</description>
        <styleUrl>#icon-22</styleUrl>
        <Point><coordinates>18.008695,59.368297,0</coordinates></Point>
      </Placemark>
      <Placemark>
        <name><![CDATA[Pressbyrån Älvsjö Torg]]></name>
        <description>Pressbyrån Älvsjö Torg, Älvsjö</description>
        <styleUrl>#icon-22</styleUrl>
        <Point><coordinates>18.009107,59.278821,0</coordinates></Point>
      </Placemark>
      <Placemark>
        <name><![CDATA[Pressbyrån Sthlm Strandbergsgatan]]></name>
        <description>Pressbyrån Sthlm Strandbergsgatan, Stockholm</description>
        <styleUrl>#icon-22</styleUrl>
        <Point><coordinates>18.010664,59.338355,0</coordinates></Point>
      </Placemark>
      <Placemark>
        <name><![CDATA[Pressbyrån Älvsjö Jvg]]></name>
        <description>Pressbyrån Älvsjö Jvg, Älvsjö</description>
        <styleUrl>#icon-22</styleUrl>
        <Point><coordinates>18.011039,59.278434,0</coordinates></Point>
      </Placemark>
      <Placemark>
        <name><![CDATA[Pressbyrån Älvsjö Mässan]]></name>
        <description>Pressbyrån Älvsjö Mässan, Älvsjö</description>
        <styleUrl>#icon-22</styleUrl>
        <Point><coordinates>18.015209,59.277643,0</coordinates></Point>
      </Placemark>
      <Placemark>
        <name><![CDATA[Pressbyrån Sthlm Thorildsplan]]></name>
        <description>Pressbyrån Sthlm Thorildsplan, Stockholm</description>
        <styleUrl>#icon-22</styleUrl>
        <Point><coordinates>18.015454,59.33204,0</coordinates></Point>
      </Placemark>
      <Placemark>
        <name><![CDATA[Pressbyrån Liljeholmen T-ban]]></name>
        <description>Pressbyrån Liljeholmen T-ban, Stockholm</description>
        <styleUrl>#icon-22</styleUrl>
        <Point><coordinates>18.022078,59.310226,0</coordinates></Point>
      </Placemark>
      <Placemark>
        <name><![CDATA[Pressbyrån Rågsved T-bana]]></name>
        <description>Pressbyrån Rågsved T-bana, Bandhagen</description>
        <styleUrl>#icon-22</styleUrl>
        <Point><coordinates>18.027838,59.256491,0</coordinates></Point>
      </Placemark>
      <Placemark>
        <name><![CDATA[Pressbyrån Sthlm Marievik]]></name>
        <description>Pressbyrån Sthlm Marievik, Stockholm</description>
        <styleUrl>#icon-22</styleUrl>
        <Point><coordinates>18.028148,59.309633,0</coordinates></Point>
      </Placemark>
      <Placemark>
        <name><![CDATA[Pressbyrån Fridhemsplan T-bana]]></name>
        <description>Pressbyrån Fridhemsplan T-bana, Stockholm</description>
        <styleUrl>#icon-22</styleUrl>
        <Point><coordinates>18.029455,59.332281,0</coordinates></Point>
      </Placemark>
      <Placemark>
        <name><![CDATA[Pressbyrån Nya Karolinska]]></name>
        <description>Pressbyrån Nya Karolinska, Solna</description>
        <styleUrl>#icon-22</styleUrl>
        <Point><coordinates>18.029748,59.348469,0</coordinates></Point>
      </Placemark>
      <Placemark>
        <name><![CDATA[Pressbyrån Årstaberg]]></name>
        <description>Pressbyrån Årstaberg, Årsta</description>
        <styleUrl>#icon-22</styleUrl>
        <Point><coordinates>18.030325,59.299592,0</coordinates></Point>
      </Placemark>
      <Placemark>
        <name><![CDATA[Pressbyrån Västermalmsgallerian]]></name>
        <description>Pressbyrån Västermalmsgallerian, Stockholm</description>
        <styleUrl>#icon-22</styleUrl>
        <Point><coordinates>18.031754,59.33459,0</coordinates></Point>
      </Placemark>
      <Placemark>
        <name><![CDATA[Pressbyrån S:t Eriks Ögonsjukhus]]></name>
        <description>Pressbyrån S:t Eriks Ögonsjukhus, Solna</description>
        <styleUrl>#icon-22</styleUrl>
        <Point><coordinates>18.032407,59.34853,0</coordinates></Point>
      </Placemark>
      <Placemark>
        <name><![CDATA[Pressbyrån Fridhemsplan T-ba/Fleminggatan]]></name>
        <description>Pressbyrån Fridhemsplan T-ba/Fleminggatan, Stockholm</description>
        <styleUrl>#icon-22</styleUrl>
        <Point><coordinates>18.03247,59.334153,0</coordinates></Point>
      </Placemark>
      <Placemark>
        <name><![CDATA[Pressbyrån Sthlm Karolinska Sjh Entrén]]></name>
        <description>Pressbyrån Sthlm Karolinska Sjh Entrén, Stockholm</description>
        <styleUrl>#icon-22</styleUrl>
        <Point><coordinates>18.032717,59.352359,0</coordinates></Point>
      </Placemark>
      <Placemark>
        <name><![CDATA[Pressbyrån Hornstull T-bana]]></name>
        <description>Pressbyrån Hornstull T-bana, Stockholm</description>
        <styleUrl>#icon-22</styleUrl>
        <Point><coordinates>18.03422,59.31577,0</coordinates></Point>
      </Placemark>
      <Placemark>
        <name><![CDATA[Pressbyrån S:t Eriksplan T-ban/Rörstrandsg]]></name>
        <description>Pressbyrån S:t Eriksplan T-ban/Rörstrandsg, Stockholm</description>
        <styleUrl>#icon-22</styleUrl>
        <Point><coordinates>18.03655,59.33962,0</coordinates></Point>
      </Placemark>
      <Placemark>
        <name><![CDATA[Pressbyrån Mörby C]]></name>
        <description>Pressbyrån Mörby C, Danderyd</description>
        <styleUrl>#icon-22</styleUrl>
        <Point><coordinates>18.036557,59.398167,0</coordinates></Point>
      </Placemark>
      <Placemark>
        <name><![CDATA[Pressbyrån S:t Eriksplan T-bana/Torsgatan]]></name>
        <description>Pressbyrån S:t Eriksplan T-bana/Torsgatan, Stockholm</description>
        <styleUrl>#icon-22</styleUrl>
        <Point><coordinates>18.0377,59.3415,0</coordinates></Point>
      </Placemark>
      <Placemark>
        <name><![CDATA[Pressbyrån Ger. Danderyd Sjukhus]]></name>
        <description>Pressbyrån Ger. Danderyd Sjukhus, Danderyd</description>
        <styleUrl>#icon-22</styleUrl>
        <Point><coordinates>18.038735,59.391986,0</coordinates></Point>
      </Placemark>
      <Placemark>
        <name><![CDATA[Pressbyrån Danderyds Sjh Entré]]></name>
        <description>Pressbyrån Danderyds Sjh Entré, Danderyd</description>
        <styleUrl>#icon-22</styleUrl>
        <Point><coordinates>18.039832,59.392186,0</coordinates></Point>
      </Placemark>
      <Placemark>
        <name><![CDATA[Pressbyrån Rådhuset T-bana]]></name>
        <description>Pressbyrån Rådhuset T-bana, Stockholm</description>
        <styleUrl>#icon-22</styleUrl>
        <Point><coordinates>18.041997,59.330344,0</coordinates></Point>
      </Placemark>
      <Placemark>
        <name><![CDATA[Pressbyrån Högdalen T-bana]]></name>
        <description>Pressbyrån Högdalen T-bana, Bandhagen</description>
        <styleUrl>#icon-22</styleUrl>
        <Point><coordinates>18.04259,59.263503,0</coordinates></Point>
      </Placemark>
      <Placemark>
        <name><![CDATA[Pressbyrån Zinkensdamm T-bana]]></name>
        <description>Pressbyrån Zinkensdamm T-bana, Stockholm</description>
        <styleUrl>#icon-22</styleUrl>
        <Point><coordinates>18.050221,59.317765,0</coordinates></Point>
      </Placemark>
      <Placemark>
        <name><![CDATA[Pressbyrån Odenplan T-ban]]></name>
        <description>Pressbyrån Odenplan T-ban, Stockholm</description>
        <styleUrl>#icon-22</styleUrl>
        <Point><coordinates>18.05051,59.342835,0</coordinates></Point>
      </Placemark>
      <Placemark>
        <name><![CDATA[Pressbyrån Sthlm Universitetet T-ban]]></name>
        <description>Pressbyrån Sthlm Universitetet T-ban, Stockholm</description>
        <styleUrl>#icon-22</styleUrl>
        <Point><coordinates>18.05367,59.36534,0</coordinates></Point>
      </Placemark>
      <Placemark>
        <name><![CDATA[Pressbyrån Sthlm Cityterminalen]]></name>
        <description>Pressbyrån Sthlm Cityterminalen, Stockholm</description>
        <styleUrl>#icon-22</styleUrl>
        <Point><coordinates>18.05642,59.33145,0</coordinates></Point>
      </Placemark>
      <Placemark>
        <name><![CDATA[Pressbyrån Sthlm Södersjukhuset]]></name>
        <description>Pressbyrån Sthlm Södersjukhuset, Stockholm</description>
        <styleUrl>#icon-22</styleUrl>
        <Point><coordinates>18.056695,59.310012,0</coordinates></Point>
      </Placemark>
      <Placemark>
        <name><![CDATA[Pressbyrån Sthlm  Cstn  Övre Hallen]]></name>
        <description>Pressbyrån Sthlm  Cstn  Övre Hallen, Stockholm</description>
        <styleUrl>#icon-22</styleUrl>
        <Point><coordinates>18.056792,59.330388,0</coordinates></Point>
      </Placemark>
      <Placemark>
        <name><![CDATA[Pressbyrån Sthlm Sveavägen 67A]]></name>
        <description>Pressbyrån Sthlm Sveavägen 67A, Stockholm</description>
        <styleUrl>#icon-22</styleUrl>
        <Point><coordinates>18.0569,59.3422,0</coordinates></Point>
      </Placemark>
      <Placemark>
        <name><![CDATA[Pressbyrån Sthlm Cstn Norra Hallen]]></name>
        <description>Pressbyrån Sthlm Cstn Norra Hallen, Stockholm</description>
        <styleUrl>#icon-22</styleUrl>
        <Point><coordinates>18.057564,59.330951,0</coordinates></Point>
      </Placemark>
      <Placemark>
        <name><![CDATA[Pressbyrån Sthlm Cstn Stora Hallen]]></name>
        <description>Pressbyrån Sthlm Cstn Stora Hallen, Stockholm</description>
        <styleUrl>#icon-22</styleUrl>
        <Point><coordinates>18.057672,59.330277,0</coordinates></Point>
      </Placemark>
      <Placemark>
        <name><![CDATA[Pressbyrån Mariatorget T-bana Polishuset]]></name>
        <description>Pressbyrån Mariatorget T-bana Polishuset, Stockholm</description>
        <styleUrl>#icon-22</styleUrl>
        <Point><coordinates>18.057817,59.317293,0</coordinates></Point>
      </Placemark>
      <Placemark>
        <name><![CDATA[Pressbyrån Albano]]></name>
        <description>Pressbyrån Albano, Stockholm</description>
        <styleUrl>#icon-22</styleUrl>
        <Point><coordinates>18.058487,59.355278,0</coordinates></Point>
      </Placemark>
      <Placemark>
        <name><![CDATA[PBX Albano]]></name>
        <description>PBX Albano, Stockholm</description>
        <styleUrl>#icon-22</styleUrl>
        <Point><coordinates>18.058567,59.355288,0</coordinates></Point>
      </Placemark>
      <Placemark>
        <name><![CDATA[Pressbyrån Universitet A-huset]]></name>
        <description>Pressbyrån Universitet A-huset, Stockholm</description>
        <styleUrl>#icon-22</styleUrl>
        <Point><coordinates>18.058627,59.362606,0</coordinates></Point>
      </Placemark>
      <Placemark>
        <name><![CDATA[Pressbyrån Citybanan]]></name>
        <description>Pressbyrån Citybanan, Stockholm</description>
        <styleUrl>#icon-22</styleUrl>
        <Point><coordinates>18.058691,59.330554,0</coordinates></Point>
      </Placemark>
      <Placemark>
        <name><![CDATA[Pressbyrån Rådmansgatan T-ban]]></name>
        <description>Pressbyrån Rådmansgatan T-ban, Stockholm</description>
        <styleUrl>#icon-22</styleUrl>
        <Point><coordinates>18.05876,59.34046,0</coordinates></Point>
      </Placemark>
      <Placemark>
        <name><![CDATA[Pressbyrån Nedre Hallen]]></name>
        <description>Pressbyrån Nedre Hallen, Stockholm</description>
        <styleUrl>#icon-22</styleUrl>
        <Point><coordinates>18.058906,59.330289,0</coordinates></Point>
      </Placemark>
      <Placemark>
        <name><![CDATA[Pressbyrån Sthlm Central/ Vasagatan]]></name>
        <description>Pressbyrån Sthlm Central/ Vasagatan, Stockholm</description>
        <styleUrl>#icon-22</styleUrl>
        <Point><coordinates>18.059367,59.33105,0</coordinates></Point>
      </Placemark>
      <Placemark>
        <name><![CDATA[Pressbyrån Klarabergsg, T-baneplan]]></name>
        <description>Pressbyrån Klarabergsg, T-baneplan, Stockholm</description>
        <styleUrl>#icon-22</styleUrl>
        <Point><coordinates>18.06002,59.332527,0</coordinates></Point>
      </Placemark>
      <Placemark>
        <name><![CDATA[Pressbyrån Drottninggatan 65, 111 36 Stockholm]]></name>
        <description>Pressbyrån Drottninggatan 65, 111 36 Stockholm, Stockholm</description>
        <styleUrl>#icon-22</styleUrl>
        <Point><coordinates>18.060259,59.334942,0</coordinates></Point>
      </Placemark>
      <Placemark>
        <name><![CDATA[Pressbyrån Klarabergsgatan 29 Stockholm]]></name>
        <description>Pressbyrån Klarabergsgatan 29 Stockholm, Stockholm</description>
        <styleUrl>#icon-22</styleUrl>
        <Point><coordinates>18.062168,59.332096,0</coordinates></Point>
      </Placemark>
      <Placemark>
        <name><![CDATA[Pressbyrån Hötorget T-bana/Olof Palmes gata]]></name>
        <description>Pressbyrån Hötorget T-bana/Olof Palmes gata, Stockholm</description>
        <styleUrl>#icon-22</styleUrl>
        <Point><coordinates>18.06251,59.336475,0</coordinates></Point>
      </Placemark>
      <Placemark>
        <name><![CDATA[Pressbyrån Hötorget T-ban/Oxtorgsgatan]]></name>
        <description>Pressbyrån Hötorget T-ban/Oxtorgsgatan, Stockholm</description>
        <styleUrl>#icon-22</styleUrl>
        <Point><coordinates>18.0627,59.334995,0</coordinates></Point>
      </Placemark>
      <Placemark>
        <name><![CDATA[Pressbyrån Sthlm Södra Station]]></name>
        <description>Pressbyrån Sthlm Södra Station, Stockholm</description>
        <styleUrl>#icon-22</styleUrl>
        <Point><coordinates>18.06279,59.314102,0</coordinates></Point>
      </Placemark>
      <Placemark>
        <name><![CDATA[Pressbyrån Hötorget T-bana Krysset]]></name>
        <description>Pressbyrån Hötorget T-bana Krysset, Stockholm</description>
        <styleUrl>#icon-22</styleUrl>
        <Point><coordinates>18.062811,59.3347,0</coordinates></Point>
      </Placemark>
      <Placemark>
        <name><![CDATA[Pressbyrån Mariatorget T-bana Swedenborgsgatan]]></name>
        <description>Pressbyrån Mariatorget T-bana Swedenborgsgatan, Stockholm</description>
        <styleUrl>#icon-22</styleUrl>
        <Point><coordinates>18.063256,59.316942,0</coordinates></Point>
      </Placemark>
      <Placemark>
        <name><![CDATA[Pressbyrån Sthlm Sergelgatan]]></name>
        <description>Pressbyrån Sthlm Sergelgatan, Stockholm</description>
        <styleUrl>#icon-22</styleUrl>
        <Point><coordinates>18.06445,59.33274,0</coordinates></Point>
      </Placemark>
      <Placemark>
        <name><![CDATA[Pressbyrån Hamngatan 32, Stockholm]]></name>
        <description>Pressbyrån Hamngatan 32, Stockholm, Stockholm</description>
        <styleUrl>#icon-22</styleUrl>
        <Point><coordinates>18.066392,59.332626,0</coordinates></Point>
      </Placemark>
      <Placemark>
        <name><![CDATA[Pressbyrån Gamla Stan T-ban]]></name>
        <description>Pressbyrån Gamla Stan T-ban, Stockholm</description>
        <styleUrl>#icon-22</styleUrl>
        <Point><coordinates>18.067554,59.323037,0</coordinates></Point>
      </Placemark>
      <Placemark>
        <name><![CDATA[Pressbyrån Sthlm Kungsgatan 19-21]]></name>
        <description>Pressbyrån Sthlm Kungsgatan 19-21, Stockholm</description>
        <styleUrl>#icon-22</styleUrl>
        <Point><coordinates>18.067669,59.33597,0</coordinates></Point>
      </Placemark>
      <Placemark>
        <name><![CDATA[Pressbyrån Gallerian, Urban Escape, Stockholm]]></name>
        <description>Pressbyrån Gallerian, Urban Escape, Stockholm, Stockholm</description>
        <styleUrl>#icon-22</styleUrl>
        <Point><coordinates>18.067971,59.331015,0</coordinates></Point>
      </Placemark>
      <Placemark>
        <name><![CDATA[Pressbyrån Västerlånggatan]]></name>
        <description>Pressbyrån Västerlånggatan, Stockholm</description>
        <styleUrl>#icon-22</styleUrl>
        <Point><coordinates>18.068918,59.32555,0</coordinates></Point>
      </Placemark>
      <Placemark>
        <name><![CDATA[Pressbyrån Sthlm Tekniska Högskolan T-bana]]></name>
        <description>Pressbyrån Sthlm Tekniska Högskolan T-bana, Stockholm</description>
        <styleUrl>#icon-22</styleUrl>
        <Point><coordinates>18.071759,59.345855,0</coordinates></Point>
      </Placemark>
      <Placemark>
        <name><![CDATA[Pressbyrån Slussen T-ban Götgatan]]></name>
        <description>Pressbyrån Slussen T-ban Götgatan, Stockholm</description>
        <styleUrl>#icon-22</styleUrl>
        <Point><coordinates>18.071855,59.317674,0</coordinates></Point>
      </Placemark>
      <Placemark>
        <name><![CDATA[Press-Stop Sthlm Götgatan]]></name>
        <description>Press-Stop Sthlm Götgatan, Stockholm</description>
        <styleUrl>#icon-22</styleUrl>
        <Point><coordinates>18.072111,59.316593,0</coordinates></Point>
      </Placemark>
      <Placemark>
        <name><![CDATA[Pressbyrån Slussen T-bana Södermalmstorg]]></name>
        <description>Pressbyrån Slussen T-bana Södermalmstorg, Stockholm</description>
        <styleUrl>#icon-22</styleUrl>
        <Point><coordinates>18.072419,59.319575,0</coordinates></Point>
      </Placemark>
      <Placemark>
        <name><![CDATA[Pressbyrån Hamngatan 11]]></name>
        <description>Pressbyrån Hamngatan 11, Stockholm</description>
        <styleUrl>#icon-22</styleUrl>
        <Point><coordinates>18.072971,59.332803,0</coordinates></Point>
      </Placemark>
      <Placemark>
        <name><![CDATA[Pressbyrån Täby C Stortorget]]></name>
        <description>Pressbyrån Täby C Stortorget, Täby</description>
        <styleUrl>#icon-22</styleUrl>
        <Point><coordinates>18.073014,59.44429,0</coordinates></Point>
      </Placemark>
      <Placemark>
        <name><![CDATA[Pressbyrån Slussen Saltsjöbanan, Stockholm]]></name>
        <description>Pressbyrån Slussen Saltsjöbanan, Stockholm, Stockholm</description>
        <styleUrl>#icon-22</styleUrl>
        <Point><coordinates>18.073166,59.319677,0</coordinates></Point>
      </Placemark>
      <Placemark>
        <name><![CDATA[Pressbyrån Medborgarplatsen T-ban]]></name>
        <description>Pressbyrån Medborgarplatsen T-ban, Stockholm</description>
        <styleUrl>#icon-22</styleUrl>
        <Point><coordinates>18.07355,59.314346,0</coordinates></Point>
      </Placemark>
      <Placemark>
        <name><![CDATA[Pressbyrån Östermalmstorg T-bana / Grev Turegatan]]></name>
        <description>Pressbyrån Östermalmstorg T-bana / Grev Turegatan, Stockholm</description>
        <styleUrl>#icon-22</styleUrl>
        <Point><coordinates>18.074119,59.335313,0</coordinates></Point>
      </Placemark>
      <Placemark>
        <name><![CDATA[Pressbyrån Sthlm Blasieholmen]]></name>
        <description>Pressbyrån Sthlm Blasieholmen, Stockholm</description>
        <styleUrl>#icon-22</styleUrl>
        <Point><coordinates>18.074955,59.329495,0</coordinates></Point>
      </Placemark>
      <Placemark>
        <name><![CDATA[Pressbyrån Sthlm Götgatan 94]]></name>
        <description>Pressbyrån Sthlm Götgatan 94, Stockholm</description>
        <styleUrl>#icon-22</styleUrl>
        <Point><coordinates>18.075433,59.309718,0</coordinates></Point>
      </Placemark>
      <Placemark>
        <name><![CDATA[Pressbyrån Sthlm Ringen Köpcentrum]]></name>
        <description>Pressbyrån Sthlm Ringen Köpcentrum, Stockholm</description>
        <styleUrl>#icon-22</styleUrl>
        <Point><coordinates>18.07548,59.30764,0</coordinates></Point>
      </Placemark>
      <Placemark>
        <name><![CDATA[Pressbyrån Vallentuna]]></name>
        <description>Pressbyrån Vallentuna, Vallentuna</description>
        <styleUrl>#icon-22</styleUrl>
        <Point><coordinates>18.078775,59.534008,0</coordinates></Point>
      </Placemark>
      <Placemark>
        <name><![CDATA[Pressbyrån Östermalmstorg T-ban/Sibyllegatan]]></name>
        <description>Pressbyrån Östermalmstorg T-ban/Sibyllegatan, Stockholm</description>
        <styleUrl>#icon-22</styleUrl>
        <Point><coordinates>18.080124,59.336742,0</coordinates></Point>
      </Placemark>
      <Placemark>
        <name><![CDATA[Pressbyrån Gullmarsplan Yttre]]></name>
        <description>Pressbyrån Gullmarsplan Yttre, Johanneshov</description>
        <styleUrl>#icon-22</styleUrl>
        <Point><coordinates>18.080471,59.298982,0</coordinates></Point>
      </Placemark>
      <Placemark>
        <name><![CDATA[Pressbyrån Gullmarsplan T-bana]]></name>
        <description>Pressbyrån Gullmarsplan T-bana, Johanneshov</description>
        <styleUrl>#icon-22</styleUrl>
        <Point><coordinates>18.081307,59.299053,0</coordinates></Point>
      </Placemark>
      <Placemark>
        <name><![CDATA[Pressbyrån Globen C]]></name>
        <description>Pressbyrån Globen C, Johanneshov</description>
        <styleUrl>#icon-22</styleUrl>
        <Point><coordinates>18.081415,59.293383,0</coordinates></Point>
      </Placemark>
      <Placemark>
        <name><![CDATA[Pressbyrån Östermalm]]></name>
        <description>Pressbyrån Östermalm, Stockholm</description>
        <styleUrl>#icon-22</styleUrl>
        <Point><coordinates>18.082219,59.339298,0</coordinates></Point>
      </Placemark>
      <Placemark>
        <name><![CDATA[Pressbyrån Hökarängen T-ban]]></name>
        <description>Pressbyrån Hökarängen T-ban, Farsta</description>
        <styleUrl>#icon-22</styleUrl>
        <Point><coordinates>18.082541,59.25784,0</coordinates></Point>
      </Placemark>
      <Placemark>
        <name><![CDATA[Pressbyrån Karlaplan T-ban S:a]]></name>
        <description>Pressbyrån Karlaplan T-ban S:a, Stockholm</description>
        <styleUrl>#icon-22</styleUrl>
        <Point><coordinates>18.090878,59.338924,0</coordinates></Point>
      </Placemark>
      <Placemark>
        <name><![CDATA[Pressbyrån Dalens Allé]]></name>
        <description>Pressbyrån Dalens Allé, Enskededalen</description>
        <styleUrl>#icon-22</styleUrl>
        <Point><coordinates>18.093428,59.285351,0</coordinates></Point>
      </Placemark>
      <Placemark>
        <name><![CDATA[Pressbyrån Farsta T-ban]]></name>
        <description>Pressbyrån Farsta T-ban, Farsta</description>
        <styleUrl>#icon-22</styleUrl>
        <Point><coordinates>18.093436,59.243289,0</coordinates></Point>
      </Placemark>
      <Placemark>
        <name><![CDATA[Pressbyrån Gärdet N:a T-bana]]></name>
        <description>Pressbyrån Gärdet N:a T-bana, Stockholm</description>
        <styleUrl>#icon-22</styleUrl>
        <Point><coordinates>18.098771,59.347195,0</coordinates></Point>
      </Placemark>
      <Placemark>
        <name><![CDATA[Pressbyrån Farsta Strand]]></name>
        <description>Pressbyrån Farsta Strand, Farsta</description>
        <styleUrl>#icon-22</styleUrl>
        <Point><coordinates>18.10174,59.23531,0</coordinates></Point>
      </Placemark>
      <Placemark>
        <name><![CDATA[Pressbyrån Ropsten T-bana]]></name>
        <description>Pressbyrån Ropsten T-bana, Stockholm</description>
        <styleUrl>#icon-22</styleUrl>
        <Point><coordinates>18.102229,59.35739,0</coordinates></Point>
      </Placemark>
      <Placemark>
        <name><![CDATA[Pressbyrån Sthlm Hammarby Sjöstad]]></name>
        <description>Pressbyrån Sthlm Hammarby Sjöstad, Stockholm</description>
        <styleUrl>#icon-22</styleUrl>
        <Point><coordinates>18.103464,59.302803,0</coordinates></Point>
      </Placemark>
      <Placemark>
        <name><![CDATA[Pressbyrån Västerhaninge C]]></name>
        <description>Pressbyrån Västerhaninge C, Västerhaninge</description>
        <styleUrl>#icon-22</styleUrl>
        <Point><coordinates>18.10461,59.122792,0</coordinates></Point>
      </Placemark>
      <Placemark>
        <name><![CDATA[Pressbyrån Kärrtorp T-bana]]></name>
        <description>Pressbyrån Kärrtorp T-bana, Johanneshov</description>
        <styleUrl>#icon-22</styleUrl>
        <Point><coordinates>18.114481,59.284504,0</coordinates></Point>
      </Placemark>
      <Placemark>
        <name><![CDATA[Pressbyrån Jordbro Jvg]]></name>
        <description>Pressbyrån Jordbro Jvg, Haninge</description>
        <styleUrl>#icon-22</styleUrl>
        <Point><coordinates>18.12669,59.141084,0</coordinates></Point>
      </Placemark>
      <Placemark>
        <name><![CDATA[Pressbyrån Vega pendeltågstation]]></name>
        <description>Pressbyrån Vega pendeltågstation, Haninge</description>
        <styleUrl>#icon-22</styleUrl>
        <Point><coordinates>18.135299,59.18552,0</coordinates></Point>
      </Placemark>
      <Placemark>
        <name><![CDATA[Pressbyrån Lidingö C]]></name>
        <description>Pressbyrån Lidingö C, Lidingö</description>
        <styleUrl>#icon-22</styleUrl>
        <Point><coordinates>18.135359,59.366488,0</coordinates></Point>
      </Placemark>
      <Placemark>
        <name><![CDATA[Pressbyrån Handenterminalen]]></name>
        <description>Pressbyrån Handenterminalen, Handen</description>
        <styleUrl>#icon-22</styleUrl>
        <Point><coordinates>18.136003,59.167607,0</coordinates></Point>
      </Placemark>
      <Placemark>
        <name><![CDATA[Pressbyrån Haninge C]]></name>
        <description>Pressbyrån Haninge C, Handen</description>
        <styleUrl>#icon-22</styleUrl>
        <Point><coordinates>18.139747,59.169116,0</coordinates></Point>
      </Placemark>
      <Placemark>
        <name><![CDATA[Pressbyrån Tyresö]]></name>
        <description>Pressbyrån Tyresö, Tyresö</description>
        <styleUrl>#icon-22</styleUrl>
        <Point><coordinates>18.228593,59.244002,0</coordinates></Point>
      </Placemark>
      <Placemark>
        <name><![CDATA[Pressbyrån Orminge Centrum]]></name>
        <description>Pressbyrån Orminge Centrum, Saltsjö-Boo</description>
        <styleUrl>#icon-22</styleUrl>
        <Point><coordinates>18.257861,59.326934,0</coordinates></Point>
      </Placemark>
      <Placemark>
        <name><![CDATA[Pressbyrån Österväg 3A, 621 45 Visby]]></name>
        <description>Pressbyrån Österväg 3A, 621 45 Visby, Visby</description>
        <styleUrl>#icon-22</styleUrl>
        <Point><coordinates>18.299536,57.638043,0</coordinates></Point>
      </Placemark>
      <Placemark>
        <name><![CDATA[Pressbyrån Åkersberga]]></name>
        <description>Pressbyrån Åkersberga, Åkersberga</description>
        <styleUrl>#icon-22</styleUrl>
        <Point><coordinates>18.299749,59.479145,0</coordinates></Point>
      </Placemark>
      <Placemark>
        <name><![CDATA[Pressbyrån Vaxholm]]></name>
        <description>Pressbyrån Vaxholm, Vaxholm</description>
        <styleUrl>#icon-22</styleUrl>
        <Point><coordinates>18.35301,59.40209,0</coordinates></Point>
      </Placemark>
      <Placemark>
        <name><![CDATA[Pressbyrån Gustavsbergs C]]></name>
        <description>Pressbyrån Gustavsbergs C, Gustavsberg</description>
        <styleUrl>#icon-22</styleUrl>
        <Point><coordinates>18.391553,59.326633,0</coordinates></Point>
      </Placemark>
      <Placemark>
        <name><![CDATA[Pressbyrån Roma Kloster]]></name>
        <description>Pressbyrån Roma Kloster, Romakloster</description>
        <styleUrl>#icon-22</styleUrl>
        <Point><coordinates>18.454357,57.505413,0</coordinates></Point>
      </Placemark>
      <Placemark>
        <name><![CDATA[Pressbyrån Norrtälje Hantverkareg]]></name>
        <description>Pressbyrån Norrtälje Hantverkareg, Norrtälje</description>
        <styleUrl>#icon-22</styleUrl>
        <Point><coordinates>18.699481,59.759102,0</coordinates></Point>
      </Placemark>
      <Placemark>
        <name><![CDATA[Pressbyrån Lasarettsgatan Örnsköldsvik]]></name>
        <description>Pressbyrån Lasarettsgatan Örnsköldsvik, Örnsköldsvik</description>
        <styleUrl>#icon-22</styleUrl>
        <Point><coordinates>18.712483,63.291004,0</coordinates></Point>
      </Placemark>
      <Placemark>
        <name><![CDATA[Pressbyrån Umeå]]></name>
        <description>Pressbyrån Umeå, Umeå</description>
        <styleUrl>#icon-22</styleUrl>
        <Point><coordinates>20.267394,63.826417,0</coordinates></Point>
      </Placemark>
      <Placemark>
        <name><![CDATA[Pressbyrån Sunderby Sjukhus]]></name>
        <description>Pressbyrån Sunderby Sjukhus, Sunderbyn</description>
        <styleUrl>#icon-22</styleUrl>
        <Point><coordinates>21.93196,65.67184,0</coordinates></Point>
      </Placemark>
      <Placemark>
        <name><![CDATA[Pressbyrån Storgatan 33 Luleå]]></name>
        <description>Pressbyrån Storgatan 33 Luleå, Luleå</description>
        <styleUrl>#icon-22</styleUrl>
        <Point><coordinates>22.151083,65.584175,0</coordinates></Point>
      </Placemark>
      <Placemark>
        <name><![CDATA[Pressbyrån Luleå Storgatan 67]]></name>
        <description>Pressbyrån Luleå Storgatan 67, Luleå</description>
        <styleUrl>#icon-22</styleUrl>
        <Point><coordinates>22.16101,65.58539,0</coordinates></Point>
      </Placemark>
    </Folder>
  </Document>
</kml>