<?xml version="1.0" encoding="UTF-8"?>
<kml xmlns="http://www.opengis.net/kml/2.2">
  <Document>
    <name><![CDATA[Pressbyrån]]></name>
    <description/>
    <Style id="icon-22-normal"><IconStyle><scale>1.1</scale><Icon><href>https://www.gstatic.com/mapspro/images/stock/22-blue-dot.png</href></Icon><hotSpot x="16" xunits="pixels" y="32" yunits="insetPixels"/></IconStyle><LabelStyle><scale>0</scale></LabelStyle></Style>
    <Style id="icon-22-highlight"><IconStyle><scale>1.1</scale><Icon><href>https://www.gstatic.com/mapspro/images/stock/22-blue-dot.png</href></Icon><hotSpot x="16" xunits="pixels" y="32" yunits="insetPixels"/></IconStyle><LabelStyle><scale>1.1</scale></LabelStyle></Style>
    <StyleMap id="icon-22"><Pair><key>normal</key><styleUrl>#icon-22-normal</styleUrl></Pair><Pair><key>highlight</key><styleUrl>#icon-22-highlight</styleUrl></Pair></StyleMap>
    <Folder>
      <name><![CDATA[Pressbyrån]]></name>
      <Placemark>
        <name><![CDATA[Pressbyrån Strömstad]]></name>
        <description><![CDATA[Pressbyrån Strömstad, Strömstad]]></description>
        <Point><coordinates>11.170875,58.939387,0</coordinates></Point>
        <styleUrl>#icon-22</styleUrl>
      </Placemark>
      <Placemark>
        <name><![CDATA[Pressbyrån Kungshamn Buss]]></name>
        <description><![CDATA[Pressbyrån Kungshamn Buss, Kungshamn]]></description>
        <Point><coordinates>11.249265,58.361515,0</coordinates></Point>
        <styleUrl>#icon-22</styleUrl>
      </Placemark>
      <Placemark>
        <name><![CDATA[Pressbyrån Uddevalla Torp]]></name>
        <description><![CDATA[Pressbyrån Uddevalla Torp, Uddevalla]]></description>
        <Point><coordinates>11.809645,58.353581,0</coordinates></Point>
        <styleUrl>#icon-22</styleUrl>
      </Placemark>
      <Placemark>
        <name><![CDATA[Pressbyrån Frölunda Buss]]></name>
        <description><![CDATA[Pressbyrån Frölunda Buss, Västra Frölunda]]></description>
        <Point><coordinates>11.909845,57.652256,0</coordinates></Point>
        <styleUrl>#icon-22</styleUrl>
      </Placemark>
      <Placemark>
        <name><![CDATA[Pressbyrån Gbg Eketrägatan]]></name>
        <description><![CDATA[Pressbyrån Gbg Eketrägatan, Göteborg]]></description>
        <Point><coordinates>11.910145,57.715937,0</coordinates></Point>
        <styleUrl>#icon-22</styleUrl>
      </Placemark>
      <Placemark>
        <name><![CDATA[Pressbyrån Frölunda Torg]]></name>
        <description><![CDATA[Pressbyrån Frölunda Torg, Västra Frölunda]]></description>
        <Point><coordinates>11.912066,57.650941,0</coordinates></Point>
        <styleUrl>#icon-22</styleUrl>
      </Placemark>
      <Placemark>
        <name><![CDATA[Pressbyrån Uddevalla Jvg]]></name>
        <description><![CDATA[Pressbyrån Uddevalla Jvg, Uddevalla]]></description>
        <Point><coordinates>11.923685,58.35375,0</coordinates></Point>
        <styleUrl>#icon-22</styleUrl>
      </Placemark>
      <Placemark>
        <name><![CDATA[Pressbyrån Uddevalla Buss]]></name>
        <description><![CDATA[Pressbyrån Uddevalla Buss, Uddevalla]]></description>
        <Point><coordinates>11.931152,58.349993,0</coordinates></Point>
        <styleUrl>#icon-22</styleUrl>
      </Placemark>
      <Placemark>
        <name><![CDATA[Pressbyrån Stigbergstorget]]></name>
        <description><![CDATA[Pressbyrån Stigbergstorget, Göteborg]]></description>
        <Point><coordinates>11.934764,57.699037,0</coordinates></Point>
        <styleUrl>#icon-22</styleUrl>
      </Placemark>
      <Placemark>
        <name><![CDATA[Pressbyrån Gbg Marklandsplatsen]]></name>
        <description><![CDATA[Pressbyrån Gbg Marklandsplatsen, Göteborg]]></description>
        <Point><coordinates>11.935508,57.674275,0</coordinates></Point>
        <styleUrl>#icon-22</styleUrl>
      </Placemark>
      <Placemark>
        <name><![CDATA[Pressbyrån Gbg Lindholmspiren]]></name>
        <description><![CDATA[Pressbyrån Gbg Lindholmspiren, Göteborg]]></description>
        <Point><coordinates>11.939274,57.707248,0</coordinates></Point>
        <styleUrl>#icon-22</styleUrl>
      </Placemark>
      <Placemark>
        <name><![CDATA[Pressbyrån GBG Järntorget]]></name>
        <description><![CDATA[Pressbyrån GBG Järntorget, Göteborg]]></description>
        <Point><coordinates>11.952736,57.699812,0</coordinates></Point>
        <styleUrl>#icon-22</styleUrl>
      </Placemark>
      <Placemark>
        <name><![CDATA[Pressbyrån Gbg Hjalmar Brantingsplatsen]]></name>
        <description><![CDATA[Pressbyrån Gbg Hjalmar Brantingsplatsen, Göteborg]]></description>
        <Point><coordinates>11.953822,57.720896,0</coordinates></Point>
        <styleUrl>#icon-22</styleUrl>
      </Placemark>
      <Placemark>
        <name><![CDATA[Pressbyrån Stenpiren]]></name>
        <description><![CDATA[Pressbyrån Stenpiren, Göteborg]]></description>
        <Point><coordinates>11.958001,57.706171,0</coordinates></Point>
        <styleUrl>#icon-22</styleUrl>
      </Placemark>
      <Placemark>
        <name><![CDATA[Pressbyrån Gbg Sahlgrenska St. Ing]]></name>
        <description><![CDATA[Pressbyrån Gbg Sahlgrenska St. Ing, Göteborg]]></description>
        <Point><coordinates>11.960724,57.683338,0</coordinates></Point>
        <styleUrl>#icon-22</styleUrl>
      </Placemark>
      <Placemark>
        <name><![CDATA[Pressbyrån Gbg Sahlgrenska Centralkomplexet]]></name>
        <description><![CDATA[Pressbyrån Gbg Sahlgrenska Centralkomplexet, Göteborg]]></description>
        <Point><coordinates>11.961428,57.68242,0</coordinates></Point>
        <styleUrl>#icon-22</styleUrl>
      </Placemark>
      <Placemark>
        <name><![CDATA[Pressbyrån Gbg Östra Hamngatan 26]]></name>
        <description><![CDATA[Pressbyrån Gbg Östra Hamngatan 26, Göteborg]]></description>
        <Point><coordinates>11.967917,57.707772,0</coordinates></Point>
        <styleUrl>#icon-22</styleUrl>
      </Placemark>
      <Placemark>
        <name><![CDATA[Kungälvs Resecentrum]]></name>
        <description><![CDATA[Kungälvs Resecentrum, Kungälv]]></description>
        <Point><coordinates>11.968446,57.871986,0</coordinates></Point>
        <styleUrl>#icon-22</styleUrl>
      </Placemark>
      <Placemark>
        <name><![CDATA[Pressbyrån Gbg Nordstadstorget]]></name>
        <description><![CDATA[Pressbyrån Gbg Nordstadstorget, Göteborg]]></description>
        <Point><coordinates>11.968914,57.70956,0</coordinates></Point>
        <styleUrl>#icon-22</styleUrl>
      </Placemark>
      <Placemark>
        <name><![CDATA[Pressbyrån Norra Hamngatan]]></name>
        <description><![CDATA[Pressbyrån Norra Hamngatan, Göteborg]]></description>
        <Point><coordinates>11.969069,57.707204,0</coordinates></Point>
        <styleUrl>#icon-22</styleUrl>
      </Placemark>
      <Placemark>
        <name><![CDATA[Pressbyrån Gbg Götgatan]]></name>
        <description><![CDATA[Pressbyrån Gbg Götgatan, Göteborg]]></description>
        <Point><coordinates>11.96918,57.708026,0</coordinates></Point>
        <styleUrl>#icon-22</styleUrl>
      </Placemark>
      <Placemark>
        <name><![CDATA[Pressbyrån Kungsport]]></name>
        <description><![CDATA[Pressbyrån Kungsport, Göteborg]]></description>
        <Point><coordinates>11.97035,57.70408,0</coordinates></Point>
        <styleUrl>#icon-22</styleUrl>
      </Placemark>
      <Placemark>
        <name><![CDATA[Pressbyrån Gbg Södra Hamngatan]]></name>
        <description><![CDATA[Pressbyrån Gbg Södra Hamngatan, Göteborg]]></description>
        <Point><coordinates>11.970374,57.706698,0</coordinates></Point>
        <styleUrl>#icon-22</styleUrl>
      </Placemark>
      <Placemark>
        <name><![CDATA[Pressbyrån Gbg Nils Ericsonsplatsen]]></name>
        <description><![CDATA[Pressbyrån Gbg Nils Ericsonsplatsen, Göteborg]]></description>
        <Point><coordinates>11.970468,57.70898,0</coordinates></Point>
        <styleUrl>#icon-22</styleUrl>
      </Placemark>
      <Placemark>
        <name><![CDATA[Pressbyrån Nils Ericsonsgatan Göteborg]]></name>
        <description><![CDATA[Pressbyrån Nils Ericsonsgatan Göteborg, Göteborg]]></description>
        <Point><coordinates>11.97069,57.708987,0</coordinates></Point>
        <styleUrl>#icon-22</styleUrl>
      </Placemark>
      <Placemark>
        <name><![CDATA[Pressbyrån Gbg Centralen taxi 1]]></name>
        <description><![CDATA[Pressbyrån Gbg Centralen taxi 1, Göteborg]]></description>
        <Point><coordinates>11.973081,57.708481,0</coordinates></Point>
        <styleUrl>#icon-22</styleUrl>
      </Placemark>
      <Placemark>
        <name><![CDATA[Pressbyrån Gbg Cstn huvudentrén]]></name>
        <description><![CDATA[Pressbyrån Gbg Cstn huvudentrén, Göteborg]]></description>
        <Point><coordinates>11.973179,57.708508,0</coordinates></Point>
        <styleUrl>#icon-22</styleUrl>
      </Placemark>
      <Placemark>
        <name><![CDATA[Pressbyrån Ggb Drottningtorget]]></name>
        <description><![CDATA[Pressbyrån Ggb Drottningtorget, Göteborg]]></description>
        <Point><coordinates>11.973233,57.708053,0</coordinates></Point>
        <styleUrl>#icon-22</styleUrl>
      </Placemark>
      <Placemark>
        <name><![CDATA[Pressbyrån Gbg Cstn (Centralhuset)]]></name>
        <description><![CDATA[Pressbyrån Gbg Cstn (Centralhuset), Göteborg]]></description>
        <Point><coordinates>11.97324,57.709042,0</coordinates></Point>
        <styleUrl>#icon-22</styleUrl>
      </Placemark>
      <Placemark>
        <name><![CDATA[Pressbyrån Centralstationen Huvudstråket]]></name>
        <description><![CDATA[Pressbyrån Centralstationen Huvudstråket, Göteborg]]></description>
        <Point><coordinates>11.973427,57.709299,0</coordinates></Point>
        <styleUrl>#icon-22</styleUrl>
      </Placemark>
      <Placemark>
        <name><![CDATA[Pressbyrån Gbg Valand]]></name>
        <description><![CDATA[Pressbyrån Gbg Valand, Göteborg]]></description>
        <Point><coordinates>11.974038,57.7005,0</coordinates></Point>
        <styleUrl>#icon-22</styleUrl>
      </Placemark>
      <Placemark>
        <name><![CDATA[Pressbyrån Gbg Heden Buss]]></name>
        <description><![CDATA[Pressbyrån Gbg Heden Buss, Göteborg]]></description>
        <Point><coordinates>11.974808,57.702362,0</coordinates></Point>
        <styleUrl>#icon-22</styleUrl>
      </Placemark>
      <Placemark>
        <name><![CDATA[Pressbyrån GBG Korsvägen]]></name>
        <description><![CDATA[Pressbyrån GBG Korsvägen, Göteborg]]></description>
        <Point><coordinates>11.986741,57.696637,0</coordinates></Point>
        <styleUrl>#icon-22</styleUrl>
      </Placemark>
      <Placemark>
        <name><![CDATA[Pressbyrån Redbergsplatsen]]></name>
        <description><![CDATA[Pressbyrån Redbergsplatsen, Göteborg]]></description>
        <Point><coordinates>12.004891,57.716434,0</coordinates></Point>
        <styleUrl>#icon-22</styleUrl>
      </Placemark>
      <Placemark>
        <name><![CDATA[Pressbyrån Gamlestaden Resecentrum]]></name>
        <description><![CDATA[Pressbyrån Gamlestaden Resecentrum, Göteborg]]></description>
        <Point><coordinates>12.00545,57.727831,0</coordinates></Point>
        <styleUrl>#icon-22</styleUrl>
      </Placemark>
      <Placemark>
        <name><![CDATA[Pressbyrån Gamlestadens brygga]]></name>
        <description><![CDATA[Pressbyrån Gamlestadens brygga, Göteborg]]></description>
        <Point><coordinates>12.00573,57.72757,0</coordinates></Point>
        <styleUrl>#icon-22</styleUrl>
      </Placemark>
      <Placemark>
        <name><![CDATA[Pressbyrån Mölndals Sjukhus]]></name>
        <description><![CDATA[Pressbyrån Mölndals Sjukhus, Mölndal]]></description>
        <Point><coordinates>12.012209,57.661227,0</coordinates></Point>
        <styleUrl>#icon-22</styleUrl>
      </Placemark>
      <Placemark>
        <name><![CDATA[Pressbyrån Mölndals Bro]]></name>
        <description><![CDATA[Pressbyrån Mölndals Bro, Mölndal]]></description>
        <Point><coordinates>12.017509,57.655556,0</coordinates></Point>
        <styleUrl>#icon-22</styleUrl>
      </Placemark>
      <Placemark>
        <name><![CDATA[Pressbyrån Östra sjukhuset]]></name>
        <description><![CDATA[Pressbyrån Östra sjukhuset, Göteborg]]></description>
        <Point><coordinates>12.048769,57.722256,0</coordinates></Point>
        <styleUrl>#icon-22</styleUrl>
      </Placemark>
      <Placemark>
        <name><![CDATA[Pressbyrån Angered Resecentrum]]></name>
        <description><![CDATA[Pressbyrån Angered Resecentrum, Angered]]></description>
        <Point><coordinates>12.048934,57.795691,0</coordinates></Point>
        <styleUrl>#icon-22</styleUrl>
      </Placemark>
      <Placemark>
        <name><![CDATA[Pressbyrån Angered Entré]]></name>
        <description><![CDATA[Pressbyrån Angered Entré, Angered]]></description>
        <Point><coordinates>12.050382,57.796426,0</coordinates></Point>
        <styleUrl>#icon-22</styleUrl>
      </Placemark>
      <Placemark>
        <name><![CDATA[Pressbyrån Kungsbacka, Kungsmässan]]></name>
        <description><![CDATA[Pressbyrån Kungsbacka, Kungsmässan, Kungsbacka]]></description>
        <Point><coordinates>12.074361,57.492369,0</coordinates></Point>
        <styleUrl>#icon-22</styleUrl>
      </Placemark>
      <Placemark>
        <name><![CDATA[Pressbyrån Kungsbacka Resecentrum]]></name>
        <description><![CDATA[Pressbyrån Kungsbacka Resecentrum, Kungsbacka]]></description>
        <Point><coordinates>12.079403,57.489795,0</coordinates></Point>
        <styleUrl>#icon-22</styleUrl>
      </Placemark>
      <Placemark>
        <name><![CDATA[Pressbyrån Partille Köpcentrum]]></name>
        <description><![CDATA[Pressbyrån Partille Köpcentrum, Partille]]></description>
        <Point><coordinates>12.105045,57.73866,0</coordinates></Point>
        <styleUrl>#icon-22</styleUrl>
      </Placemark>
      <Placemark>
        <name><![CDATA[Pressbyrån Landvetter]]></name>
        <description><![CDATA[Pressbyrån Landvetter, Landvetter]]></description>
        <Point><coordinates>12.212741,57.68612,0</coordinates></Point>
        <styleUrl>#icon-22</styleUrl>
      </Placemark>
      <Placemark>
        <name><![CDATA[Pressbyrån Varberg Buss]]></name>
        <description><![CDATA[Pressbyrån Varberg Buss, Varberg]]></description>
        <Point><coordinates>12.249055,57.109541,0</coordinates></Point>
        <styleUrl>#icon-22</styleUrl>
      </Placemark>
      <Placemark>
        <name><![CDATA[Pressbyrån Charlottenberg]]></name>
        <description><![CDATA[Pressbyrån Charlottenberg, Charlottenberg]]></description>
        <Point><coordinates>12.288315,59.880787,0</coordinates></Point>
        <styleUrl>#icon-22</styleUrl>
      </Placemark>
      <Placemark>
        <name><![CDATA[Pressbyrån Incheckningshallen]]></name>
        <description><![CDATA[Pressbyrån Incheckningshallen, Landvetter]]></description>
        <Point><coordinates>12.294538,57.66797,0</coordinates></Point>
        <styleUrl>#icon-22</styleUrl>
      </Placemark>
      <Placemark>
        <name><![CDATA[Pressbyrån Landvetter Gate 17]]></name>
        <description><![CDATA[Pressbyrån Landvetter Gate 17, Landvetter]]></description>
        <Point><coordinates>12.295107,57.668756,0</coordinates></Point>
        <styleUrl>#icon-22</styleUrl>
      </Placemark>
      <Placemark>
        <name><![CDATA[Pressbyrån Utrikes avgångshall]]></name>
        <description><![CDATA[Pressbyrån Utrikes avgångshall, Landvetter]]></description>
        <Point><coordinates>12.295675,57.669462,0</coordinates></Point>
        <styleUrl>#icon-22</styleUrl>
      </Placemark>
      <Placemark>
        <name><![CDATA[Pressbyrån Falkenberg Stortorget]]></name>
        <description><![CDATA[Pressbyrån Falkenberg Stortorget, Falkenberg]]></description>
        <Point><coordinates>12.491538,56.905164,0</coordinates></Point>
        <styleUrl>#icon-22</styleUrl>
      </Placemark>
      <Placemark>
        <name><![CDATA[Pressbyrån Alingsås]]></name>
        <description><![CDATA[Pressbyrån Alingsås, Alingsås]]></description>
        <Point><coordinates>12.53196,57.927067,0</coordinates></Point>
        <styleUrl>#icon-22</styleUrl>
      </Placemark>
      <Placemark>
        <name><![CDATA[Pressbyrån H-borg Knutpunkten, Term. 1]]></name>
        <description><![CDATA[Pressbyrån H-borg Knutpunkten, Term. 1, Helsingborg]]></description>
        <Point><coordinates>12.693827,56.04442,0</coordinates></Point>
        <styleUrl>#icon-22</styleUrl>
      </Placemark>
      <Placemark>
        <name><![CDATA[Pressbyrån H-borg Knutpunkten-Centralhallen]]></name>
        <description><![CDATA[Pressbyrån H-borg Knutpunkten-Centralhallen, Helsingborg]]></description>
        <Point><coordinates>12.694149,56.044539,0</coordinates></Point>
        <styleUrl>#icon-22</styleUrl>
      </Placemark>
      <Placemark>
        <name><![CDATA[Pressbyrån H-borg Stortorget]]></name>
        <description><![CDATA[Pressbyrån H-borg Stortorget, Helsingborg]]></description>
        <Point><coordinates>12.69451,56.04646,0</coordinates></Point>
        <styleUrl>#icon-22</styleUrl>
      </Placemark>
      <Placemark>
        <name><![CDATA[Pressbyrån Helsingborg Buss]]></name>
        <description><![CDATA[Pressbyrån Helsingborg Buss, Helsingborg]]></description>
        <Point><coordinates>12.694969,56.043626,0</coordinates></Point>
        <styleUrl>#icon-22</styleUrl>
      </Placemark>
      <Placemark>
        <name><![CDATA[Pressbyrån Helsingborgs Lasarett]]></name>
        <description><![CDATA[Pressbyrån Helsingborgs Lasarett, Helsingborg]]></description>
        <Point><coordinates>12.703639,56.04575,0</coordinates></Point>
        <styleUrl>#icon-22</styleUrl>
      </Placemark>
      <Placemark>
        <name><![CDATA[Pressbyrån Väla Köpcentrum]]></name>
        <description><![CDATA[Pressbyrån Väla Köpcentrum, Ödåkra-Väla]]></description>
        <Point><coordinates>12.7553,56.091342,0</coordinates></Point>
        <styleUrl>#icon-22</styleUrl>
      </Placemark>
      <Placemark>
        <name><![CDATA[Pressbyrån Landskrona Station]]></name>
        <description><![CDATA[Pressbyrån Landskrona Station, Landskrona]]></description>
        <Point><coordinates>12.856662,55.879154,0</coordinates></Point>
        <styleUrl>#icon-22</styleUrl>
      </Placemark>
      <Placemark>
        <name><![CDATA[Pressbyrån Stora Torg Halmstad]]></name>
        <description><![CDATA[Pressbyrån Stora Torg Halmstad, Halmstad]]></description>
        <Point><coordinates>12.856982,56.674268,0</coordinates></Point>
        <styleUrl>#icon-22</styleUrl>
      </Placemark>
      <Placemark>
        <name><![CDATA[Pressbyrån Ängelholms sjukhus]]></name>
        <description><![CDATA[Pressbyrån Ängelholms sjukhus, Ängelholm]]></description>
        <Point><coordinates>12.86079,56.239243,0</coordinates></Point>
        <styleUrl>#icon-22</styleUrl>
      </Placemark>
      <Placemark>
        <name><![CDATA[Pressbyrån Halmstad Cstn]]></name>
        <description><![CDATA[Pressbyrån Halmstad Cstn, Halmstad]]></description>
        <Point><coordinates>12.863887,56.668823,0</coordinates></Point>
        <styleUrl>#icon-22</styleUrl>
      </Placemark>
      <Placemark>
        <name><![CDATA[Pressbyrån Borås Cstn]]></name>
        <description><![CDATA[Pressbyrån Borås Cstn, Borås]]></description>
        <Point><coordinates>12.932281,57.720658,0</coordinates></Point>
        <styleUrl>#icon-22</styleUrl>
      </Placemark>
      <Placemark>
        <name><![CDATA[Pressbyrån Borås Resecentum]]></name>
        <description><![CDATA[Pressbyrån Borås Resecentum, Borås]]></description>
        <Point><coordinates>12.932421,57.719948,0</coordinates></Point>
        <styleUrl>#icon-22</styleUrl>
      </Placemark>
      <Placemark>
        <name><![CDATA[Pressbyrån Borås Knallen]]></name>
        <description><![CDATA[Pressbyrån Borås Knallen, Borås]]></description>
        <Point><coordinates>12.938848,57.733645,0</coordinates></Point>
        <styleUrl>#icon-22</styleUrl>
      </Placemark>
      <Placemark>
        <name><![CDATA[Pressbyrån Borås Österlånggatan]]></name>
        <description><![CDATA[Pressbyrån Borås Österlånggatan, Borås]]></description>
        <Point><coordinates>12.941592,57.719644,0</coordinates></Point>
        <styleUrl>#icon-22</styleUrl>
      </Placemark>
      <Placemark>
        <name><![CDATA[Pressbyrån Lasarettsgatan Borås]]></name>
        <description><![CDATA[Pressbyrån Lasarettsgatan Borås, Borås]]></description>
        <Point><coordinates>12.960825,57.723617,0</coordinates></Point>
        <styleUrl>#icon-22</styleUrl>
      </Placemark>
      <Placemark>
        <name><![CDATA[Pressbyrån Malmö Hyllie]]></name>
        <description><![CDATA[Pressbyrån Malmö Hyllie, Malmö]]></description>
        <Point><coordinates>12.976326,55.56287,0</coordinates></Point>
        <styleUrl>#icon-22</styleUrl>
      </Placemark>
      <Placemark>
        <name><![CDATA[Pressbyrån Malmö Cstn]]></name>
        <description><![CDATA[Pressbyrån Malmö Cstn, Malmö]]></description>
        <Point><coordinates>13.000021,55.609216,0</coordinates></Point>
        <styleUrl>#icon-22</styleUrl>
      </Placemark>
      <Placemark>
        <name><![CDATA[Pressbyrån Malmö Gustav Adolfs Torg]]></name>
        <description><![CDATA[Pressbyrån Malmö Gustav Adolfs Torg, Malmö]]></description>
        <Point><coordinates>13.000679,55.603104,0</coordinates></Point>
        <styleUrl>#icon-22</styleUrl>
      </Placemark>
      <Placemark>
        <name><![CDATA[Pressbyrån Malmö MAS Långa Raden]]></name>
        <description><![CDATA[Pressbyrån Malmö MAS Långa Raden, Malmö]]></description>
        <Point><coordinates>13.000963,55.587563,0</coordinates></Point>
        <styleUrl>#icon-22</styleUrl>
      </Placemark>
      <Placemark>
        <name><![CDATA[Pressbyrån Malmö Södergatan 11]]></name>
        <description><![CDATA[Pressbyrån Malmö Södergatan 11, Malmö]]></description>
        <Point><coordinates>13.001085,55.604511,0</coordinates></Point>
        <styleUrl>#icon-22</styleUrl>
      </Placemark>
      <Placemark>
        <name><![CDATA[Pressbyrån Södra Förstadsgatan 12]]></name>
        <description><![CDATA[Pressbyrån Södra Förstadsgatan 12, Malmö]]></description>
        <Point><coordinates>13.001392,55.599797,0</coordinates></Point>
        <styleUrl>#icon-22</styleUrl>
      </Placemark>
      <Placemark>
        <name><![CDATA[Pressbyrån Malmö MAS Kirurgen]]></name>
        <description><![CDATA[Pressbyrån Malmö MAS Kirurgen, Malmö]]></description>
        <Point><coordinates>13.001525,55.589405,0</coordinates></Point>
        <styleUrl>#icon-22</styleUrl>
      </Placemark>
      <Placemark>
        <name><![CDATA[Pressbyrån Södervärn/Buss]]></name>
        <description><![CDATA[Pressbyrån Södervärn/Buss, Malmö]]></description>
        <Point><coordinates>13.006117,55.588874,0</coordinates></Point>
        <styleUrl>#icon-22</styleUrl>
      </Placemark>
      <Placemark>
        <name><![CDATA[Pressbyrån Holiday Club Åre]]></name>
        <description><![CDATA[Pressbyrån Holiday Club Åre, Åre]]></description>
        <Point><coordinates>13.075875,63.398104,0</coordinates></Point>
        <styleUrl>#icon-22</styleUrl>
      </Placemark>
      <Placemark>
        <name><![CDATA[Resecentrum Trelleborg]]></name>
        <description><![CDATA[Resecentrum Trelleborg, Trelleborg]]></description>
        <Point><coordinates>13.159078,55.371816,0</coordinates></Point>
        <styleUrl>#icon-22</styleUrl>
      </Placemark>
      <Placemark>
        <name><![CDATA[Pressbyrån Lidköping Jvg]]></name>
        <description><![CDATA[Pressbyrån Lidköping Jvg, Lidköping]]></description>
        <Point><coordinates>13.16337,58.504491,0</coordinates></Point>
        <styleUrl>#icon-22</styleUrl>
      </Placemark>
      <Placemark>
        <name><![CDATA[Pressbyrån Lund V:a Stationsgatan]]></name>
        <description><![CDATA[Pressbyrån Lund V:a Stationsgatan, Lund]]></description>
        <Point><coordinates>13.186,55.70551,0</coordinates></Point>
        <styleUrl>#icon-22</styleUrl>
      </Placemark>
      <Placemark>
        <name><![CDATA[Pressbyrån Lund Godsmagasinet]]></name>
        <description><![CDATA[Pressbyrån Lund Godsmagasinet, Lund]]></description>
        <Point><coordinates>13.186966,55.706918,0</coordinates></Point>
        <styleUrl>#icon-22</styleUrl>
      </Placemark>
      <Placemark>
        <name><![CDATA[Pressbyrån Lund Cstn]]></name>
        <description><![CDATA[Pressbyrån Lund Cstn, Lund]]></description>
        <Point><coordinates>13.187226,55.705378,0</coordinates></Point>
        <styleUrl>#icon-22</styleUrl>
      </Placemark>
      <Placemark>
        <name><![CDATA[Pressbyrån Lund Botulfsplatsen]]></name>
        <description><![CDATA[Pressbyrån Lund Botulfsplatsen, Lund]]></description>
        <Point><coordinates>13.194068,55.702206,0</coordinates></Point>
        <styleUrl>#icon-22</styleUrl>
      </Placemark>
      <Placemark>
        <name><![CDATA[Pressbyrån Skånes Universitetssjukhus i Lund]]></name>
        <description><![CDATA[Pressbyrån Skånes Universitetssjukhus i Lund, Lund]]></description>
        <Point><coordinates>13.196265,55.712142,0</coordinates></Point>
        <styleUrl>#icon-22</styleUrl>
      </Placemark>
      <Placemark>
        <name><![CDATA[Pressbyrån Malmö-Sturup]]></name>
        <description><![CDATA[Pressbyrån Malmö-Sturup, Malmö-Sturup]]></description>
        <Point><coordinates>13.366585,55.540555,0</coordinates></Point>
        <styleUrl>#icon-22</styleUrl>
      </Placemark>
      <Placemark>
        <name><![CDATA[Pressbyrån Skara Jvg]]></name>
        <description><![CDATA[Pressbyrån Skara Jvg, Skara]]></description>
        <Point><coordinates>13.439145,58.383464,0</coordinates></Point>
        <styleUrl>#icon-22</styleUrl>
      </Placemark>
      <Placemark>
        <name><![CDATA[Pressbyrån Götene Jvg]]></name>
        <description><![CDATA[Pressbyrån Götene Jvg, Götene]]></description>
        <Point><coordinates>13.492546,58.527897,0</coordinates></Point>
        <styleUrl>#icon-22</styleUrl>
      </Placemark>
      <Placemark>
        <name><![CDATA[Pressbyrån Karlstad Drottningg]]></name>
        <description><![CDATA[Pressbyrån Karlstad Drottningg, Karlstad]]></description>
        <Point><coordinates>13.500105,59.37927,0</coordinates></Point>
        <styleUrl>#icon-22</styleUrl>
      </Placemark>
      <Placemark>
        <name><![CDATA[Pressbyrån Karlstad Cstn]]></name>
        <description><![CDATA[Pressbyrån Karlstad Cstn, Karlstad]]></description>
        <Point><coordinates>13.500121,59.378032,0</coordinates></Point>
        <styleUrl>#icon-22</styleUrl>
      </Placemark>
      <Placemark>
        <name><![CDATA[Pressbyrån Kungsgatan Karlstad]]></name>
        <description><![CDATA[Pressbyrån Kungsgatan Karlstad, Karlstad]]></description>
        <Point><coordinates>13.503626,59.38107,0</coordinates></Point>
        <styleUrl>#icon-22</styleUrl>
      </Placemark>
      <Placemark>
        <name><![CDATA[Pressbyrån Falköping Jvg]]></name>
        <description><![CDATA[Pressbyrån Falköping Jvg, Falköping]]></description>
        <Point><coordinates>13.552558,58.175461,0</coordinates></Point>
        <styleUrl>#icon-22</styleUrl>
      </Placemark>
      <Placemark>
        <name><![CDATA[Pressbyrån Karlstad Studenternas Hus]]></name>
        <description><![CDATA[Pressbyrån Karlstad Studenternas Hus, Karlstad]]></description>
        <Point><coordinates>13.579543,59.405815,0</coordinates></Point>
        <styleUrl>#icon-22</styleUrl>
      </Placemark>
      <Placemark>
        <name><![CDATA[Pressbyrån Hässleholm Norra Stn]]></name>
        <description><![CDATA[Pressbyrån Hässleholm Norra Stn, Hässleholm]]></description>
        <Point><coordinates>13.761854,56.158477,0</coordinates></Point>
        <styleUrl>#icon-22</styleUrl>
      </Placemark>
      <Placemark>
        <name><![CDATA[Pressbyrån Hässleholm Cstn]]></name>
        <description><![CDATA[Pressbyrån Hässleholm Cstn, Hässleholm]]></description>
        <Point><coordinates>13.76343,56.15732,0</coordinates></Point>
        <styleUrl>#icon-22</styleUrl>
      </Placemark>
      <Placemark>
        <name><![CDATA[Pressbyrån Ystad]]></name>
        <description><![CDATA[Pressbyrån Ystad, Ystad]]></description>
        <Point><coordinates>13.823984,55.427705,0</coordinates></Point>
        <styleUrl>#icon-22</styleUrl>
      </Placemark>
      <Placemark>
        <name><![CDATA[Pressbyrån Skövde Sandtorget]]></name>
        <description><![CDATA[Pressbyrån Skövde Sandtorget, Skövde]]></description>
        <Point><coordinates>13.846035,58.39126,0</coordinates></Point>
        <styleUrl>#icon-22</styleUrl>
      </Placemark>
      <Placemark>
        <name><![CDATA[Pressbyrån Skövde Sjukhus]]></name>
        <description><![CDATA[Pressbyrån Skövde Sjukhus, Skövde]]></description>
        <Point><coordinates>13.851828,58.427023,0</coordinates></Point>
        <styleUrl>#icon-22</styleUrl>
      </Placemark>
      <Placemark>
        <name><![CDATA[Pressbyrån Skövde Jvg]]></name>
        <description><![CDATA[Pressbyrån Skövde Jvg, Skövde]]></description>
        <Point><coordinates>13.851968,58.389618,0</coordinates></Point>
        <styleUrl>#icon-22</styleUrl>
      </Placemark>
      <Placemark>
        <name><![CDATA[Pressbyrån Töreboda Kungsgatan]]></name>
        <description><![CDATA[Pressbyrån Töreboda Kungsgatan, Töreboda]]></description>
        <Point><coordinates>14.127397,58.705826,0</coordinates></Point>
        <styleUrl>#icon-22</styleUrl>
      </Placemark>
      <Placemark>
        <name><![CDATA[Pressbyrån Kristianstad]]></name>
        <description><![CDATA[Pressbyrån Kristianstad, Kristianstad]]></description>
        <Point><coordinates>14.151909,56.031542,0</coordinates></Point>
        <styleUrl>#icon-22</styleUrl>
      </Placemark>
      <Placemark>
        <name><![CDATA[Pressbyrån Klostergatan, Jönköping]]></name>
        <description><![CDATA[Pressbyrån Klostergatan, Jönköping, Jönköping]]></description>
        <Point><coordinates>14.154961,57.776285,0</coordinates></Point>
        <styleUrl>#icon-22</styleUrl>
      </Placemark>
      <Placemark>
        <name><![CDATA[Pressbyrån Jönköping Barnarpsgatan]]></name>
        <description><![CDATA[Pressbyrån Jönköping Barnarpsgatan, Jönköping]]></description>
        <Point><coordinates>14.16222,57.781124,0</coordinates></Point>
        <styleUrl>#icon-22</styleUrl>
      </Placemark>
      <Placemark>
        <name><![CDATA[Pressbyrån Jönköping Jvg]]></name>
        <description><![CDATA[Pressbyrån Jönköping Jvg, Jönköping]]></description>
        <Point><coordinates>14.1627,57.78446,0</coordinates></Point>
        <styleUrl>#icon-22</styleUrl>
      </Placemark>
      <Placemark>
        <name><![CDATA[Pressbyrån Östra Storgatan 8, 553 21 Jönköping]]></name>
        <description><![CDATA[Pressbyrån Östra Storgatan 8, 553 21 Jönköping, Jönköping]]></description>
        <Point><coordinates>14.170527,57.782551,0</coordinates></Point>
        <styleUrl>#icon-22</styleUrl>
      </Placemark>
      <Placemark>
        <name><![CDATA[Pressbyrån CSK]]></name>
        <description><![CDATA[Pressbyrån CSK, Kristianstad]]></description>
        <Point><coordinates>14.17397,56.02983,0</coordinates></Point>
        <styleUrl>#icon-22</styleUrl>
      </Placemark>
      <Placemark>
        <name><![CDATA[Pressbyrån Jönköping A6]]></name>
        <description><![CDATA[Pressbyrån Jönköping A6, Jönköping]]></description>
        <Point><coordinates>14.203455,57.773287,0</coordinates></Point>
        <styleUrl>#icon-22</styleUrl>
      </Placemark>
      <Placemark>
        <name><![CDATA[Pressbyrån C4 Shopping]]></name>
        <description><![CDATA[Pressbyrån C4 Shopping, Kristianstad]]></description>
        <Point><coordinates>14.206223,56.02631,0</coordinates></Point>
        <styleUrl>#icon-22</styleUrl>
      </Placemark>
      <Placemark>
        <name><![CDATA[Pressbyrån Jönköping Ekhagsringen]]></name>
        <description><![CDATA[Pressbyrån Jönköping Ekhagsringen, Jönköping]]></description>
        <Point><coordinates>14.2237,57.77789,0</coordinates></Point>
        <styleUrl>#icon-22</styleUrl>
      </Placemark>
      <Placemark>
        <name><![CDATA[Pressbyrån Karlskoga Lasarett]]></name>
        <description><![CDATA[Pressbyrån Karlskoga Lasarett, Karlskoga]]></description>
        <Point><coordinates>14.505386,59.315526,0</coordinates></Point>
        <styleUrl>#icon-22</styleUrl>
      </Placemark>
      <Placemark>
        <name><![CDATA[Pressbyrån Alvesta Jvg]]></name>
        <description><![CDATA[Pressbyrån Alvesta Jvg, Alvesta]]></description>
        <Point><coordinates>14.556676,56.89899,0</coordinates></Point>
        <styleUrl>#icon-22</styleUrl>
      </Placemark>
      <Placemark>
        <name><![CDATA[Pressbyrån Sölvesborg]]></name>
        <description><![CDATA[Pressbyrån Sölvesborg, Sölvesborg]]></description>
        <Point><coordinates>14.58344,56.04994,0</coordinates></Point>
        <styleUrl>#icon-22</styleUrl>
      </Placemark>
      <Placemark>
        <name><![CDATA[Pressbyrån Östersund Jvg]]></name>
        <description><![CDATA[Pressbyrån Östersund Jvg, Östersund]]></description>
        <Point><coordinates>14.637505,63.170689,0</coordinates></Point>
        <styleUrl>#icon-22</styleUrl>
      </Placemark>
      <Placemark>
        <name><![CDATA[Pressbyrån Östersunds Sjh]]></name>
        <description><![CDATA[Pressbyrån Östersunds Sjh, Östersund]]></description>
        <Point><coordinates>14.637799,63.182316,0</coordinates></Point>
        <styleUrl>#icon-22</styleUrl>
      </Placemark>
      <Placemark>
        <name><![CDATA[Pressbyrån Östersund Kärnan]]></name>
        <description><![CDATA[Pressbyrån Östersund Kärnan, Östersund]]></description>
        <Point><coordinates>14.638536,63.176351,0</coordinates></Point>
        <styleUrl>#icon-22</styleUrl>
      </Placemark>
      <Placemark>
        <name><![CDATA[Pressbyrån Nässjö Jvg]]></name>
        <description><![CDATA[Pressbyrån Nässjö Jvg, Nässjö]]></description>
        <Point><coordinates>14.694956,57.65243,0</coordinates></Point>
        <styleUrl>#icon-22</styleUrl>
      </Placemark>
      <Placemark>
        <name><![CDATA[Pressbyrån Växjö Storgatan]]></name>
        <description><![CDATA[Pressbyrån Växjö Storgatan, Växjö]]></description>
        <Point><coordinates>14.80107,56.87926,0</coordinates></Point>
        <styleUrl>#icon-22</styleUrl>
      </Placemark>
      <Placemark>
        <name><![CDATA[Pressbyrån Växjö Jvg]]></name>
        <description><![CDATA[Pressbyrån Växjö Jvg, Växjö]]></description>
        <Point><coordinates>14.8067,56.8768,0</coordinates></Point>
        <styleUrl>#icon-22</styleUrl>
      </Placemark>
      <Placemark>
        <name><![CDATA[Pressbyrån Växjö Lasarett]]></name>
        <description><![CDATA[Pressbyrån Växjö Lasarett, Växjö]]></description>
        <Point><coordinates>14.80743,56.87459,0</coordinates></Point>
        <styleUrl>#icon-22</styleUrl>
      </Placemark>
      <Placemark>
        <name><![CDATA[Pressbyrån Växjö Punkten]]></name>
        <description><![CDATA[Pressbyrån Växjö Punkten, Växjö]]></description>
        <Point><coordinates>14.80786,56.87856,0</coordinates></Point>
        <styleUrl>#icon-22</styleUrl>
      </Placemark>
      <Placemark>
        <name><![CDATA[Pressbyrån Växjö Universitet]]></name>
        <description><![CDATA[Pressbyrån Växjö Universitet, Växjö]]></description>
        <Point><coordinates>14.828721,56.855114,0</coordinates></Point>
        <styleUrl>#icon-22</styleUrl>
      </Placemark>
      <Placemark>
        <name><![CDATA[Pressbyrån Tranås Jvg]]></name>
        <description><![CDATA[Pressbyrån Tranås Jvg, Tranås]]></description>
        <Point><coordinates>14.97638,58.0381,0</coordinates></Point>
        <styleUrl>#icon-22</styleUrl>
      </Placemark>
      <Placemark>
        <name><![CDATA[Pressbyrån Vetlanda Jvg]]></name>
        <description><![CDATA[Pressbyrån Vetlanda Jvg, Vetlanda]]></description>
        <Point><coordinates>15.08263,57.42583,0</coordinates></Point>
        <styleUrl>#icon-22</styleUrl>
      </Placemark>
      <Placemark>
        <name><![CDATA[Pressbyrån Hallsberg C]]></name>
        <description><![CDATA[Pressbyrån Hallsberg C, Hallsberg]]></description>
        <Point><coordinates>15.110632,59.066711,0</coordinates></Point>
        <styleUrl>#icon-22</styleUrl>
      </Placemark>
      <Placemark>
        <name><![CDATA[Pressbyrån Mjölby Jvg]]></name>
        <description><![CDATA[Pressbyrån Mjölby Jvg, Mjölby]]></description>
        <Point><coordinates>15.13245,58.32283,0</coordinates></Point>
        <styleUrl>#icon-22</styleUrl>
      </Placemark>
      <Placemark>
        <name><![CDATA[Pressbyrån Våghustorget, Örebro]]></name>
        <description><![CDATA[Pressbyrån Våghustorget, Örebro, Örebro]]></description>
        <Point><coordinates>15.209939,59.270036,0</coordinates></Point>
        <styleUrl>#icon-22</styleUrl>
      </Placemark>
      <Placemark>
        <name><![CDATA[Pressbyrån Örebro Jvg]]></name>
        <description><![CDATA[Pressbyrån Örebro Jvg, Örebro]]></description>
        <Point><coordinates>15.211617,59.278914,0</coordinates></Point>
        <styleUrl>#icon-22</styleUrl>
      </Placemark>
      <Placemark>
        <name><![CDATA[Pressbyrån Örebro Drottninggatan]]></name>
        <description><![CDATA[Pressbyrån Örebro Drottninggatan, Örebro]]></description>
        <Point><coordinates>15.212074,59.27243,0</coordinates></Point>
        <styleUrl>#icon-22</styleUrl>
      </Placemark>
      <Placemark>
        <name><![CDATA[Pressbyrån Örebro Järntorget]]></name>
        <description><![CDATA[Pressbyrån Örebro Järntorget, Örebro]]></description>
        <Point><coordinates>15.21375,59.27471,0</coordinates></Point>
        <styleUrl>#icon-22</styleUrl>
      </Placemark>
      <Placemark>
        <name><![CDATA[Pressbyrån Örebro Universitetssjukhus]]></name>
        <description><![CDATA[Pressbyrån Örebro Universitetssjukhus, Örebro]]></description>
        <Point><coordinates>15.227448,59.275825,0</coordinates></Point>
        <styleUrl>#icon-22</styleUrl>
      </Placemark>
      <Placemark>
        <name><![CDATA[Pressbyrån Örebro Universitet]]></name>
        <description><![CDATA[Pressbyrån Örebro Universitet, Örebro]]></description>
        <Point><coordinates>15.244142,59.253937,0</coordinates></Point>
        <styleUrl>#icon-22</styleUrl>
      </Placemark>
      <Placemark>
        <name><![CDATA[Pressbyrån Ronneby Jvg]]></name>
        <description><![CDATA[Pressbyrån Ronneby Jvg, Ronneby]]></description>
        <Point><coordinates>15.28307,56.20706,0</coordinates></Point>
        <styleUrl>#icon-22</styleUrl>
      </Placemark>
      <Placemark>
        <name><![CDATA[Pressbyrån Borlänge Jvg]]></name>
        <description><![CDATA[Pressbyrån Borlänge Jvg, Borlänge]]></description>
        <Point><coordinates>15.426572,60.48299,0</coordinates></Point>
        <styleUrl>#icon-22</styleUrl>
      </Placemark>
      <Placemark>
        <name><![CDATA[Pressbyrån Linköping Universitet]]></name>
        <description><![CDATA[Pressbyrån Linköping Universitet, Linköping]]></description>
        <Point><coordinates>15.57757,58.39683,0</coordinates></Point>
        <styleUrl>#icon-22</styleUrl>
      </Placemark>
      <Placemark>
        <name><![CDATA[Pressbyrån Universitetssjukhuset Linköping]]></name>
        <description><![CDATA[Pressbyrån Universitetssjukhuset Linköping, Linköping]]></description>
        <Point><coordinates>15.621164,58.401925,0</coordinates></Point>
        <styleUrl>#icon-22</styleUrl>
      </Placemark>
      <Placemark>
        <name><![CDATA[Pressbyrån Linköping Stora torget]]></name>
        <description><![CDATA[Pressbyrån Linköping Stora torget, Linköping]]></description>
        <Point><coordinates>15.621507,58.410372,0</coordinates></Point>
        <styleUrl>#icon-22</styleUrl>
      </Placemark>
      <Placemark>
        <name><![CDATA[Pressbyrån Trädgårdstorget Linköping]]></name>
        <description><![CDATA[Pressbyrån Trädgårdstorget Linköping, Linköping]]></description>
        <Point><coordinates>15.6244,58.40933,0</coordinates></Point>
        <styleUrl>#icon-22</styleUrl>
      </Placemark>
      <Placemark>
        <name><![CDATA[Pressbyrån Linköping Cstn]]></name>
        <description><![CDATA[Pressbyrån Linköping Cstn, Linköping]]></description>
        <Point><coordinates>15.62619,58.41593,0</coordinates></Point>
        <styleUrl>#icon-22</styleUrl>
      </Placemark>
      <Placemark>
        <name><![CDATA[Pressbyrån Knutpunkten Falun]]></name>
        <description><![CDATA[Pressbyrån Knutpunkten Falun, Falun]]></description>
        <Point><coordinates>15.634543,60.604677,0</coordinates></Point>
        <styleUrl>#icon-22</styleUrl>
      </Placemark>
      <Placemark>
        <name><![CDATA[Pressbyrån Finspång]]></name>
        <description><![CDATA[Pressbyrån Finspång, Finspång]]></description>
        <Point><coordinates>15.772935,58.707964,0</coordinates></Point>
        <styleUrl>#icon-22</styleUrl>
      </Placemark>
      <Placemark>
        <name><![CDATA[Pressbyrån Vrinnevisjukhuset, Norrköping]]></name>
        <description><![CDATA[Pressbyrån Vrinnevisjukhuset, Norrköping, Norrköping]]></description>
        <Point><coordinates>16.178899,58.563253,0</coordinates></Point>
        <styleUrl>#icon-22</styleUrl>
      </Placemark>
      <Placemark>
        <name><![CDATA[Pressbyrån Norrköping Cstn]]></name>
        <description><![CDATA[Pressbyrån Norrköping Cstn, Norrköping]]></description>
        <Point><coordinates>16.184267,58.596361,0</coordinates></Point>
        <styleUrl>#icon-22</styleUrl>
      </Placemark>
      <Placemark>
        <name><![CDATA[Pressbyrån Norrköping Repslagaregatan]]></name>
        <description><![CDATA[Pressbyrån Norrköping Repslagaregatan, Norrköping]]></description>
        <Point><coordinates>16.188254,58.588713,0</coordinates></Point>
        <styleUrl>#icon-22</styleUrl>
      </Placemark>
      <Placemark>
        <name><![CDATA[Pressbyrån Katrineholm Jvg]]></name>
        <description><![CDATA[Pressbyrån Katrineholm Jvg, Katrineholm]]></description>
        <Point><coordinates>16.20687,58.99701,0</coordinates></Point>
        <styleUrl>#icon-22</styleUrl>
      </Placemark>
      <Placemark>
        <name><![CDATA[Pressbyrån Norrköping Mirum Galleria]]></name>
        <description><![CDATA[Pressbyrån Norrköping Mirum Galleria, Norrköping]]></description>
        <Point><coordinates>16.207666,58.572124,0</coordinates></Point>
        <styleUrl>#icon-22</styleUrl>
      </Placemark>
      <Placemark>
        <name><![CDATA[Pressbyrån Norrköping Lindövägen]]></name>
        <description><![CDATA[Pressbyrån Norrköping Lindövägen, Norrköping]]></description>
        <Point><coordinates>16.21157,58.59013,0</coordinates></Point>
        <styleUrl>#icon-22</styleUrl>
      </Placemark>
      <Placemark>
        <name><![CDATA[Pressbyrån Kalmar Lasarett]]></name>
        <description><![CDATA[Pressbyrån Kalmar Lasarett, Kalmar]]></description>
        <Point><coordinates>16.3322,56.6576,0</coordinates></Point>
        <styleUrl>#icon-22</styleUrl>
      </Placemark>
      <Placemark>
        <name><![CDATA[Pressbyrån Kalmar Jvg]]></name>
        <description><![CDATA[Pressbyrån Kalmar Jvg, Kalmar]]></description>
        <Point><coordinates>16.3609,56.6614,0</coordinates></Point>
        <styleUrl>#icon-22</styleUrl>
      </Placemark>
      <Placemark>
        <name><![CDATA[Pressbyrån Kalmar Ö:a Sjögatan]]></name>
        <description><![CDATA[Pressbyrån Kalmar Ö:a Sjögatan, Kalmar]]></description>
        <Point><coordinates>16.36522,56.66577,0</coordinates></Point>
        <styleUrl>#icon-22</styleUrl>
      </Placemark>
      <Placemark>
        <name><![CDATA[Pressbyrån Bollnäs Jvg]]></name>
        <description><![CDATA[Pressbyrån Bollnäs Jvg, Bollnäs]]></description>
        <Point><coordinates>16.392572,61.350206,0</coordinates></Point>
        <styleUrl>#icon-22</styleUrl>
      </Placemark>
      <Placemark>
        <name><![CDATA[Pressbyrån Gamleby]]></name>
        <description><![CDATA[Pressbyrån Gamleby, Gamleby]]></description>
        <Point><coordinates>16.40109,57.89744,0</coordinates></Point>
        <styleUrl>#icon-22</styleUrl>
      </Placemark>
      <Placemark>
        <name><![CDATA[Pressbyrån Västerås Erikslund]]></name>
        <description><![CDATA[Pressbyrån Västerås Erikslund, Västerås]]></description>
        <Point><coordinates>16.455685,59.608391,0</coordinates></Point>
        <styleUrl>#icon-22</styleUrl>
      </Placemark>
      <Placemark>
        <name><![CDATA[Pressbyrån Tuna Park]]></name>
        <description><![CDATA[Pressbyrån Tuna Park, Eskilstuna]]></description>
        <Point><coordinates>16.470114,59.371344,0</coordinates></Point>
        <styleUrl>#icon-22</styleUrl>
      </Placemark>
      <Placemark>
        <name><![CDATA[Pressbyrån Eskilstuna Cstn]]></name>
        <description><![CDATA[Pressbyrån Eskilstuna Cstn, Eskilstuna]]></description>
        <Point><coordinates>16.506483,59.369536,0</coordinates></Point>
        <styleUrl>#icon-22</styleUrl>
      </Placemark>
      <Placemark>
        <name><![CDATA[Pressbyrån Västerås Vasagatan 13]]></name>
        <description><![CDATA[Pressbyrån Västerås Vasagatan 13, Västerås]]></description>
        <Point><coordinates>16.545898,59.61034,0</coordinates></Point>
        <styleUrl>#icon-22</styleUrl>
      </Placemark>
      <Placemark>
        <name><![CDATA[Pressbyrån Västerås Cstn]]></name>
        <description><![CDATA[Pressbyrån Västerås Cstn, Västerås]]></description>
        <Point><coordinates>16.551762,59.607501,0</coordinates></Point>
        <styleUrl>#icon-22</styleUrl>
      </Placemark>
      <Placemark>
        <name><![CDATA[Pressbyrån Borgholm]]></name>
        <description><![CDATA[Pressbyrån Borgholm, Borgholm]]></description>
        <Point><coordinates>16.654894,56.879303,0</coordinates></Point>
        <styleUrl>#icon-22</styleUrl>
      </Placemark>
      <Placemark>
        <name><![CDATA[Pressbyrån Skavsta Flygplats]]></name>
        <description><![CDATA[Pressbyrån Skavsta Flygplats, Nyköping]]></description>
        <Point><coordinates>16.922046,58.784924,0</coordinates></Point>
        <styleUrl>#icon-22</styleUrl>
      </Placemark>
      <Placemark>
        <name><![CDATA[Pressbyrån Nyköping Cstn]]></name>
        <description><![CDATA[Pressbyrån Nyköping Cstn, Nyköping]]></description>
        <Point><coordinates>16.99519,58.75579,0</coordinates></Point>
        <styleUrl>#icon-22</styleUrl>
      </Placemark>
      <Placemark>
        <name><![CDATA[Pressbyrån Nyköping Teatergatan]]></name>
        <description><![CDATA[Pressbyrån Nyköping Teatergatan, Nyköping]]></description>
        <Point><coordinates>17.00177,58.7498,0</coordinates></Point>
        <styleUrl>#icon-22</styleUrl>
      </Placemark>
      <Placemark>
        <name><![CDATA[Pressbyrån Nyköping V Storgatan]]></name>
        <description><![CDATA[Pressbyrån Nyköping V Storgatan, Nyköping]]></description>
        <Point><coordinates>17.004057,58.751391,0</coordinates></Point>
        <styleUrl>#icon-22</styleUrl>
      </Placemark>
      <Placemark>
        <name><![CDATA[Pressbyrån Sundsvall Köpmangatan]]></name>
        <description><![CDATA[Pressbyrån Sundsvall Köpmangatan, Sundsvall]]></description>
        <Point><coordinates>17.30554,62.38911,0</coordinates></Point>
        <styleUrl>#icon-22</styleUrl>
      </Placemark>
      <Placemark>
        <name><![CDATA[Pressbyrån Sundsvalls Sjukhus]]></name>
        <description><![CDATA[Pressbyrån Sundsvalls Sjukhus, Sundsvall]]></description>
        <Point><coordinates>17.305637,62.40804,0</coordinates></Point>
        <styleUrl>#icon-22</styleUrl>
      </Placemark>
      <Placemark>
        <name><![CDATA[Pressbyrån Sundsvall Esplanaden]]></name>
        <description><![CDATA[Pressbyrån Sundsvall Esplanaden, Sundsvall]]></description>
        <Point><coordinates>17.308421,62.391839,0</coordinates></Point>
        <styleUrl>#icon-22</styleUrl>
      </Placemark>
      <Placemark>
        <name><![CDATA[Pressbyrån Gnesta Jvg]]></name>
        <description><![CDATA[Pressbyrån Gnesta Jvg, Gnesta]]></description>
        <Point><coordinates>17.311835,59.048139,0</coordinates></Point>
        <styleUrl>#icon-22</styleUrl>
      </Placemark>
      <Placemark>
        <name><![CDATA[Pressbyrån Centralstationen Sundsvall]]></name>
        <description><![CDATA[Pressbyrån Centralstationen Sundsvall, Sundsvall]]></description>
        <Point><coordinates>17.315609,62.386909,0</coordinates></Point>
        <styleUrl>#icon-22</styleUrl>
      </Placemark>
      <Placemark>
        <name><![CDATA[Pressbyrån Sundsvall Birsta]]></name>
        <description><![CDATA[Pressbyrån Sundsvall Birsta, Sundsvall]]></description>
        <Point><coordinates>17.334323,62.447089,0</coordinates></Point>
        <styleUrl>#icon-22</styleUrl>
      </Placemark>
      <Placemark>
        <name><![CDATA[Pressbyrån Södertälje Cstn]]></name>
        <description><![CDATA[Pressbyrån Södertälje Cstn, Södertälje]]></description>
        <Point><coordinates>17.626619,59.192494,0</coordinates></Point>
        <styleUrl>#icon-22</styleUrl>
      </Placemark>
      <Placemark>
        <name><![CDATA[Pressbyrån Södertälje Torget]]></name>
        <description><![CDATA[Pressbyrån Södertälje Torget, Södertälje]]></description>
        <Point><coordinates>17.626909,59.1974,0</coordinates></Point>
        <styleUrl>#icon-22</styleUrl>
      </Placemark>
      <Placemark>
        <name><![CDATA[Pressbyrån Uppsala S:t Persgatan 10]]></name>
        <description><![CDATA[Pressbyrån Uppsala S:t Persgatan 10, Uppsala]]></description>
        <Point><coordinates>17.6381,59.8598,0</coordinates></Point>
        <styleUrl>#icon-22</styleUrl>
      </Placemark>
      <Placemark>
        <name><![CDATA[Pressbyrån Uppsala Stora Torget]]></name>
        <description><![CDATA[Pressbyrån Uppsala Stora Torget, Uppsala]]></description>
        <Point><coordinates>17.638412,59.858466,0</coordinates></Point>
        <styleUrl>#icon-22</styleUrl>
      </Placemark>
      <Placemark>
        <name><![CDATA[Pressbyrån Uppsala Svava Gallerian]]></name>
        <description><![CDATA[Pressbyrån Uppsala Svava Gallerian, Uppsala]]></description>
        <Point><coordinates>17.644552,59.85813,0</coordinates></Point>
        <styleUrl>#icon-22</styleUrl>
      </Placemark>
      <Placemark>
        <name><![CDATA[Pressbyrån Uppsala Cstn]]></name>
        <description><![CDATA[Pressbyrån Uppsala Cstn, Uppsala]]></description>
        <Point><coordinates>17.645438,59.858588,0</coordinates></Point>
        <styleUrl>#icon-22</styleUrl>
      </Placemark>
      <Placemark>
        <name><![CDATA[Pressbyrån Sigtuna Stora gatan]]></name>
        <description><![CDATA[Pressbyrån Sigtuna Stora gatan, Sigtuna]]></description>
        <Point><coordinates>17.723372,59.617085,0</coordinates></Point>
        <styleUrl>#icon-22</styleUrl>
      </Placemark>
      <Placemark>
        <name><![CDATA[Pressbyrån Hallunda C]]></name>
        <description><![CDATA[Pressbyrån Hallunda C, Norsborg]]></description>
        <Point><coordinates>17.826498,59.244699,0</coordinates></Point>
        <styleUrl>#icon-22</styleUrl>
      </Placemark>
      <Placemark>
        <name><![CDATA[Pressbyrån Jakobsbergs Järnvägsstation]]></name>
        <description><![CDATA[Pressbyrån Jakobsbergs Järnvägsstation, Järfälla]]></description>
        <Point><coordinates>17.832891,59.423964,0</coordinates></Point>
        <styleUrl>#icon-22</styleUrl>
      </Placemark>
      <Placemark>
        <name><![CDATA[Pressbyrån Tumba C]]></name>
        <description><![CDATA[Pressbyrån Tumba C, Tumba]]></description>
        <Point><coordinates>17.834661,59.1986,0</coordinates></Point>
        <styleUrl>#icon-22</styleUrl>
      </Placemark>
      <Placemark>
        <name><![CDATA[Pressbyrån Hässelby Gård T-bana]]></name>
        <description><![CDATA[Pressbyrån Hässelby Gård T-bana, Hässelby]]></description>
        <Point><coordinates>17.843497,59.366966,0</coordinates></Point>
        <styleUrl>#icon-22</styleUrl>
      </Placemark>
      <Placemark>
        <name><![CDATA[Pressbyrån Märsta Stn]]></name>
        <description><![CDATA[Pressbyrån Märsta Stn, Märsta]]></description>
        <Point><coordinates>17.860905,59.628158,0</coordinates></Point>
        <styleUrl>#icon-22</styleUrl>
      </Placemark>
      <Placemark>
        <name><![CDATA[Pressbyrån Barkarby Stora Torget]]></name>
        <description><![CDATA[Pressbyrån Barkarby Stora Torget, Järfälla]]></description>
        <Point><coordinates>17.864593,59.413322,0</coordinates></Point>
        <styleUrl>#icon-22</styleUrl>
      </Placemark>
      <Placemark>
        <name><![CDATA[Pressbyrån Vällingby T-ban]]></name>
        <description><![CDATA[Pressbyrån Vällingby T-ban, Vällingby]]></description>
        <Point><coordinates>17.872276,59.363178,0</coordinates></Point>
        <styleUrl>#icon-22</styleUrl>
      </Placemark>
      <Placemark>
        <name><![CDATA[Pressbyrån Spånga Stn]]></name>
        <description><![CDATA[Pressbyrån Spånga Stn, Spånga]]></description>
        <Point><coordinates>17.897999,59.382835,0</coordinates></Point>
        <styleUrl>#icon-22</styleUrl>
      </Placemark>
      <Placemark>
        <name><![CDATA[Pressbyrån Tullinge Gård]]></name>
        <description><![CDATA[Pressbyrån Tullinge Gård, Tullinge]]></description>
        <Point><coordinates>17.898402,59.215954,0</coordinates></Point>
        <styleUrl>#icon-22</styleUrl>
      </Placemark>
      <Placemark>
        <name><![CDATA[Pressbyrån Upplands-Väsby Jvg]]></name>
        <description><![CDATA[Pressbyrån Upplands-Väsby Jvg, Upplands Väsby]]></description>
        <Point><coordinates>17.8996,59.5218,0</coordinates></Point>
        <styleUrl>#icon-22</styleUrl>
      </Placemark>
      <Placemark>
        <name><![CDATA[Pressbyrån Tullinge Station]]></name>
        <description><![CDATA[Pressbyrån Tullinge Station, Tullinge]]></description>
        <Point><coordinates>17.903091,59.20522,0</coordinates></Point>
        <styleUrl>#icon-22</styleUrl>
      </Placemark>
      <Placemark>
        <name><![CDATA[Pressbyrån Skärholmen T-bana]]></name>
        <description><![CDATA[Pressbyrån Skärholmen T-bana, Skärholmen]]></description>
        <Point><coordinates>17.90705,59.277149,0</coordinates></Point>
        <styleUrl>#icon-22</styleUrl>
      </Placemark>
      <Placemark>
        <name><![CDATA[Pressbyrån Skärholmen C]]></name>
        <description><![CDATA[Pressbyrån Skärholmen C, Skärholmen]]></description>
        <Point><coordinates>17.907661,59.276127,0</coordinates></Point>
        <styleUrl>#icon-22</styleUrl>
      </Placemark>
      <Placemark>
        <name><![CDATA[Pressbyrån Väsby Centrum]]></name>
        <description><![CDATA[Pressbyrån Väsby Centrum, Upplands Väsby]]></description>
        <Point><coordinates>17.91148,59.518742,0</coordinates></Point>
        <styleUrl>#icon-22</styleUrl>
      </Placemark>
      <Placemark>
        <name><![CDATA[Pressbyrån Arlanda Sky City]]></name>
        <description><![CDATA[Pressbyrån Arlanda Sky City, Stockholm-Arlanda]]></description>
        <Point><coordinates>17.929258,59.649021,0</coordinates></Point>
        <styleUrl>#icon-22</styleUrl>
      </Placemark>
      <Placemark>
        <name><![CDATA[Pressbyrån Arlanda Reguljär]]></name>
        <description><![CDATA[Pressbyrån Arlanda Reguljär, Stockholm-Arlanda]]></description>
        <Point><coordinates>17.929559,59.650533,0</coordinates></Point>
        <styleUrl>#icon-22</styleUrl>
      </Placemark>
      <Placemark>
        <name><![CDATA[Pressbyrån Arlanda ANK/Utrikeshallen]]></name>
        <description><![CDATA[Pressbyrån Arlanda ANK/Utrikeshallen, Stockholm-Arlanda]]></description>
        <Point><coordinates>17.931372,59.651861,0</coordinates></Point>
        <styleUrl>#icon-22</styleUrl>
      </Placemark>
      <Placemark>
        <name><![CDATA[Pressbyrån Arlanda T5]]></name>
        <description><![CDATA[Pressbyrån Arlanda T5, Stockholm-Arlanda]]></description>
        <Point><coordinates>17.931482,59.652419,0</coordinates></Point>
        <styleUrl>#icon-22</styleUrl>
      </Placemark>
      <Placemark>
        <name><![CDATA[Pressbyrån Bredäng T-ban]]></name>
        <description><![CDATA[Pressbyrån Bredäng T-ban, Skärholmen]]></description>
        <Point><coordinates>17.93385,59.294797,0</coordinates></Point>
        <styleUrl>#icon-22</styleUrl>
      </Placemark>
      <Placemark>
        <name><![CDATA[Pressbyrån Huddinge Sjh]]></name>
        <description><![CDATA[Pressbyrån Huddinge Sjh, Huddinge]]></description>
        <Point><coordinates>17.936082,59.221187,0</coordinates></Point>
        <styleUrl>#icon-22</styleUrl>
      </Placemark>
      <Placemark>
        <name><![CDATA[Pressbyrån Arlanda airside A-piren terminal 5]]></name>
        <description><![CDATA[Pressbyrån Arlanda airside A-piren terminal 5, Stockholm-Arlanda]]></description>
        <Point><coordinates>17.93692,59.65313,0</coordinates></Point>
        <styleUrl>#icon-22</styleUrl>
      </Placemark>
      <Placemark>
        <name><![CDATA[Pressbyrån Brommaplan T-ban]]></name>
        <description><![CDATA[Pressbyrån Brommaplan T-ban, Bromma]]></description>
        <Point><coordinates>17.938879,59.338425,0</coordinates></Point>
        <styleUrl>#icon-22</styleUrl>
      </Placemark>
      <Placemark>
        <name><![CDATA[Pressbyrån Kista C T-bana]]></name>
        <description><![CDATA[Pressbyrån Kista C T-bana, Kista]]></description>
        <Point><coordinates>17.942498,59.402877,0</coordinates></Point>
        <styleUrl>#icon-22</styleUrl>
      </Placemark>
      <Placemark>
        <name><![CDATA[Pressbyrån Kista Galleria Brandesgången]]></name>
        <description><![CDATA[Pressbyrån Kista Galleria Brandesgången, Kista]]></description>
        <Point><coordinates>17.942674,59.403998,0</coordinates></Point>
        <styleUrl>#icon-22</styleUrl>
      </Placemark>
      <Placemark>
        <name><![CDATA[Pressbyrån Bromma flygplats]]></name>
        <description><![CDATA[Pressbyrån Bromma flygplats, Bromma]]></description>
        <Point><coordinates>17.942722,59.354812,0</coordinates></Point>
        <styleUrl>#icon-22</styleUrl>
      </Placemark>
      <Placemark>
        <name><![CDATA[Pressbyrån Flemingsberg Stn]]></name>
        <description><![CDATA[Pressbyrån Flemingsberg Stn, Huddinge]]></description>
        <Point><coordinates>17.945673,59.218288,0</coordinates></Point>
        <styleUrl>#icon-22</styleUrl>
      </Placemark>
      <Placemark>
        <name><![CDATA[Pressbyrån Kista C/Kistagången]]></name>
        <description><![CDATA[Pressbyrån Kista C/Kistagången, Kista]]></description>
        <Point><coordinates>17.946156,59.403145,0</coordinates></Point>
        <styleUrl>#icon-22</styleUrl>
      </Placemark>
      <Placemark>
        <name><![CDATA[Pressbyrån Sollentuna C]]></name>
        <description><![CDATA[Pressbyrån Sollentuna C, Sollentuna]]></description>
        <Point><coordinates>17.951458,59.427938,0</coordinates></Point>
        <styleUrl>#icon-22</styleUrl>
      </Placemark>
      <Placemark>
        <name><![CDATA[Pressbyrån Fruängen T-bana]]></name>
        <description><![CDATA[Pressbyrån Fruängen T-bana, Hägersten]]></description>
        <Point><coordinates>17.965001,59.285934,0</coordinates></Point>
        <styleUrl>#icon-22</styleUrl>
      </Placemark>
      <Placemark>
        <name><![CDATA[Pressbyrån Sundbyberg Jvg]]></name>
        <description><![CDATA[Pressbyrån Sundbyberg Jvg, Sundbyberg]]></description>
        <Point><coordinates>17.970734,59.360676,0</coordinates></Point>
        <styleUrl>#icon-22</styleUrl>
      </Placemark>
      <Placemark>
        <name><![CDATA[Pressbyrån Sundbyberg T-ban]]></name>
        <description><![CDATA[Pressbyrån Sundbyberg T-ban, Sundbyberg]]></description>
        <Point><coordinates>17.972033,59.360943,0</coordinates></Point>
        <styleUrl>#icon-22</styleUrl>
      </Placemark>
      <Placemark>
        <name><![CDATA[Pressbyrån Solna Strand]]></name>
        <description><![CDATA[Pressbyrån Solna Strand, Solna]]></description>
        <Point><coordinates>17.973415,59.354703,0</coordinates></Point>
        <styleUrl>#icon-22</styleUrl>
      </Placemark>
      <Placemark>
        <name><![CDATA[Pressbyrån Axelsberg T-bana]]></name>
        <description><![CDATA[Pressbyrån Axelsberg T-bana, Hägersten]]></description>
        <Point><coordinates>17.975419,59.304413,0</coordinates></Point>
        <styleUrl>#icon-22</styleUrl>
      </Placemark>
      <Placemark>
        <name><![CDATA[Pressbyrån Alviks Torg]]></name>
        <description><![CDATA[Pressbyrån Alviks Torg, Bromma]]></description>
        <Point><coordinates>17.980193,59.333096,0</coordinates></Point>
        <styleUrl>#icon-22</styleUrl>
      </Placemark>
      <Placemark>
        <name><![CDATA[Pressbyrån Huddinge C]]></name>
        <description><![CDATA[Pressbyrån Huddinge C, Huddinge]]></description>
        <Point><coordinates>17.980317,59.236479,0</coordinates></Point>
        <styleUrl>#icon-22</styleUrl>
      </Placemark>
      <Placemark>
        <name><![CDATA[Pressbyrån Alvik T-ban]]></name>
        <description><![CDATA[Pressbyrån Alvik T-ban, Bromma]]></description>
        <Point><coordinates>17.980513,59.333533,0</coordinates></Point>
        <styleUrl>#icon-22</styleUrl>
      </Placemark>
      <Placemark>
        <name><![CDATA[Pressbyrån Örnsberg T-bana]]></name>
        <description><![CDATA[Pressbyrån Örnsberg T-bana, Hägersten]]></description>
        <Point><coordinates>17.989211,59.305511,0</coordinates></Point>
        <styleUrl>#icon-22</styleUrl>
      </Placemark>
      <Placemark>
        <name><![CDATA[Pressbyrån Telefonplan T-ban]]></name>
        <description><![CDATA[Pressbyrån Telefonplan T-ban, Hägersten]]></description>
        <Point><coordinates>17.99707,59.298382,0</coordinates></Point>
        <styleUrl>#icon-22</styleUrl>
      </Placemark>
      <Placemark>
        <name><![CDATA[Pressbyrån Solna  T-bana]]></name>
        <description><![CDATA[Pressbyrån Solna  T-bana, Solna]]></description>
        <Point><coordinates>17.998772,59.358719,0</coordinates></Point>
        <styleUrl>#icon-22</styleUrl>
      </Placemark>
      <Placemark>
        <name><![CDATA[Pressbyrån Kristineberg T-bana]]></name>
        <description><![CDATA[Pressbyrån Kristineberg T-bana, Stockholm]]></description>
        <Point><coordinates>18.003073,59.332752,0</coordinates></Point>
        <styleUrl>#icon-22</styleUrl>
      </Placemark>
      <Placemark>
        <name><![CDATA[Pressbyrån Västra Skogen T-ban]]></name>
        <description><![CDATA[Pressbyrån Västra Skogen T-ban, Solna]]></description>
        <Point><coordinates>18.004704,59.348071,0</coordinates></Point>
        <styleUrl>#icon-22</styleUrl>
      </Placemark>
      <Placemark>
        <name><![CDATA[Pressbyrån Solna Station]]></name>
        <description><![CDATA[Pressbyrån Solna Station, Solna]]></description>
        <Point><coordinates>18.008695,59.368297,0</coordinates></Point>
        <styleUrl>#icon-22</styleUrl>
      </Placemark>
      <Placemark>
        <name><![CDATA[Pressbyrån Älvsjö Torg]]></name>
        <description><![CDATA[Pressbyrån Älvsjö Torg, Älvsjö]]></description>
        <Point><coordinates>18.009107,59.278821,0</coordinates></Point>
        <styleUrl>#icon-22</styleUrl>
      </Placemark>
      <Placemark>
        <name><![CDATA[Pressbyrån Sthlm Strandbergsgatan]]></name>
        <description><![CDATA[Pressbyrån Sthlm Strandbergsgatan, Stockholm]]></description>
        <Point><coordinates>18.010664,59.338355,0</coordinates></Point>
        <styleUrl>#icon-22</styleUrl>
      </Placemark>
      <Placemark>
        <name><![CDATA[Pressbyrån Älvsjö Jvg]]></name>
        <description><![CDATA[Pressbyrån Älvsjö Jvg, Älvsjö]]></description>
        <Point><coordinates>18.011039,59.278434,0</coordinates></Point>
        <styleUrl>#icon-22</styleUrl>
      </Placemark>
      <Placemark>
        <name><![CDATA[Pressbyrån Älvsjö Mässan]]></name>
        <description><![CDATA[Pressbyrån Älvsjö Mässan, Älvsjö]]></description>
        <Point><coordinates>18.015209,59.277643,0</coordinates></Point>
        <styleUrl>#icon-22</styleUrl>
      </Placemark>
      <Placemark>
        <name><![CDATA[Pressbyrån Sthlm Thorildsplan]]></name>
        <description><![CDATA[Pressbyrån Sthlm Thorildsplan, Stockholm]]></description>
        <Point><coordinates>18.015454,59.33204,0</coordinates></Point>
        <styleUrl>#icon-22</styleUrl>
      </Placemark>
      <Placemark>
        <name><![CDATA[Pressbyrån Liljeholmen T-ban]]></name>
        <description><![CDATA[Pressbyrån Liljeholmen T-ban, Stockholm]]></description>
        <Point><coordinates>18.022078,59.310226,0</coordinates></Point>
        <styleUrl>#icon-22</styleUrl>
      </Placemark>
      <Placemark>
        <name><![CDATA[Pressbyrån Rågsved T-bana]]></name>
        <description><![CDATA[Pressbyrån Rågsved T-bana, Bandhagen]]></description>
        <Point><coordinates>18.027838,59.256491,0</coordinates></Point>
        <styleUrl>#icon-22</styleUrl>
      </Placemark>
      <Placemark>
        <name><![CDATA[Pressbyrån Sthlm Marievik]]></name>
        <description><![CDATA[Pressbyrån Sthlm Marievik, Stockholm]]></description>
        <Point><coordinates>18.028148,59.309633,0</coordinates></Point>
        <styleUrl>#icon-22</styleUrl>
      </Placemark>
      <Placemark>
        <name><![CDATA[Pressbyrån Fridhemsplan T-bana]]></name>
        <description><![CDATA[Pressbyrån Fridhemsplan T-bana, Stockholm]]></description>
        <Point><coordinates>18.029455,59.332281,0</coordinates></Point>
        <styleUrl>#icon-22</styleUrl>
      </Placemark>
      <Placemark>
        <name><![CDATA[Pressbyrån Nya Karolinska]]></name>
        <description><![CDATA[Pressbyrån Nya Karolinska, Solna]]></description>
        <Point><coordinates>18.029748,59.348469,0</coordinates></Point>
        <styleUrl>#icon-22</styleUrl>
      </Placemark>
      <Placemark>
        <name><![CDATA[Pressbyrån Årstaberg]]></name>
        <description><![CDATA[Pressbyrån Årstaberg, Årsta]]></description>
        <Point><coordinates>18.030325,59.299592,0</coordinates></Point>
        <styleUrl>#icon-22</styleUrl>
      </Placemark>
      <Placemark>
        <name><![CDATA[Pressbyrån Västermalmsgallerian]]></name>
        <description><![CDATA[Pressbyrån Västermalmsgallerian, Stockholm]]></description>
        <Point><coordinates>18.031754,59.33459,0</coordinates></Point>
        <styleUrl>#icon-22</styleUrl>
      </Placemark>
      <Placemark>
        <name><![CDATA[Pressbyrån S:t Eriks Ögonsjukhus]]></name>
        <description><![CDATA[Pressbyrån S:t Eriks Ögonsjukhus, Solna]]></description>
        <Point><coordinates>18.032407,59.34853,0</coordinates></Point>
        <styleUrl>#icon-22</styleUrl>
      </Placemark>
      <Placemark>
        <name><![CDATA[Pressbyrån Fridhemsplan T-ba/Fleminggatan]]></name>
        <description><![CDATA[Pressbyrån Fridhemsplan T-ba/Fleminggatan, Stockholm]]></description>
        <Point><coordinates>18.03247,59.334153,0</coordinates></Point>
        <styleUrl>#icon-22</styleUrl>
      </Placemark>
      <Placemark>
        <name><![CDATA[Pressbyrån Sthlm Karolinska Sjh Entrén]]></name>
        <description><![CDATA[Pressbyrån Sthlm Karolinska Sjh Entrén, Stockholm]]></description>
        <Point><coordinates>18.032717,59.352359,0</coordinates></Point>
        <styleUrl>#icon-22</styleUrl>
      </Placemark>
      <Placemark>
        <name><![CDATA[Pressbyrån Hornstull T-bana]]></name>
        <description><![CDATA[Pressbyrån Hornstull T-bana, Stockholm]]></description>
        <Point><coordinates>18.03422,59.31577,0</coordinates></Point>
        <styleUrl>#icon-22</styleUrl>
      </Placemark>
      <Placemark>
        <name><![CDATA[Pressbyrån S:t Eriksplan T-ban/Rörstrandsg]]></name>
        <description><![CDATA[Pressbyrån S:t Eriksplan T-ban/Rörstrandsg, Stockholm]]></description>
        <Point><coordinates>18.03655,59.33962,0</coordinates></Point>
        <styleUrl>#icon-22</styleUrl>
      </Placemark>
      <Placemark>
        <name><![CDATA[Pressbyrån Mörby C]]></name>
        <description><![CDATA[Pressbyrån Mörby C, Danderyd]]></description>
        <Point><coordinates>18.036557,59.398167,0</coordinates></Point>
        <styleUrl>#icon-22</styleUrl>
      </Placemark>
      <Placemark>
        <name><![CDATA[Pressbyrån S:t Eriksplan T-bana/Torsgatan]]></name>
        <description><![CDATA[Pressbyrån S:t Eriksplan T-bana/Torsgatan, Stockholm]]></description>
        <Point><coordinates>18.0377,59.3415,0</coordinates></Point>
        <styleUrl>#icon-22</styleUrl>
      </Placemark>
      <Placemark>
        <name><![CDATA[Pressbyrån Ger. Danderyd Sjukhus]]></name>
        <description><![CDATA[Pressbyrån Ger. Danderyd Sjukhus, Danderyd]]></description>
        <Point><coordinates>18.038735,59.391986,0</coordinates></Point>
        <styleUrl>#icon-22</styleUrl>
      </Placemark>
      <Placemark>
        <name><![CDATA[Pressbyrån Danderyds Sjh Entré]]></name>
        <description><![CDATA[Pressbyrån Danderyds Sjh Entré, Danderyd]]></description>
        <Point><coordinates>18.039832,59.392186,0</coordinates></Point>
        <styleUrl>#icon-22</styleUrl>
      </Placemark>
      <Placemark>
        <name><![CDATA[Pressbyrån Rådhuset T-bana]]></name>
        <description><![CDATA[Pressbyrån Rådhuset T-bana, Stockholm]]></description>
        <Point><coordinates>18.041997,59.330344,0</coordinates></Point>
        <styleUrl>#icon-22</styleUrl>
      </Placemark>
      <Placemark>
        <name><![CDATA[Pressbyrån Högdalen T-bana]]></name>
        <description><![CDATA[Pressbyrån Högdalen T-bana, Bandhagen]]></description>
        <Point><coordinates>18.04259,59.263503,0</coordinates></Point>
        <styleUrl>#icon-22</styleUrl>
      </Placemark>
      <Placemark>
        <name><![CDATA[Pressbyrån Zinkensdamm T-bana]]></name>
        <description><![CDATA[Pressbyrån Zinkensdamm T-bana, Stockholm]]></description>
        <Point><coordinates>18.050221,59.317765,0</coordinates></Point>
        <styleUrl>#icon-22</styleUrl>
      </Placemark>
      <Placemark>
        <name><![CDATA[Pressbyrån Odenplan T-ban]]></name>
        <description><![CDATA[Pressbyrån Odenplan T-ban, Stockholm]]></description>
        <Point><coordinates>18.05051,59.342835,0</coordinates></Point>
        <styleUrl>#icon-22</styleUrl>
      </Placemark>
      <Placemark>
        <name><![CDATA[Pressbyrån Sthlm Universitetet T-ban]]></name>
        <description><![CDATA[Pressbyrån Sthlm Universitetet T-ban, Stockholm]]></description>
        <Point><coordinates>18.05367,59.36534,0</coordinates></Point>
        <styleUrl>#icon-22</styleUrl>
      </Placemark>
      <Placemark>
        <name><![CDATA[Pressbyrån Sthlm Cityterminalen]]></name>
        <description><![CDATA[Pressbyrån Sthlm Cityterminalen, Stockholm]]></description>
        <Point><coordinates>18.05642,59.33145,0</coordinates></Point>
        <styleUrl>#icon-22</styleUrl>
      </Placemark>
      <Placemark>
        <name><![CDATA[Pressbyrån Sthlm Södersjukhuset]]></name>
        <description><![CDATA[Pressbyrån Sthlm Södersjukhuset, Stockholm]]></description>
        <Point><coordinates>18.056695,59.310012,0</coordinates></Point>
        <styleUrl>#icon-22</styleUrl>
      </Placemark>
      <Placemark>
        <name><![CDATA[Pressbyrån Sthlm  Cstn  Övre Hallen]]></name>
        <description><![CDATA[Pressbyrån Sthlm  Cstn  Övre Hallen, Stockholm]]></description>
        <Point><coordinates>18.056792,59.330388,0</coordinates></Point>
        <styleUrl>#icon-22</styleUrl>
      </Placemark>
      <Placemark>
        <name><![CDATA[Pressbyrån Sthlm Sveavägen 67A]]></name>
        <description><![CDATA[Pressbyrån Sthlm Sveavägen 67A, Stockholm]]></description>
        <Point><coordinates>18.0569,59.3422,0</coordinates></Point>
        <styleUrl>#icon-22</styleUrl>
      </Placemark>
      <Placemark>
        <name><![CDATA[Pressbyrån Sthlm Cstn Norra Hallen]]></name>
        <description><![CDATA[Pressbyrån Sthlm Cstn Norra Hallen, Stockholm]]></description>
        <Point><coordinates>18.057564,59.330951,0</coordinates></Point>
        <styleUrl>#icon-22</styleUrl>
      </Placemark>
      <Placemark>
        <name><![CDATA[Pressbyrån Sthlm Cstn Stora Hallen]]></name>
        <description><![CDATA[Pressbyrån Sthlm Cstn Stora Hallen, Stockholm]]></description>
        <Point><coordinates>18.057672,59.330277,0</coordinates></Point>
        <styleUrl>#icon-22</styleUrl>
      </Placemark>
      <Placemark>
        <name><![CDATA[Pressbyrån Mariatorget T-bana Polishuset]]></name>
        <description><![CDATA[Pressbyrån Mariatorget T-bana Polishuset, Stockholm]]></description>
        <Point><coordinates>18.057817,59.317293,0</coordinates></Point>
        <styleUrl>#icon-22</styleUrl>
      </Placemark>
      <Placemark>
        <name><![CDATA[Pressbyrån Albano]]></name>
        <description><![CDATA[Pressbyrån Albano, Stockholm]]></description>
        <Point><coordinates>18.058487,59.355278,0</coordinates></Point>
        <styleUrl>#icon-22</styleUrl>
      </Placemark>
      <Placemark>
        <name><![CDATA[PBX Albano]]></name>
        <description><![CDATA[PBX Albano, Stockholm]]></description>
        <Point><coordinates>18.058567,59.355288,0</coordinates></Point>
        <styleUrl>#icon-22</styleUrl>
      </Placemark>
      <Placemark>
        <name><![CDATA[Pressbyrån Universitet A-huset]]></name>
        <description><![CDATA[Pressbyrån Universitet A-huset, Stockholm]]></description>
        <Point><coordinates>18.058627,59.362606,0</coordinates></Point>
        <styleUrl>#icon-22</styleUrl>
      </Placemark>
      <Placemark>
        <name><![CDATA[Pressbyrån Citybanan]]></name>
        <description><![CDATA[Pressbyrån Citybanan, Stockholm]]></description>
        <Point><coordinates>18.058691,59.330554,0</coordinates></Point>
        <styleUrl>#icon-22</styleUrl>
      </Placemark>
      <Placemark>
        <name><![CDATA[Pressbyrån Rådmansgatan T-ban]]></name>
        <description><![CDATA[Pressbyrån Rådmansgatan T-ban, Stockholm]]></description>
        <Point><coordinates>18.05876,59.34046,0</coordinates></Point>
        <styleUrl>#icon-22</styleUrl>
      </Placemark>
      <Placemark>
        <name><![CDATA[Pressbyrån Nedre Hallen]]></name>
        <description><![CDATA[Pressbyrån Nedre Hallen, Stockholm]]></description>
        <Point><coordinates>18.058906,59.330289,0</coordinates></Point>
        <styleUrl>#icon-22</styleUrl>
      </Placemark>
      <Placemark>
        <name><![CDATA[Pressbyrån Sthlm Central/ Vasagatan]]></name>
        <description><![CDATA[Pressbyrån Sthlm Central/ Vasagatan, Stockholm]]></description>
        <Point><coordinates>18.059367,59.33105,0</coordinates></Point>
        <styleUrl>#icon-22</styleUrl>
      </Placemark>
      <Placemark>
        <name><![CDATA[Pressbyrån Klarabergsg, T-baneplan]]></name>
        <description><![CDATA[Pressbyrån Klarabergsg, T-baneplan, Stockholm]]></description>
        <Point><coordinates>18.06002,59.332527,0</coordinates></Point>
        <styleUrl>#icon-22</styleUrl>
      </Placemark>
      <Placemark>
        <name><![CDATA[Pressbyrån Drottninggatan 65, 111 36 Stockholm]]></name>
        <description><![CDATA[Pressbyrån Drottninggatan 65, 111 36 Stockholm, Stockholm]]></description>
        <Point><coordinates>18.060259,59.334942,0</coordinates></Point>
        <styleUrl>#icon-22</styleUrl>
      </Placemark>
      <Placemark>
        <name><![CDATA[Pressbyrån Klarabergsgatan 29 Stockholm]]></name>
        <description><![CDATA[Pressbyrån Klarabergsgatan 29 Stockholm, Stockholm]]></description>
        <Point><coordinates>18.062168,59.332096,0</coordinates></Point>
        <styleUrl>#icon-22</styleUrl>
      </Placemark>
      <Placemark>
        <name><![CDATA[Pressbyrån Hötorget T-bana/Olof Palmes gata]]></name>
        <description><![CDATA[Pressbyrån Hötorget T-bana/Olof Palmes gata, Stockholm]]></description>
        <Point><coordinates>18.06251,59.336475,0</coordinates></Point>
        <styleUrl>#icon-22</styleUrl>
      </Placemark>
      <Placemark>
        <name><![CDATA[Pressbyrån Hötorget T-ban/Oxtorgsgatan]]></name>
        <description><![CDATA[Pressbyrån Hötorget T-ban/Oxtorgsgatan, Stockholm]]></description>
        <Point><coordinates>18.0627,59.334995,0</coordinates></Point>
        <styleUrl>#icon-22</styleUrl>
      </Placemark>
      <Placemark>
        <name><![CDATA[Pressbyrån Sthlm Södra Station]]></name>
        <description><![CDATA[Pressbyrån Sthlm Södra Station, Stockholm]]></description>
        <Point><coordinates>18.06279,59.314102,0</coordinates></Point>
        <styleUrl>#icon-22</styleUrl>
      </Placemark>
      <Placemark>
        <name><![CDATA[Pressbyrån Hötorget T-bana Krysset]]></name>
        <description><![CDATA[Pressbyrån Hötorget T-bana Krysset, Stockholm]]></description>
        <Point><coordinates>18.062811,59.3347,0</coordinates></Point>
        <styleUrl>#icon-22</styleUrl>
      </Placemark>
      <Placemark>
        <name><![CDATA[Pressbyrån Mariatorget T-bana Swedenborgsgatan]]></name>
        <description><![CDATA[Pressbyrån Mariatorget T-bana Swedenborgsgatan, Stockholm]]></description>
        <Point><coordinates>18.063256,59.316942,0</coordinates></Point>
        <styleUrl>#icon-22</styleUrl>
      </Placemark>
      <Placemark>
        <name><![CDATA[Pressbyrån Sthlm Sergelgatan]]></name>
        <description><![CDATA[Pressbyrån Sthlm Sergelgatan, Stockholm]]></description>
        <Point><coordinates>18.06445,59.33274,0</coordinates></Point>
        <styleUrl>#icon-22</styleUrl>
      </Placemark>
      <Placemark>
        <name><![CDATA[Pressbyrån Hamngatan 32, Stockholm]]></name>
        <description><![CDATA[Pressbyrån Hamngatan 32, Stockholm, Stockholm]]></description>
        <Point><coordinates>18.066392,59.332626,0</coordinates></Point>
        <styleUrl>#icon-22</styleUrl>
      </Placemark>
      <Placemark>
        <name><![CDATA[Pressbyrån Gamla Stan T-ban]]></name>
        <description><![CDATA[Pressbyrån Gamla Stan T-ban, Stockholm]]></description>
        <Point><coordinates>18.067554,59.323037,0</coordinates></Point>
        <styleUrl>#icon-22</styleUrl>
      </Placemark>
      <Placemark>
        <name><![CDATA[Pressbyrån Sthlm Kungsgatan 19-21]]></name>
        <description><![CDATA[Pressbyrån Sthlm Kungsgatan 19-21, Stockholm]]></description>
        <Point><coordinates>18.067669,59.33597,0</coordinates></Point>
        <styleUrl>#icon-22</styleUrl>
      </Placemark>
      <Placemark>
        <name><![CDATA[Pressbyrån Gallerian, Urban Escape, Stockholm]]></name>
        <description><![CDATA[Pressbyrån Gallerian, Urban Escape, Stockholm, Stockholm]]></description>
        <Point><coordinates>18.067971,59.331015,0</coordinates></Point>
        <styleUrl>#icon-22</styleUrl>
      </Placemark>
      <Placemark>
        <name><![CDATA[Pressbyrån Västerlånggatan]]></name>
        <description><![CDATA[Pressbyrån Västerlånggatan, Stockholm]]></description>
        <Point><coordinates>18.068918,59.32555,0</coordinates></Point>
        <styleUrl>#icon-22</styleUrl>
      </Placemark>
      <Placemark>
        <name><![CDATA[Pressbyrån Sthlm Tekniska Högskolan T-bana]]></name>
        <description><![CDATA[Pressbyrån Sthlm Tekniska Högskolan T-bana, Stockholm]]></description>
        <Point><coordinates>18.071759,59.345855,0</coordinates></Point>
        <styleUrl>#icon-22</styleUrl>
      </Placemark>
      <Placemark>
        <name><![CDATA[Pressbyrån Slussen T-ban Götgatan]]></name>
        <description><![CDATA[Pressbyrån Slussen T-ban Götgatan, Stockholm]]></description>
        <Point><coordinates>18.071855,59.317674,0</coordinates></Point>
        <styleUrl>#icon-22</styleUrl>
      </Placemark>
      <Placemark>
        <name><![CDATA[Press-Stop Sthlm Götgatan]]></name>
        <description><![CDATA[Press-Stop Sthlm Götgatan, Stockholm]]></description>
        <Point><coordinates>18.072111,59.316593,0</coordinates></Point>
        <styleUrl>#icon-22</styleUrl>
      </Placemark>
      <Placemark>
        <name><![CDATA[Pressbyrån Slussen T-bana Södermalmstorg]]></name>
        <description><![CDATA[Pressbyrån Slussen T-bana Södermalmstorg, Stockholm]]></description>
        <Point><coordinates>18.072419,59.319575,0</coordinates></Point>
        <styleUrl>#icon-22</styleUrl>
      </Placemark>
      <Placemark>
        <name><![CDATA[Pressbyrån Hamngatan 11]]></name>
        <description><![CDATA[Pressbyrån Hamngatan 11, Stockholm]]></description>
        <Point><coordinates>18.072971,59.332803,0</coordinates></Point>
        <styleUrl>#icon-22</styleUrl>
      </Placemark>
      <Placemark>
        <name><![CDATA[Pressbyrån Täby C Stortorget]]></name>
        <description><![CDATA[Pressbyrån Täby C Stortorget, Täby]]></description>
        <Point><coordinates>18.073014,59.44429,0</coordinates></Point>
        <styleUrl>#icon-22</styleUrl>
      </Placemark>
      <Placemark>
        <name><![CDATA[Pressbyrån Slussen Saltsjöbanan, Stockholm]]></name>
        <description><![CDATA[Pressbyrån Slussen Saltsjöbanan, Stockholm, Stockholm]]></description>
        <Point><coordinates>18.073166,59.319677,0</coordinates></Point>
        <styleUrl>#icon-22</styleUrl>
      </Placemark>
      <Placemark>
        <name><![CDATA[Pressbyrån Medborgarplatsen T-ban]]></name>
        <description><![CDATA[Pressbyrån Medborgarplatsen T-ban, Stockholm]]></description>
        <Point><coordinates>18.07355,59.314346,0</coordinates></Point>
        <styleUrl>#icon-22</styleUrl>
      </Placemark>
      <Placemark>
        <name><![CDATA[Pressbyrån Östermalmstorg T-bana / Grev Turegatan]]></name>
        <description><![CDATA[Pressbyrån Östermalmstorg T-bana / Grev Turegatan, Stockholm]]></description>
        <Point><coordinates>18.074119,59.335313,0</coordinates></Point>
        <styleUrl>#icon-22</styleUrl>
      </Placemark>
      <Placemark>
        <name><![CDATA[Pressbyrån Sthlm Blasieholmen]]></name>
        <description><![CDATA[Pressbyrån Sthlm Blasieholmen, Stockholm]]></description>
        <Point><coordinates>18.074955,59.329495,0</coordinates></Point>
        <styleUrl>#icon-22</styleUrl>
      </Placemark>
      <Placemark>
        <name><![CDATA[Pressbyrån Sthlm Götgatan 94]]></name>
        <description><![CDATA[Pressbyrån Sthlm Götgatan 94, Stockholm]]></description>
        <Point><coordinates>18.075433,59.309718,0</coordinates></Point>
        <styleUrl>#icon-22</styleUrl>
      </Placemark>
      <Placemark>
        <name><![CDATA[Pressbyrån Sthlm Ringen Köpcentrum]]></name>
        <description><![CDATA[Pressbyrån Sthlm Ringen Köpcentrum, Stockholm]]></description>
        <Point><coordinates>18.07548,59.30764,0</coordinates></Point>
        <styleUrl>#icon-22</styleUrl>
      </Placemark>
      <Placemark>
        <name><![CDATA[Pressbyrån Vallentuna]]></name>
        <description><![CDATA[Pressbyrån Vallentuna, Vallentuna]]></description>
        <Point><coordinates>18.078775,59.534008,0</coordinates></Point>
        <styleUrl>#icon-22</styleUrl>
      </Placemark>
      <Placemark>
        <name><![CDATA[Pressbyrån Östermalmstorg T-ban/Sibyllegatan]]></name>
        <description><![CDATA[Pressbyrån Östermalmstorg T-ban/Sibyllegatan, Stockholm]]></description>
        <Point><coordinates>18.080124,59.336742,0</coordinates></Point>
        <styleUrl>#icon-22</styleUrl>
      </Placemark>
      <Placemark>
        <name><![CDATA[Pressbyrån Gullmarsplan Yttre]]></name>
        <description><![CDATA[Pressbyrån Gullmarsplan Yttre, Johanneshov]]></description>
        <Point><coordinates>18.080471,59.298982,0</coordinates></Point>
        <styleUrl>#icon-22</styleUrl>
      </Placemark>
      <Placemark>
        <name><![CDATA[Pressbyrån Gullmarsplan T-bana]]></name>
        <description><![CDATA[Pressbyrån Gullmarsplan T-bana, Johanneshov]]></description>
        <Point><coordinates>18.081307,59.299053,0</coordinates></Point>
        <styleUrl>#icon-22</styleUrl>
      </Placemark>
      <Placemark>
        <name><![CDATA[Pressbyrån Globen C]]></name>
        <description><![CDATA[Pressbyrån Globen C, Johanneshov]]></description>
        <Point><coordinates>18.081415,59.293383,0</coordinates></Point>
        <styleUrl>#icon-22</styleUrl>
      </Placemark>
      <Placemark>
        <name><![CDATA[Pressbyrån Östermalm]]></name>
        <description><![CDATA[Pressbyrån Östermalm, Stockholm]]></description>
        <Point><coordinates>18.082219,59.339298,0</coordinates></Point>
        <styleUrl>#icon-22</styleUrl>
      </Placemark>
      <Placemark>
        <name><![CDATA[Pressbyrån Hökarängen T-ban]]></name>
        <description><![CDATA[Pressbyrån Hökarängen T-ban, Farsta]]></description>
        <Point><coordinates>18.082541,59.25784,0</coordinates></Point>
        <styleUrl>#icon-22</styleUrl>
      </Placemark>
      <Placemark>
        <name><![CDATA[Pressbyrån Karlaplan T-ban S:a]]></name>
        <description><![CDATA[Pressbyrån Karlaplan T-ban S:a, Stockholm]]></description>
        <Point><coordinates>18.090878,59.338924,0</coordinates></Point>
        <styleUrl>#icon-22</styleUrl>
      </Placemark>
      <Placemark>
        <name><![CDATA[Pressbyrån Dalens Allé]]></name>
        <description><![CDATA[Pressbyrån Dalens Allé, Enskededalen]]></description>
        <Point><coordinates>18.093428,59.285351,0</coordinates></Point>
        <styleUrl>#icon-22</styleUrl>
      </Placemark>
      <Placemark>
        <name><![CDATA[Pressbyrån Farsta T-ban]]></name>
        <description><![CDATA[Pressbyrån Farsta T-ban, Farsta]]></description>
        <Point><coordinates>18.093436,59.243289,0</coordinates></Point>
        <styleUrl>#icon-22</styleUrl>
      </Placemark>
      <Placemark>
        <name><![CDATA[Pressbyrån Gärdet N:a T-bana]]></name>
        <description><![CDATA[Pressbyrån Gärdet N:a T-bana, Stockholm]]></description>
        <Point><coordinates>18.098771,59.347195,0</coordinates></Point>
        <styleUrl>#icon-22</styleUrl>
      </Placemark>
      <Placemark>
        <name><![CDATA[Pressbyrån Farsta Strand]]></name>
        <description><![CDATA[Pressbyrån Farsta Strand, Farsta]]></description>
        <Point><coordinates>18.10174,59.23531,0</coordinates></Point>
        <styleUrl>#icon-22</styleUrl>
      </Placemark>
      <Placemark>
        <name><![CDATA[Pressbyrån Ropsten T-bana]]></name>
        <description><![CDATA[Pressbyrån Ropsten T-bana, Stockholm]]></description>
        <Point><coordinates>18.102229,59.35739,0</coordinates></Point>
        <styleUrl>#icon-22</styleUrl>
      </Placemark>
      <Placemark>
        <name><![CDATA[Pressbyrån Sthlm Hammarby Sjöstad]]></name>
        <description><![CDATA[Pressbyrån Sthlm Hammarby Sjöstad, Stockholm]]></description>
        <Point><coordinates>18.103464,59.302803,0</coordinates></Point>
        <styleUrl>#icon-22</styleUrl>
      </Placemark>
      <Placemark>
        <name><![CDATA[Pressbyrån Västerhaninge C]]></name>
        <description><![CDATA[Pressbyrån Västerhaninge C, Västerhaninge]]></description>
        <Point><coordinates>18.10461,59.122792,0</coordinates></Point>
        <styleUrl>#icon-22</styleUrl>
      </Placemark>
      <Placemark>
        <name><![CDATA[Pressbyrån Kärrtorp T-bana]]></name>
        <description><![CDATA[Pressbyrån Kärrtorp T-bana, Johanneshov]]></description>
        <Point><coordinates>18.114481,59.284504,0</coordinates></Point>
        <styleUrl>#icon-22</styleUrl>
      </Placemark>
      <Placemark>
        <name><![CDATA[Pressbyrån Jordbro Jvg]]></name>
        <description><![CDATA[Pressbyrån Jordbro Jvg, Haninge]]></description>
        <Point><coordinates>18.12669,59.141084,0</coordinates></Point>
        <styleUrl>#icon-22</styleUrl>
      </Placemark>
      <Placemark>
        <name><![CDATA[Pressbyrån Vega pendeltågstation]]></name>
        <description><![CDATA[Pressbyrån Vega pendeltågstation, Haninge]]></description>
        <Point><coordinates>18.135299,59.18552,0</coordinates></Point>
        <styleUrl>#icon-22</styleUrl>
      </Placemark>
      <Placemark>
        <name><![CDATA[Pressbyrån Lidingö C]]></name>
        <description><![CDATA[Pressbyrån Lidingö C, Lidingö]]></description>
        <Point><coordinates>18.135359,59.366488,0</coordinates></Point>
        <styleUrl>#icon-22</styleUrl>
      </Placemark>
      <Placemark>
        <name><![CDATA[Pressbyrån Handenterminalen]]></name>
        <description><![CDATA[Pressbyrån Handenterminalen, Handen]]></description>
        <Point><coordinates>18.136003,59.167607,0</coordinates></Point>
        <styleUrl>#icon-22</styleUrl>
      </Placemark>
      <Placemark>
        <name><![CDATA[Pressbyrån Haninge C]]></name>
        <description><![CDATA[Pressbyrån Haninge C, Handen]]></description>
        <Point><coordinates>18.139747,59.169116,0</coordinates></Point>
        <styleUrl>#icon-22</styleUrl>
      </Placemark>
      <Placemark>
        <name><![CDATA[Pressbyrån Tyresö]]></name>
        <description><![CDATA[Pressbyrån Tyresö, Tyresö]]></description>
        <Point><coordinates>18.228593,59.244002,0</coordinates></Point>
        <styleUrl>#icon-22</styleUrl>
      </Placemark>
      <Placemark>
        <name><![CDATA[Pressbyrån Orminge Centrum]]></name>
        <description><![CDATA[Pressbyrån Orminge Centrum, Saltsjö-Boo]]></description>
        <Point><coordinates>18.257861,59.326934,0</coordinates></Point>
        <styleUrl>#icon-22</styleUrl>
      </Placemark>
      <Placemark>
        <name><![CDATA[Pressbyrån Österväg 3A, 621 45 Visby]]></name>
        <description><![CDATA[Pressbyrån Österväg 3A, 621 45 Visby, Visby]]></description>
        <Point><coordinates>18.299536,57.638043,0</coordinates></Point>
        <styleUrl>#icon-22</styleUrl>
      </Placemark>
      <Placemark>
        <name><![CDATA[Pressbyrån Åkersberga]]></name>
        <description><![CDATA[Pressbyrån Åkersberga, Åkersberga]]></description>
        <Point><coordinates>18.299749,59.479145,0</coordinates></Point>
        <styleUrl>#icon-22</styleUrl>
      </Placemark>
      <Placemark>
        <name><![CDATA[Pressbyrån Vaxholm]]></name>
        <description><![CDATA[Pressbyrån Vaxholm, Vaxholm]]></description>
        <Point><coordinates>18.35301,59.40209,0</coordinates></Point>
        <styleUrl>#icon-22</styleUrl>
      </Placemark>
      <Placemark>
        <name><![CDATA[Pressbyrån Gustavsbergs C]]></name>
        <description><![CDATA[Pressbyrån Gustavsbergs C, Gustavsberg]]></description>
        <Point><coordinates>18.391553,59.326633,0</coordinates></Point>
        <styleUrl>#icon-22</styleUrl>
      </Placemark>
      <Placemark>
        <name><![CDATA[Pressbyrån Roma Kloster]]></name>
        <description><![CDATA[Pressbyrån Roma Kloster, Romakloster]]></description>
        <Point><coordinates>18.454357,57.505413,0</coordinates></Point>
        <styleUrl>#icon-22</styleUrl>
      </Placemark>
      <Placemark>
        <name><![CDATA[Pressbyrån Norrtälje Hantverkareg]]></name>
        <description><![CDATA[Pressbyrån Norrtälje Hantverkareg, Norrtälje]]></description>
        <Point><coordinates>18.699481,59.759102,0</coordinates></Point>
        <styleUrl>#icon-22</styleUrl>
      </Placemark>
      <Placemark>
        <name><![CDATA[Pressbyrån Lasarettsgatan Örnsköldsvik]]></name>
        <description><![CDATA[Pressbyrån Lasarettsgatan Örnsköldsvik, Örnsköldsvik]]></description>
        <Point><coordinates>18.712483,63.291004,0</coordinates></Point>
        <styleUrl>#icon-22</styleUrl>
      </Placemark>
      <Placemark>
        <name><![CDATA[Pressbyrån Umeå]]></name>
        <description><![CDATA[Pressbyrån Umeå, Umeå]]></description>
        <Point><coordinates>20.267394,63.826417,0</coordinates></Point>
        <styleUrl>#icon-22</styleUrl>
      </Placemark>
      <Placemark>
        <name><![CDATA[Pressbyrån Sunderby Sjukhus]]></name>
        <description><![CDATA[Pressbyrån Sunderby Sjukhus, Sunderbyn]]></description>
        <Point><coordinates>21.93196,65.67184,0</coordinates></Point>
        <styleUrl>#icon-22</styleUrl>
      </Placemark>
      <Placemark>
        <name><![CDATA[Pressbyrån Storgatan 33 Luleå]]></name>
        <description><![CDATA[Pressbyrån Storgatan 33 Luleå, Luleå]]></description>
        <Point><coordinates>22.151083,65.584175,0</coordinates></Point>
        <styleUrl>#icon-22</styleUrl>
      </Placemark>
      <Placemark>
        <name><![CDATA[Pressbyrån Luleå Storgatan 67]]></name>
        <description><![CDATA[Pressbyrån Luleå Storgatan 67, Luleå]]></description>
        <Point><coordinates>22.16101,65.58539,0</coordinates></Point>
        <styleUrl>#icon-22</styleUrl>
      </Placemark>
    </Folder>
  </Document>
</kml>