<?xml version="1.0" encoding="UTF-8"?>
<kml xmlns="http://www.opengis.net/kml/2.2">
  <Document>
    <name><![CDATA[Shell Finland]]></name>
    <description/>
    <Style id="icon-22-normal"><IconStyle><scale>1.1</scale><Icon><href>https://www.gstatic.com/mapspro/images/stock/22-blue-dot.png</href></Icon><hotSpot x="16" xunits="pixels" y="32" yunits="insetPixels"/></IconStyle><LabelStyle><scale>0</scale></LabelStyle></Style>
    <Style id="icon-22-highlight"><IconStyle><scale>1.1</scale><Icon><href>https://www.gstatic.com/mapspro/images/stock/22-blue-dot.png</href></Icon><hotSpot x="16" xunits="pixels" y="32" yunits="insetPixels"/></IconStyle><LabelStyle><scale>1.1</scale></LabelStyle></Style>
    <StyleMap id="icon-22"><Pair><key>normal</key><styleUrl>#icon-22-normal</styleUrl></Pair><Pair><key>highlight</key><styleUrl>#icon-22-highlight</styleUrl></Pair></StyleMap>
    <Folder>
      <name><![CDATA[Shell Finland]]></name>
      <Placemark>
        <name><![CDATA[Shell Maarianhamina]]></name>
        <description><![CDATA[Shell Maarianhamina, Mariehamn, Finland]]></description>
        <Point><coordinates>19.944147,60.102578,0</coordinates></Point>
        <styleUrl>#icon-22</styleUrl>
      </Placemark>
      <Placemark>
        <name><![CDATA[Shell TS Närpiö]]></name>
        <description><![CDATA[Shell TS Närpiö, Närpiö, Finland]]></description>
        <Point><coordinates>21.382191,62.477719,0</coordinates></Point>
        <styleUrl>#icon-22</styleUrl>
      </Placemark>
      <Placemark>
        <name><![CDATA[Shell TS Pori Tahkoluoto]]></name>
        <description><![CDATA[Shell TS Pori Tahkoluoto, Pori, Finland]]></description>
        <Point><coordinates>21.4154,61.6337,0</coordinates></Point>
        <styleUrl>#icon-22</styleUrl>
      </Placemark>
      <Placemark>
        <name><![CDATA[Shell Express Uusikaupunki]]></name>
        <description><![CDATA[Shell Express Uusikaupunki, Uusikaupunki, Finland]]></description>
        <Point><coordinates>21.423638,60.803988,0</coordinates></Point>
        <styleUrl>#icon-22</styleUrl>
      </Placemark>
      <Placemark>
        <name><![CDATA[Shell TS Rauma Satama]]></name>
        <description><![CDATA[Shell TS Rauma Satama, Rauma, Finland]]></description>
        <Point><coordinates>21.467819,61.129222,0</coordinates></Point>
        <styleUrl>#icon-22</styleUrl>
      </Placemark>
      <Placemark>
        <name><![CDATA[Shell TS Kristiinankaupunki]]></name>
        <description><![CDATA[Shell TS Kristiinankaupunki, Lapväärtti, Finland]]></description>
        <Point><coordinates>21.4851,62.262,0</coordinates></Point>
        <styleUrl>#icon-22</styleUrl>
      </Placemark>
      <Placemark>
        <name><![CDATA[Shell TS Rauma Kortela]]></name>
        <description><![CDATA[Shell TS Rauma Kortela, Rauma, Finland]]></description>
        <Point><coordinates>21.506447,61.100988,0</coordinates></Point>
        <styleUrl>#icon-22</styleUrl>
      </Placemark>
      <Placemark>
        <name><![CDATA[Shell Express Rauma Karjalakatu]]></name>
        <description><![CDATA[Shell Express Rauma Karjalakatu, Rauma, Finland]]></description>
        <Point><coordinates>21.510795,61.13239,0</coordinates></Point>
        <styleUrl>#icon-22</styleUrl>
      </Placemark>
      <Placemark>
        <name><![CDATA[Shell Express Vaasa Pitkäkatu]]></name>
        <description><![CDATA[Shell Express Vaasa Pitkäkatu, Vaasa, Finland]]></description>
        <Point><coordinates>21.622467,63.091317,0</coordinates></Point>
        <styleUrl>#icon-22</styleUrl>
      </Placemark>
      <Placemark>
        <name><![CDATA[Shell Express Vaasa Meijerinkatu]]></name>
        <description><![CDATA[Shell Express Vaasa Meijerinkatu, Vaasa, Finland]]></description>
        <Point><coordinates>21.635987,63.100591,0</coordinates></Point>
        <styleUrl>#icon-22</styleUrl>
      </Placemark>
      <Placemark>
        <name><![CDATA[Shell Vaasa Kivihaka]]></name>
        <description><![CDATA[Shell Vaasa Kivihaka, Vaasa, Finland]]></description>
        <Point><coordinates>21.658953,63.113612,0</coordinates></Point>
        <styleUrl>#icon-22</styleUrl>
      </Placemark>
      <Placemark>
        <name><![CDATA[Shell Express Vaasa Rantamaantie]]></name>
        <description><![CDATA[Shell Express Vaasa Rantamaantie, Vaasa, Finland]]></description>
        <Point><coordinates>21.664701,63.079057,0</coordinates></Point>
        <styleUrl>#icon-22</styleUrl>
      </Placemark>
      <Placemark>
        <name><![CDATA[Shell Laitila]]></name>
        <description><![CDATA[Shell Laitila, Laitila, Finland]]></description>
        <Point><coordinates>21.700714,60.874179,0</coordinates></Point>
        <styleUrl>#icon-22</styleUrl>
      </Placemark>
      <Placemark>
        <name><![CDATA[Shell TS Vaasa Kiitokaari]]></name>
        <description><![CDATA[Shell TS Vaasa Kiitokaari, Vaasa, Finland]]></description>
        <Point><coordinates>21.721153,63.051112,0</coordinates></Point>
        <styleUrl>#icon-22</styleUrl>
      </Placemark>
      <Placemark>
        <name><![CDATA[Shell Express Pori Tikkula]]></name>
        <description><![CDATA[Shell Express Pori Tikkula, Pori, Finland]]></description>
        <Point><coordinates>21.753112,61.48625,0</coordinates></Point>
        <styleUrl>#icon-22</styleUrl>
      </Placemark>
      <Placemark>
        <name><![CDATA[Shell Express Pori Karjaranta]]></name>
        <description><![CDATA[Shell Express Pori Karjaranta, Pori, Finland]]></description>
        <Point><coordinates>21.783888,61.489622,0</coordinates></Point>
        <styleUrl>#icon-22</styleUrl>
      </Placemark>
      <Placemark>
        <name><![CDATA[Shell TS Pori Satakunnankatu]]></name>
        <description><![CDATA[Shell TS Pori Satakunnankatu, Pori, Finland]]></description>
        <Point><coordinates>21.806346,61.468672,0</coordinates></Point>
        <styleUrl>#icon-22</styleUrl>
      </Placemark>
      <Placemark>
        <name><![CDATA[Shell Pori Koivula]]></name>
        <description><![CDATA[Shell Pori Koivula, Pori, Finland]]></description>
        <Point><coordinates>21.81401,61.474582,0</coordinates></Point>
        <styleUrl>#icon-22</styleUrl>
      </Placemark>
      <Placemark>
        <name><![CDATA[Shell Pori Noormarkku]]></name>
        <description><![CDATA[Shell Pori Noormarkku, Noormarkku, Finland]]></description>
        <Point><coordinates>21.852527,61.584596,0</coordinates></Point>
        <styleUrl>#icon-22</styleUrl>
      </Placemark>
      <Placemark>
        <name><![CDATA[Shell Express Laihia]]></name>
        <description><![CDATA[Shell Express Laihia, Laihia, Finland]]></description>
        <Point><coordinates>22.000987,62.982933,0</coordinates></Point>
        <styleUrl>#icon-22</styleUrl>
      </Placemark>
      <Placemark>
        <name><![CDATA[Shell Pomarkku]]></name>
        <description><![CDATA[Shell Pomarkku, Pomarkku, Finland]]></description>
        <Point><coordinates>22.014351,61.701207,0</coordinates></Point>
        <styleUrl>#icon-22</styleUrl>
      </Placemark>
      <Placemark>
        <name><![CDATA[Shell TS Naantali Satama]]></name>
        <description><![CDATA[Shell TS Naantali Satama, Naantali, Finland]]></description>
        <Point><coordinates>22.061438,60.468741,0</coordinates></Point>
        <styleUrl>#icon-22</styleUrl>
      </Placemark>
      <Placemark>
        <name><![CDATA[Shell TS Turku Satama 2]]></name>
        <description><![CDATA[Shell TS Turku Satama 2, Turku, Finland]]></description>
        <Point><coordinates>22.20909,60.447674,0</coordinates></Point>
        <styleUrl>#icon-22</styleUrl>
      </Placemark>
      <Placemark>
        <name><![CDATA[Shell TS Turku Satama 1]]></name>
        <description><![CDATA[Shell TS Turku Satama 1, Turku, Finland]]></description>
        <Point><coordinates>22.213944,60.447642,0</coordinates></Point>
        <styleUrl>#icon-22</styleUrl>
      </Placemark>
      <Placemark>
        <name><![CDATA[Shell Express Turku Martinmäki]]></name>
        <description><![CDATA[Shell Express Turku Martinmäki, Turku, Finland]]></description>
        <Point><coordinates>22.256953,60.441106,0</coordinates></Point>
        <styleUrl>#icon-22</styleUrl>
      </Placemark>
      <Placemark>
        <name><![CDATA[Shell Express Turku Mäntymäki]]></name>
        <description><![CDATA[Shell Express Turku Mäntymäki, Turku, Finland]]></description>
        <Point><coordinates>22.26325,60.435748,0</coordinates></Point>
        <styleUrl>#icon-22</styleUrl>
      </Placemark>
      <Placemark>
        <name><![CDATA[Shell Turku SataShell]]></name>
        <description><![CDATA[Shell Turku SataShell, Turku, Finland]]></description>
        <Point><coordinates>22.269874,60.457603,0</coordinates></Point>
        <styleUrl>#icon-22</styleUrl>
      </Placemark>
      <Placemark>
        <name><![CDATA[Shell Express Turku Kärsämäentie]]></name>
        <description><![CDATA[Shell Express Turku Kärsämäentie, Turku, Finland]]></description>
        <Point><coordinates>22.283936,60.477375,0</coordinates></Point>
        <styleUrl>#icon-22</styleUrl>
      </Placemark>
      <Placemark>
        <name><![CDATA[Shell Turku Oriketo]]></name>
        <description><![CDATA[Shell Turku Oriketo, Turku, Finland]]></description>
        <Point><coordinates>22.322941,60.486495,0</coordinates></Point>
        <styleUrl>#icon-22</styleUrl>
      </Placemark>
      <Placemark>
        <name><![CDATA[Shell Kaarina]]></name>
        <description><![CDATA[Shell Kaarina, Kaarina, Finland]]></description>
        <Point><coordinates>22.37262,60.407612,0</coordinates></Point>
        <styleUrl>#icon-22</styleUrl>
      </Placemark>
      <Placemark>
        <name><![CDATA[Shell Kankaanpää]]></name>
        <description><![CDATA[Shell Kankaanpää, Kankaanpää, Finland]]></description>
        <Point><coordinates>22.392437,61.801501,0</coordinates></Point>
        <styleUrl>#icon-22</styleUrl>
      </Placemark>
      <Placemark>
        <name><![CDATA[Shell Lieto]]></name>
        <description><![CDATA[Shell Lieto, Lieto, Finland]]></description>
        <Point><coordinates>22.46026,60.502851,0</coordinates></Point>
        <styleUrl>#icon-22</styleUrl>
      </Placemark>
      <Placemark>
        <name><![CDATA[Shell Piikkiö]]></name>
        <description><![CDATA[Shell Piikkiö, Piikkiö, Finland]]></description>
        <Point><coordinates>22.524477,60.42309,0</coordinates></Point>
        <styleUrl>#icon-22</styleUrl>
      </Placemark>
      <Placemark>
        <name><![CDATA[Shell TS Uusikaarlepyy Myllytie]]></name>
        <description><![CDATA[Shell TS Uusikaarlepyy Myllytie, Uusikaarlepyy, Finland]]></description>
        <Point><coordinates>22.542585,63.52672,0</coordinates></Point>
        <styleUrl>#icon-22</styleUrl>
      </Placemark>
      <Placemark>
        <name><![CDATA[Shell Aura]]></name>
        <description><![CDATA[Shell Aura, Aura, Finland]]></description>
        <Point><coordinates>22.552448,60.642726,0</coordinates></Point>
        <styleUrl>#icon-22</styleUrl>
      </Placemark>
      <Placemark>
        <name><![CDATA[Shell Huittinen Mommola]]></name>
        <description><![CDATA[Shell Huittinen Mommola, Pirkkala, Finland]]></description>
        <Point><coordinates>22.682317,61.167872,0</coordinates></Point>
        <styleUrl>#icon-22</styleUrl>
      </Placemark>
      <Placemark>
        <name><![CDATA[Shell Pietarsaari, Raatihuoneenkatu]]></name>
        <description><![CDATA[Shell Pietarsaari, Raatihuoneenkatu, Pietarsaari, Finland]]></description>
        <Point><coordinates>22.687631,63.674209,0</coordinates></Point>
        <styleUrl>#icon-22</styleUrl>
      </Placemark>
      <Placemark>
        <name><![CDATA[Shell Oripää]]></name>
        <description><![CDATA[Shell Oripää, Oripää, Finland]]></description>
        <Point><coordinates>22.693092,60.857071,0</coordinates></Point>
        <styleUrl>#icon-22</styleUrl>
      </Placemark>
      <Placemark>
        <name><![CDATA[Shell Express Pietarsaari Jaakonkatu]]></name>
        <description><![CDATA[Shell Express Pietarsaari Jaakonkatu, Pietarsaari, Finland]]></description>
        <Point><coordinates>22.711525,63.67667,0</coordinates></Point>
        <styleUrl>#icon-22</styleUrl>
      </Placemark>
      <Placemark>
        <name><![CDATA[Shell Express Kemiönsaari Kemiö]]></name>
        <description><![CDATA[Shell Express Kemiönsaari Kemiö, Kemiö, Finland]]></description>
        <Point><coordinates>22.729335,60.161563,0</coordinates></Point>
        <styleUrl>#icon-22</styleUrl>
      </Placemark>
      <Placemark>
        <name><![CDATA[Shell TS Pietarsaari Kållbyntie]]></name>
        <description><![CDATA[Shell TS Pietarsaari Kållbyntie, Pietarsaari, Finland]]></description>
        <Point><coordinates>22.788472,63.650643,0</coordinates></Point>
        <styleUrl>#icon-22</styleUrl>
      </Placemark>
      <Placemark>
        <name><![CDATA[Shell Express Seinäjoki Valtionkatu]]></name>
        <description><![CDATA[Shell Express Seinäjoki Valtionkatu, Seinäjoki, Finland]]></description>
        <Point><coordinates>22.838772,62.793951,0</coordinates></Point>
        <styleUrl>#icon-22</styleUrl>
      </Placemark>
      <Placemark>
        <name><![CDATA[Shell Express Seinäjoki Pohjankaari]]></name>
        <description><![CDATA[Shell Express Seinäjoki Pohjankaari, Seinäjoki, Finland]]></description>
        <Point><coordinates>22.868189,62.801401,0</coordinates></Point>
        <styleUrl>#icon-22</styleUrl>
      </Placemark>
      <Placemark>
        <name><![CDATA[Shell TS Seinäjoki Pohjankaari]]></name>
        <description><![CDATA[Shell TS Seinäjoki Pohjankaari, Seinäjoki, Finland]]></description>
        <Point><coordinates>22.868437,62.803723,0</coordinates></Point>
        <styleUrl>#icon-22</styleUrl>
      </Placemark>
      <Placemark>
        <name><![CDATA[Shell TS Seinäjoki Päivölänkatu]]></name>
        <description><![CDATA[Shell TS Seinäjoki Päivölänkatu, Seinäjoki, Finland]]></description>
        <Point><coordinates>22.869872,62.792577,0</coordinates></Point>
        <styleUrl>#icon-22</styleUrl>
      </Placemark>
      <Placemark>
        <name><![CDATA[Shell Vammala Pesurinkatu]]></name>
        <description><![CDATA[Shell Vammala Pesurinkatu, Sastamala, Finland]]></description>
        <Point><coordinates>22.919978,61.332036,0</coordinates></Point>
        <styleUrl>#icon-22</styleUrl>
      </Placemark>
      <Placemark>
        <name><![CDATA[Shell TS Seinäjoki Roves]]></name>
        <description><![CDATA[Shell TS Seinäjoki Roves, Seinäjoki, Finland]]></description>
        <Point><coordinates>22.92624,62.765374,0</coordinates></Point>
        <styleUrl>#icon-22</styleUrl>
      </Placemark>
      <Placemark>
        <name><![CDATA[Shell Parkano]]></name>
        <description><![CDATA[Shell Parkano, Parkano, Finland]]></description>
        <Point><coordinates>23.012047,62.005444,0</coordinates></Point>
        <styleUrl>#icon-22</styleUrl>
      </Placemark>
      <Placemark>
        <name><![CDATA[Shell Salo Halikko]]></name>
        <description><![CDATA[Shell Salo Halikko, Halikko, Finland]]></description>
        <Point><coordinates>23.045522,60.425143,0</coordinates></Point>
        <styleUrl>#icon-22</styleUrl>
      </Placemark>
      <Placemark>
        <name><![CDATA[Shell Lapua Tamppari]]></name>
        <description><![CDATA[Shell Lapua Tamppari, Lapua, Finland]]></description>
        <Point><coordinates>23.05145,62.959717,0</coordinates></Point>
        <styleUrl>#icon-22</styleUrl>
      </Placemark>
      <Placemark>
        <name><![CDATA[Shell Loimaa]]></name>
        <description><![CDATA[Shell Loimaa, Loimaa, Finland]]></description>
        <Point><coordinates>23.056503,60.84878,0</coordinates></Point>
        <styleUrl>#icon-22</styleUrl>
      </Placemark>
      <Placemark>
        <name><![CDATA[Shell Vammala Stormi]]></name>
        <description><![CDATA[Shell Vammala Stormi, Sastamala, Finland]]></description>
        <Point><coordinates>23.091293,61.359037,0</coordinates></Point>
        <styleUrl>#icon-22</styleUrl>
      </Placemark>
      <Placemark>
        <name><![CDATA[Shell Kokkola Vitsari]]></name>
        <description><![CDATA[Shell Kokkola Vitsari, Kokkola, Finland]]></description>
        <Point><coordinates>23.204731,63.851638,0</coordinates></Point>
        <styleUrl>#icon-22</styleUrl>
      </Placemark>
      <Placemark>
        <name><![CDATA[Shell TS Evijärvi]]></name>
        <description><![CDATA[Shell TS Evijärvi, Evijärvi, Finland]]></description>
        <Point><coordinates>23.4677,63.3598,0</coordinates></Point>
        <styleUrl>#icon-22</styleUrl>
      </Placemark>
      <Placemark>
        <name><![CDATA[Shell Nokia]]></name>
        <description><![CDATA[Shell Nokia, Nokia, Finland]]></description>
        <Point><coordinates>23.483811,61.456328,0</coordinates></Point>
        <styleUrl>#icon-22</styleUrl>
      </Placemark>
      <Placemark>
        <name><![CDATA[Shell Somero]]></name>
        <description><![CDATA[Shell Somero, Somero, Finland]]></description>
        <Point><coordinates>23.518469,60.625727,0</coordinates></Point>
        <styleUrl>#icon-22</styleUrl>
      </Placemark>
      <Placemark>
        <name><![CDATA[Shell Ylöjärvi]]></name>
        <description><![CDATA[Shell Ylöjärvi, Ylöjärvi, Finland]]></description>
        <Point><coordinates>23.549603,61.55825,0</coordinates></Point>
        <styleUrl>#icon-22</styleUrl>
      </Placemark>
      <Placemark>
        <name><![CDATA[Shell Raasepori Pohjankuru]]></name>
        <description><![CDATA[Shell Raasepori Pohjankuru, Pohjankuru, Finland]]></description>
        <Point><coordinates>23.552036,60.101819,0</coordinates></Point>
        <styleUrl>#icon-22</styleUrl>
      </Placemark>
      <Placemark>
        <name><![CDATA[Shell TS Forssa]]></name>
        <description><![CDATA[Shell TS Forssa, Forssa, Finland]]></description>
        <Point><coordinates>23.5727,60.8265,0</coordinates></Point>
        <styleUrl>#icon-22</styleUrl>
      </Placemark>
      <Placemark>
        <name><![CDATA[Shell Raasepori Karjaa]]></name>
        <description><![CDATA[Shell Raasepori Karjaa, Karjaa, Finland]]></description>
        <Point><coordinates>23.64777,60.053778,0</coordinates></Point>
        <styleUrl>#icon-22</styleUrl>
      </Placemark>
      <Placemark>
        <name><![CDATA[Shell Express Tampere Lielahti]]></name>
        <description><![CDATA[Shell Express Tampere Lielahti, Tampere, Finland]]></description>
        <Point><coordinates>23.666253,61.516254,0</coordinates></Point>
        <styleUrl>#icon-22</styleUrl>
      </Placemark>
      <Placemark>
        <name><![CDATA[Shell TS Muonio]]></name>
        <description><![CDATA[Shell TS Muonio, Muonio, Finland]]></description>
        <Point><coordinates>23.675696,67.946097,0</coordinates></Point>
        <styleUrl>#icon-22</styleUrl>
      </Placemark>
      <Placemark>
        <name><![CDATA[Shell Tampere Lahdenperänkatu]]></name>
        <description><![CDATA[Shell Tampere Lahdenperänkatu, Tampere, Finland]]></description>
        <Point><coordinates>23.77212,61.476619,0</coordinates></Point>
        <styleUrl>#icon-22</styleUrl>
      </Placemark>
      <Placemark>
        <name><![CDATA[Shell Tampere Sammon Valtatie]]></name>
        <description><![CDATA[Shell Tampere Sammon Valtatie, Tampere, Finland]]></description>
        <Point><coordinates>23.857225,61.488743,0</coordinates></Point>
        <styleUrl>#icon-22</styleUrl>
      </Placemark>
      <Placemark>
        <name><![CDATA[Shell Express Toijala]]></name>
        <description><![CDATA[Shell Express Toijala, Akaa, Finland]]></description>
        <Point><coordinates>23.86915,61.169604,0</coordinates></Point>
        <styleUrl>#icon-22</styleUrl>
      </Placemark>
      <Placemark>
        <name><![CDATA[Shell Kalajoki]]></name>
        <description><![CDATA[Shell Kalajoki, Kalajoki, Finland]]></description>
        <Point><coordinates>23.93582,64.255449,0</coordinates></Point>
        <styleUrl>#icon-22</styleUrl>
      </Placemark>
      <Placemark>
        <name><![CDATA[Shell Pello]]></name>
        <description><![CDATA[Shell Pello, Pello, Finland]]></description>
        <Point><coordinates>23.965465,66.77586,0</coordinates></Point>
        <styleUrl>#icon-22</styleUrl>
      </Placemark>
      <Placemark>
        <name><![CDATA[Shell Kangasala Ruutana]]></name>
        <description><![CDATA[Shell Kangasala Ruutana, Ruutana, Finland]]></description>
        <Point><coordinates>23.99338,61.536348,0</coordinates></Point>
        <styleUrl>#icon-22</styleUrl>
      </Placemark>
      <Placemark>
        <name><![CDATA[Shell Lohja Virkkala]]></name>
        <description><![CDATA[Shell Lohja Virkkala, Lohja, Finland]]></description>
        <Point><coordinates>23.997402,60.187978,0</coordinates></Point>
        <styleUrl>#icon-22</styleUrl>
      </Placemark>
      <Placemark>
        <name><![CDATA[Shell Valkeakoski]]></name>
        <description><![CDATA[Shell Valkeakoski, Valkeakoski, Finland]]></description>
        <Point><coordinates>24.003873,61.282593,0</coordinates></Point>
        <styleUrl>#icon-22</styleUrl>
      </Placemark>
      <Placemark>
        <name><![CDATA[Shell TS Lohja Karnainen]]></name>
        <description><![CDATA[Shell TS Lohja Karnainen, Lohja, Finland]]></description>
        <Point><coordinates>24.0659,60.2934,0</coordinates></Point>
        <styleUrl>#icon-22</styleUrl>
      </Placemark>
      <Placemark>
        <name><![CDATA[Shell Hämeenlinna Iittala]]></name>
        <description><![CDATA[Shell Hämeenlinna Iittala, Iittala, Finland]]></description>
        <Point><coordinates>24.162538,61.097911,0</coordinates></Point>
        <styleUrl>#icon-22</styleUrl>
      </Placemark>
      <Placemark>
        <name><![CDATA[Shell Karkkila]]></name>
        <description><![CDATA[Shell Karkkila, Karkkila, Finland]]></description>
        <Point><coordinates>24.220933,60.543837,0</coordinates></Point>
        <styleUrl>#icon-22</styleUrl>
      </Placemark>
      <Placemark>
        <name><![CDATA[Shell TS Siuntio Pikkala]]></name>
        <description><![CDATA[Shell TS Siuntio Pikkala, Siuntio, Finland]]></description>
        <Point><coordinates>24.2922,60.0982,0</coordinates></Point>
        <styleUrl>#icon-22</styleUrl>
      </Placemark>
      <Placemark>
        <name><![CDATA[Shell Orivesi]]></name>
        <description><![CDATA[Shell Orivesi, Orivesi, Finland]]></description>
        <Point><coordinates>24.355706,61.689304,0</coordinates></Point>
        <styleUrl>#icon-22</styleUrl>
      </Placemark>
      <Placemark>
        <name><![CDATA[Shell Express Orivesi]]></name>
        <description><![CDATA[Shell Express Orivesi, Orivesi, Finland]]></description>
        <Point><coordinates>24.356971,61.682349,0</coordinates></Point>
        <styleUrl>#icon-22</styleUrl>
      </Placemark>
      <Placemark>
        <name><![CDATA[Shell Loppi]]></name>
        <description><![CDATA[Shell Loppi, Jokiniemi, Finland]]></description>
        <Point><coordinates>24.478096,60.714519,0</coordinates></Point>
        <styleUrl>#icon-22</styleUrl>
      </Placemark>
      <Placemark>
        <name><![CDATA[Shell Ylivieska]]></name>
        <description><![CDATA[Shell Ylivieska, Ylivieska, Finland]]></description>
        <Point><coordinates>24.529539,64.070536,0</coordinates></Point>
        <styleUrl>#icon-22</styleUrl>
      </Placemark>
      <Placemark>
        <name><![CDATA[Shell TS Espoo Ämmässuo]]></name>
        <description><![CDATA[Shell TS Espoo Ämmässuo, Espoo, Finland]]></description>
        <Point><coordinates>24.561695,60.243293,0</coordinates></Point>
        <styleUrl>#icon-22</styleUrl>
      </Placemark>
      <Placemark>
        <name><![CDATA[Shell Kyyjärvi]]></name>
        <description><![CDATA[Shell Kyyjärvi, Kyyjärvi, Finland]]></description>
        <Point><coordinates>24.561741,63.043269,0</coordinates></Point>
        <styleUrl>#icon-22</styleUrl>
      </Placemark>
      <Placemark>
        <name><![CDATA[Shell Express Espoo Kauklahti]]></name>
        <description><![CDATA[Shell Express Espoo Kauklahti, Espoo, Finland]]></description>
        <Point><coordinates>24.587771,60.187842,0</coordinates></Point>
        <styleUrl>#icon-22</styleUrl>
      </Placemark>
      <Placemark>
        <name><![CDATA[Shell Espoo Suomenoja]]></name>
        <description><![CDATA[Shell Espoo Suomenoja, Espoo, Finland]]></description>
        <Point><coordinates>24.706044,60.161611,0</coordinates></Point>
        <styleUrl>#icon-22</styleUrl>
      </Placemark>
      <Placemark>
        <name><![CDATA[Shell Espoo Lahnus]]></name>
        <description><![CDATA[Shell Espoo Lahnus, Espoo, Finland]]></description>
        <Point><coordinates>24.714944,60.317042,0</coordinates></Point>
        <styleUrl>#icon-22</styleUrl>
      </Placemark>
      <Placemark>
        <name><![CDATA[Shell TS Riihimäki]]></name>
        <description><![CDATA[Shell TS Riihimäki, Riihimäki, Finland]]></description>
        <Point><coordinates>24.737,60.7526,0</coordinates></Point>
        <styleUrl>#icon-22</styleUrl>
      </Placemark>
      <Placemark>
        <name><![CDATA[Shell Express Espoo Sepänkylä]]></name>
        <description><![CDATA[Shell Express Espoo Sepänkylä, Kauniainen, Finland]]></description>
        <Point><coordinates>24.743267,60.208562,0</coordinates></Point>
        <styleUrl>#icon-22</styleUrl>
      </Placemark>
      <Placemark>
        <name><![CDATA[Shell Nurmijärvi Rajamäki]]></name>
        <description><![CDATA[Shell Nurmijärvi Rajamäki, Rajamäki, Finland]]></description>
        <Point><coordinates>24.750706,60.527875,0</coordinates></Point>
        <styleUrl>#icon-22</styleUrl>
      </Placemark>
      <Placemark>
        <name><![CDATA[Shell Express Riihimäki Kaarlonkatu]]></name>
        <description><![CDATA[Shell Express Riihimäki Kaarlonkatu, Riihimäki, Finland]]></description>
        <Point><coordinates>24.765675,60.729479,0</coordinates></Point>
        <styleUrl>#icon-22</styleUrl>
      </Placemark>
      <Placemark>
        <name><![CDATA[Shell Espoo Haukilahti]]></name>
        <description><![CDATA[Shell Espoo Haukilahti, Espoo, Finland]]></description>
        <Point><coordinates>24.77317,60.166172,0</coordinates></Point>
        <styleUrl>#icon-22</styleUrl>
      </Placemark>
      <Placemark>
        <name><![CDATA[Shell Express Nurmijärvi Klaukkala]]></name>
        <description><![CDATA[Shell Express Nurmijärvi Klaukkala, Klaukkala, Finland]]></description>
        <Point><coordinates>24.78357,60.364906,0</coordinates></Point>
        <styleUrl>#icon-22</styleUrl>
      </Placemark>
      <Placemark>
        <name><![CDATA[Shell TS Nurmijärvi Korsisaari]]></name>
        <description><![CDATA[Shell TS Nurmijärvi Korsisaari, Nurmijärvi, Finland]]></description>
        <Point><coordinates>24.79287,60.48377,0</coordinates></Point>
        <styleUrl>#icon-22</styleUrl>
      </Placemark>
      <Placemark>
        <name><![CDATA[Shell Espoo Leppävaara]]></name>
        <description><![CDATA[Shell Espoo Leppävaara, Espoo, Finland]]></description>
        <Point><coordinates>24.809155,60.220512,0</coordinates></Point>
        <styleUrl>#icon-22</styleUrl>
      </Placemark>
      <Placemark>
        <name><![CDATA[Shell Espoo Vallikallio]]></name>
        <description><![CDATA[Shell Espoo Vallikallio, Espoo, Finland]]></description>
        <Point><coordinates>24.824065,60.227293,0</coordinates></Point>
        <styleUrl>#icon-22</styleUrl>
      </Placemark>
      <Placemark>
        <name><![CDATA[Shell Express Vantaa Rajatorppa]]></name>
        <description><![CDATA[Shell Express Vantaa Rajatorppa, Vantaa, Finland]]></description>
        <Point><coordinates>24.827737,60.255291,0</coordinates></Point>
        <styleUrl>#icon-22</styleUrl>
      </Placemark>
      <Placemark>
        <name><![CDATA[Shell Helsinki Konala]]></name>
        <description><![CDATA[Shell Helsinki Konala, Helsinki, Finland]]></description>
        <Point><coordinates>24.8437,60.241569,0</coordinates></Point>
        <styleUrl>#icon-22</styleUrl>
      </Placemark>
      <Placemark>
        <name><![CDATA[Shell Express Hyvinkää Sillankorvankatu]]></name>
        <description><![CDATA[Shell Express Hyvinkää Sillankorvankatu, Hyvinkää, Finland]]></description>
        <Point><coordinates>24.864476,60.627919,0</coordinates></Point>
        <styleUrl>#icon-22</styleUrl>
      </Placemark>
      <Placemark>
        <name><![CDATA[Shell Vantaa Kaivoksela]]></name>
        <description><![CDATA[Shell Vantaa Kaivoksela, Vantaa, Finland]]></description>
        <Point><coordinates>24.873685,60.263892,0</coordinates></Point>
        <styleUrl>#icon-22</styleUrl>
      </Placemark>
      <Placemark>
        <name><![CDATA[Shell Helsinki Lauttasaari]]></name>
        <description><![CDATA[Shell Helsinki Lauttasaari, Helsinki, Finland]]></description>
        <Point><coordinates>24.882778,60.155952,0</coordinates></Point>
        <styleUrl>#icon-22</styleUrl>
      </Placemark>
      <Placemark>
        <name><![CDATA[Shell Express Helsinki Etelä-Haaga]]></name>
        <description><![CDATA[Shell Express Helsinki Etelä-Haaga, Helsinki, Finland]]></description>
        <Point><coordinates>24.886384,60.213298,0</coordinates></Point>
        <styleUrl>#icon-22</styleUrl>
      </Placemark>
      <Placemark>
        <name><![CDATA[Shell Helsinki Tullinpuomi]]></name>
        <description><![CDATA[Shell Helsinki Tullinpuomi, Helsinki, Finland]]></description>
        <Point><coordinates>24.910807,60.191393,0</coordinates></Point>
        <styleUrl>#icon-22</styleUrl>
      </Placemark>
      <Placemark>
        <name><![CDATA[Shell Kittilä]]></name>
        <description><![CDATA[Shell Kittilä, Kittilä, Finland]]></description>
        <Point><coordinates>24.911762,67.654369,0</coordinates></Point>
        <styleUrl>#icon-22</styleUrl>
      </Placemark>
      <Placemark>
        <name><![CDATA[Shell TS Tuusula Senkkerin Metsätie]]></name>
        <description><![CDATA[Shell TS Tuusula Senkkerin Metsätie, Tuusula, Finland]]></description>
        <Point><coordinates>24.92184,60.35751,0</coordinates></Point>
        <styleUrl>#icon-22</styleUrl>
      </Placemark>
      <Placemark>
        <name><![CDATA[Shell Helsinki Käpylä]]></name>
        <description><![CDATA[Shell Helsinki Käpylä, Helsinki, Finland]]></description>
        <Point><coordinates>24.942432,60.213467,0</coordinates></Point>
        <styleUrl>#icon-22</styleUrl>
      </Placemark>
      <Placemark>
        <name><![CDATA[Shell Helsinki Alppila]]></name>
        <description><![CDATA[Shell Helsinki Alppila, Helsinki, Finland]]></description>
        <Point><coordinates>24.94901,60.189441,0</coordinates></Point>
        <styleUrl>#icon-22</styleUrl>
      </Placemark>
      <Placemark>
        <name><![CDATA[Shell Express Helsinki Kruununhaka]]></name>
        <description><![CDATA[Shell Express Helsinki Kruununhaka, Helsinki, Finland]]></description>
        <Point><coordinates>24.961405,60.174144,0</coordinates></Point>
        <styleUrl>#icon-22</styleUrl>
      </Placemark>
      <Placemark>
        <name><![CDATA[Shell Helsinki Pukinmäki]]></name>
        <description><![CDATA[Shell Helsinki Pukinmäki, Helsinki, Finland]]></description>
        <Point><coordinates>24.995393,60.241152,0</coordinates></Point>
        <styleUrl>#icon-22</styleUrl>
      </Placemark>
      <Placemark>
        <name><![CDATA[Shell Vantaa Ruskeasanta]]></name>
        <description><![CDATA[Shell Vantaa Ruskeasanta, Vantaa, Finland]]></description>
        <Point><coordinates>24.998325,60.308197,0</coordinates></Point>
        <styleUrl>#icon-22</styleUrl>
      </Placemark>
      <Placemark>
        <name><![CDATA[Shell Helsinki Ala-Tikkurila]]></name>
        <description><![CDATA[Shell Helsinki Ala-Tikkurila, Helsinki, Finland]]></description>
        <Point><coordinates>25.030151,60.283424,0</coordinates></Point>
        <styleUrl>#icon-22</styleUrl>
      </Placemark>
      <Placemark>
        <name><![CDATA[Shell Helsinki Herttoniemi]]></name>
        <description><![CDATA[Shell Helsinki Herttoniemi, Helsinki, Finland]]></description>
        <Point><coordinates>25.037878,60.194353,0</coordinates></Point>
        <styleUrl>#icon-22</styleUrl>
      </Placemark>
      <Placemark>
        <name><![CDATA[Shell Helsinki Myllypuro]]></name>
        <description><![CDATA[Shell Helsinki Myllypuro, Helsinki, Finland]]></description>
        <Point><coordinates>25.065046,60.22826,0</coordinates></Point>
        <styleUrl>#icon-22</styleUrl>
      </Placemark>
      <Placemark>
        <name><![CDATA[Shell Express Vantaa Rekola]]></name>
        <description><![CDATA[Shell Express Vantaa Rekola, Vantaa, Finland]]></description>
        <Point><coordinates>25.073086,60.331093,0</coordinates></Point>
        <styleUrl>#icon-22</styleUrl>
      </Placemark>
      <Placemark>
        <name><![CDATA[Shell Express Vantaa Malmarinrinne]]></name>
        <description><![CDATA[Shell Express Vantaa Malmarinrinne, Vantaa, Finland]]></description>
        <Point><coordinates>25.081356,60.286542,0</coordinates></Point>
        <styleUrl>#icon-22</styleUrl>
      </Placemark>
      <Placemark>
        <name><![CDATA[Shell Järvenpää Mannilantie]]></name>
        <description><![CDATA[Shell Järvenpää Mannilantie, Järvenpää, Finland]]></description>
        <Point><coordinates>25.086071,60.47378,0</coordinates></Point>
        <styleUrl>#icon-22</styleUrl>
      </Placemark>
      <Placemark>
        <name><![CDATA[Shell Helsinki Itäkeskus]]></name>
        <description><![CDATA[Shell Helsinki Itäkeskus, Helsinki, Finland]]></description>
        <Point><coordinates>25.088461,60.210148,0</coordinates></Point>
        <styleUrl>#icon-22</styleUrl>
      </Placemark>
      <Placemark>
        <name><![CDATA[Shell Express Tuusula Kellokoski]]></name>
        <description><![CDATA[Shell Express Tuusula Kellokoski, Kellokoski, Finland]]></description>
        <Point><coordinates>25.098911,60.520866,0</coordinates></Point>
        <styleUrl>#icon-22</styleUrl>
      </Placemark>
      <Placemark>
        <name><![CDATA[Shell Vantaa Mikkola]]></name>
        <description><![CDATA[Shell Vantaa Mikkola, Vantaa, Finland]]></description>
        <Point><coordinates>25.099075,60.344115,0</coordinates></Point>
        <styleUrl>#icon-22</styleUrl>
      </Placemark>
      <Placemark>
        <name><![CDATA[Shell Vantaa Hakunila]]></name>
        <description><![CDATA[Shell Vantaa Hakunila, Vantaa, Finland]]></description>
        <Point><coordinates>25.10311,60.279594,0</coordinates></Point>
        <styleUrl>#icon-22</styleUrl>
      </Placemark>
      <Placemark>
        <name><![CDATA[Shell Express Helsinki Vartiokylä]]></name>
        <description><![CDATA[Shell Express Helsinki Vartiokylä, Helsinki, Finland]]></description>
        <Point><coordinates>25.106707,60.219148,0</coordinates></Point>
        <styleUrl>#icon-22</styleUrl>
      </Placemark>
      <Placemark>
        <name><![CDATA[Shell TS Sipoo Bastukärr]]></name>
        <description><![CDATA[Shell TS Sipoo Bastukärr, Kerava, Finland]]></description>
        <Point><coordinates>25.167513,60.383053,0</coordinates></Point>
        <styleUrl>#icon-22</styleUrl>
      </Placemark>
      <Placemark>
        <name><![CDATA[Shell TS Helsinki Vuosaari 2]]></name>
        <description><![CDATA[Shell TS Helsinki Vuosaari 2, Helsinki, Finland]]></description>
        <Point><coordinates>25.170286,60.224363,0</coordinates></Point>
        <styleUrl>#icon-22</styleUrl>
      </Placemark>
      <Placemark>
        <name><![CDATA[Shell TS Helsinki Vuosaari 1]]></name>
        <description><![CDATA[Shell TS Helsinki Vuosaari 1, Helsinki, Finland]]></description>
        <Point><coordinates>25.170322,60.224578,0</coordinates></Point>
        <styleUrl>#icon-22</styleUrl>
      </Placemark>
      <Placemark>
        <name><![CDATA[Shell Jämsä]]></name>
        <description><![CDATA[Shell Jämsä, Jämsä, Finland]]></description>
        <Point><coordinates>25.17434,61.851856,0</coordinates></Point>
        <styleUrl>#icon-22</styleUrl>
      </Placemark>
      <Placemark>
        <name><![CDATA[Shell TS Petäjävesi]]></name>
        <description><![CDATA[Shell TS Petäjävesi, Petäjävesi, Finland]]></description>
        <Point><coordinates>25.19281,62.25208,0</coordinates></Point>
        <styleUrl>#icon-22</styleUrl>
      </Placemark>
      <Placemark>
        <name><![CDATA[Shell Veneasema Helsinki Karhusaari]]></name>
        <description><![CDATA[Shell Veneasema Helsinki Karhusaari, Helsinki, Finland]]></description>
        <Point><coordinates>25.237698,60.250028,0</coordinates></Point>
        <styleUrl>#icon-22</styleUrl>
      </Placemark>
      <Placemark>
        <name><![CDATA[Shell Mäntsälä P]]></name>
        <description><![CDATA[Shell Mäntsälä P, Mäntsälä, Finland]]></description>
        <Point><coordinates>25.354187,60.673625,0</coordinates></Point>
        <styleUrl>#icon-22</styleUrl>
      </Placemark>
      <Placemark>
        <name><![CDATA[Shell Ii]]></name>
        <description><![CDATA[Shell Ii, Ii, Finland]]></description>
        <Point><coordinates>25.375972,65.309096,0</coordinates></Point>
        <styleUrl>#icon-22</styleUrl>
      </Placemark>
      <Placemark>
        <name><![CDATA[Shell 2970 TS Kittilän Kaivos]]></name>
        <description><![CDATA[Shell 2970 TS Kittilän Kaivos, Kiistala, Finland]]></description>
        <Point><coordinates>25.394622,67.915315,0</coordinates></Point>
        <styleUrl>#icon-22</styleUrl>
      </Placemark>
      <Placemark>
        <name><![CDATA[Shell 2177 TS Kittilän Kaivos]]></name>
        <description><![CDATA[Shell 2177 TS Kittilän Kaivos, Kiistala, Finland]]></description>
        <Point><coordinates>25.395051,67.915736,0</coordinates></Point>
        <styleUrl>#icon-22</styleUrl>
      </Placemark>
      <Placemark>
        <name><![CDATA[Shell Oulu Pateniemi]]></name>
        <description><![CDATA[Shell Oulu Pateniemi, Oulu, Finland]]></description>
        <Point><coordinates>25.408292,65.08924,0</coordinates></Point>
        <styleUrl>#icon-22</styleUrl>
      </Placemark>
      <Placemark>
        <name><![CDATA[Shell Oulu Oulunsalo]]></name>
        <description><![CDATA[Shell Oulu Oulunsalo, Oulunsalo, Finland]]></description>
        <Point><coordinates>25.430854,64.939477,0</coordinates></Point>
        <styleUrl>#icon-22</styleUrl>
      </Placemark>
      <Placemark>
        <name><![CDATA[Shell TS Oulu Oritkari]]></name>
        <description><![CDATA[Shell TS Oulu Oritkari, Oulu, Finland]]></description>
        <Point><coordinates>25.439145,64.987131,0</coordinates></Point>
        <styleUrl>#icon-22</styleUrl>
      </Placemark>
      <Placemark>
        <name><![CDATA[Shell Express Oulu Välivainio]]></name>
        <description><![CDATA[Shell Express Oulu Välivainio, Oulu, Finland]]></description>
        <Point><coordinates>25.469511,65.031802,0</coordinates></Point>
        <styleUrl>#icon-22</styleUrl>
      </Placemark>
      <Placemark>
        <name><![CDATA[Shell Kempele Hakamaantie]]></name>
        <description><![CDATA[Shell Kempele Hakamaantie, Kempele, Finland]]></description>
        <Point><coordinates>25.512393,64.928589,0</coordinates></Point>
        <styleUrl>#icon-22</styleUrl>
      </Placemark>
      <Placemark>
        <name><![CDATA[Shell Kempele Zeppelin]]></name>
        <description><![CDATA[Shell Kempele Zeppelin, Kempele, Finland]]></description>
        <Point><coordinates>25.538069,64.903812,0</coordinates></Point>
        <styleUrl>#icon-22</styleUrl>
      </Placemark>
      <Placemark>
        <name><![CDATA[Shell Oulu Haapalehto]]></name>
        <description><![CDATA[Shell Oulu Haapalehto, Oulu, Finland]]></description>
        <Point><coordinates>25.544814,65.025516,0</coordinates></Point>
        <styleUrl>#icon-22</styleUrl>
      </Placemark>
      <Placemark>
        <name><![CDATA[Shell Pihtipudas]]></name>
        <description><![CDATA[Shell Pihtipudas, Pihtipudas, Finland]]></description>
        <Point><coordinates>25.588997,63.366612,0</coordinates></Point>
        <styleUrl>#icon-22</styleUrl>
      </Placemark>
      <Placemark>
        <name><![CDATA[Shell Porvoo Kuninkaanportti]]></name>
        <description><![CDATA[Shell Porvoo Kuninkaanportti, Porvoo, Finland]]></description>
        <Point><coordinates>25.609932,60.39314,0</coordinates></Point>
        <styleUrl>#icon-22</styleUrl>
      </Placemark>
      <Placemark>
        <name><![CDATA[Shell Express Lahti Hennala]]></name>
        <description><![CDATA[Shell Express Lahti Hennala, Lahti, Finland]]></description>
        <Point><coordinates>25.629949,60.96967,0</coordinates></Point>
        <styleUrl>#icon-22</styleUrl>
      </Placemark>
      <Placemark>
        <name><![CDATA[Shell Rovaniemi Teollisuustie]]></name>
        <description><![CDATA[Shell Rovaniemi Teollisuustie, Rovaniemi, Finland]]></description>
        <Point><coordinates>25.655578,66.489041,0</coordinates></Point>
        <styleUrl>#icon-22</styleUrl>
      </Placemark>
      <Placemark>
        <name><![CDATA[Shell Muurame]]></name>
        <description><![CDATA[Shell Muurame, Muurame, Finland]]></description>
        <Point><coordinates>25.672361,62.137787,0</coordinates></Point>
        <styleUrl>#icon-22</styleUrl>
      </Placemark>
      <Placemark>
        <name><![CDATA[Shell Lahti Kivistönmäki]]></name>
        <description><![CDATA[Shell Lahti Kivistönmäki, Lahti, Finland]]></description>
        <Point><coordinates>25.67426,60.999512,0</coordinates></Point>
        <styleUrl>#icon-22</styleUrl>
      </Placemark>
      <Placemark>
        <name><![CDATA[Shell Express Porvoo Teollisuustie]]></name>
        <description><![CDATA[Shell Express Porvoo Teollisuustie, Porvoo, Finland]]></description>
        <Point><coordinates>25.687444,60.402852,0</coordinates></Point>
        <styleUrl>#icon-22</styleUrl>
      </Placemark>
      <Placemark>
        <name><![CDATA[Shell Äänekoski Hirvaskangas]]></name>
        <description><![CDATA[Shell Äänekoski Hirvaskangas, Äänekoivisto, Finland]]></description>
        <Point><coordinates>25.690725,62.515464,0</coordinates></Point>
        <styleUrl>#icon-22</styleUrl>
      </Placemark>
      <Placemark>
        <name><![CDATA[Shell Express Kiiminki Jääli]]></name>
        <description><![CDATA[Shell Express Kiiminki Jääli, Jääli, Finland]]></description>
        <Point><coordinates>25.691502,65.100695,0</coordinates></Point>
        <styleUrl>#icon-22</styleUrl>
      </Placemark>
      <Placemark>
        <name><![CDATA[Shell TS Kiiminki Jääli]]></name>
        <description><![CDATA[Shell TS Kiiminki Jääli, Jääli, Finland]]></description>
        <Point><coordinates>25.691502,65.100695,0</coordinates></Point>
        <styleUrl>#icon-22</styleUrl>
      </Placemark>
      <Placemark>
        <name><![CDATA[Shell Express Jyväskylä Keljo]]></name>
        <description><![CDATA[Shell Express Jyväskylä Keljo, Jyväskylä, Finland]]></description>
        <Point><coordinates>25.717563,62.213185,0</coordinates></Point>
        <styleUrl>#icon-22</styleUrl>
      </Placemark>
      <Placemark>
        <name><![CDATA[Shell Rovaniemi Erottaja]]></name>
        <description><![CDATA[Shell Rovaniemi Erottaja, Rovaniemi, Finland]]></description>
        <Point><coordinates>25.718394,66.497988,0</coordinates></Point>
        <styleUrl>#icon-22</styleUrl>
      </Placemark>
      <Placemark>
        <name><![CDATA[Shell Äänekoski Torikatu]]></name>
        <description><![CDATA[Shell Äänekoski Torikatu, Äänekoski, Finland]]></description>
        <Point><coordinates>25.719853,62.603809,0</coordinates></Point>
        <styleUrl>#icon-22</styleUrl>
      </Placemark>
      <Placemark>
        <name><![CDATA[Shell Express Lahti Kymijärvi]]></name>
        <description><![CDATA[Shell Express Lahti Kymijärvi, Lahti, Finland]]></description>
        <Point><coordinates>25.73855,60.98408,0</coordinates></Point>
        <styleUrl>#icon-22</styleUrl>
      </Placemark>
      <Placemark>
        <name><![CDATA[Shell TS Lahti Kymijärvi]]></name>
        <description><![CDATA[Shell TS Lahti Kymijärvi, Lahti, Finland]]></description>
        <Point><coordinates>25.73918,60.98385,0</coordinates></Point>
        <styleUrl>#icon-22</styleUrl>
      </Placemark>
      <Placemark>
        <name><![CDATA[Shell Jyväskylä Matkakeskus]]></name>
        <description><![CDATA[Shell Jyväskylä Matkakeskus, Jyväskylä, Finland]]></description>
        <Point><coordinates>25.755899,62.24342,0</coordinates></Point>
        <styleUrl>#icon-22</styleUrl>
      </Placemark>
      <Placemark>
        <name><![CDATA[Shell Veneasema Jyväskylä Lutakko]]></name>
        <description><![CDATA[Shell Veneasema Jyväskylä Lutakko, Jyväskylä, Finland]]></description>
        <Point><coordinates>25.758307,62.23546,0</coordinates></Point>
        <styleUrl>#icon-22</styleUrl>
      </Placemark>
      <Placemark>
        <name><![CDATA[Shell Express Rovaniemi Saarenkylä]]></name>
        <description><![CDATA[Shell Express Rovaniemi Saarenkylä, Saarenkylä, Finland]]></description>
        <Point><coordinates>25.78389,66.515775,0</coordinates></Point>
        <styleUrl>#icon-22</styleUrl>
      </Placemark>
      <Placemark>
        <name><![CDATA[Shell TS Jyväskylä Halssila]]></name>
        <description><![CDATA[Shell TS Jyväskylä Halssila, Jyväskylä, Finland]]></description>
        <Point><coordinates>25.809783,62.240793,0</coordinates></Point>
        <styleUrl>#icon-22</styleUrl>
      </Placemark>
      <Placemark>
        <name><![CDATA[Shell Express Jyväskylä Halssila]]></name>
        <description><![CDATA[Shell Express Jyväskylä Halssila, Jyväskylä, Finland]]></description>
        <Point><coordinates>25.809833,62.240777,0</coordinates></Point>
        <styleUrl>#icon-22</styleUrl>
      </Placemark>
      <Placemark>
        <name><![CDATA[Shell TS Äänekoski Suolahti]]></name>
        <description><![CDATA[Shell TS Äänekoski Suolahti, Suolahti, Finland]]></description>
        <Point><coordinates>25.837285,62.570947,0</coordinates></Point>
        <styleUrl>#icon-22</styleUrl>
      </Placemark>
      <Placemark>
        <name><![CDATA[Shell Rovaniemi Napapiiri]]></name>
        <description><![CDATA[Shell Rovaniemi Napapiiri, Napapiiri rovaniemi, Finland]]></description>
        <Point><coordinates>25.843417,66.544332,0</coordinates></Point>
        <styleUrl>#icon-22</styleUrl>
      </Placemark>
      <Placemark>
        <name><![CDATA[Shell Karigasniemi]]></name>
        <description><![CDATA[Shell Karigasniemi, Karigasniemi, Finland]]></description>
        <Point><coordinates>25.851199,69.398931,0</coordinates></Point>
        <styleUrl>#icon-22</styleUrl>
      </Placemark>
      <Placemark>
        <name><![CDATA[Shell TS Nastola]]></name>
        <description><![CDATA[Shell TS Nastola, Villähde, Finland]]></description>
        <Point><coordinates>25.8877,60.948013,0</coordinates></Point>
        <styleUrl>#icon-22</styleUrl>
      </Placemark>
      <Placemark>
        <name><![CDATA[Shell TS Loviisa Gammelby]]></name>
        <description><![CDATA[Shell TS Loviisa Gammelby, Pernajan vanhakylä, Finland]]></description>
        <Point><coordinates>25.892942,60.485698,0</coordinates></Point>
        <styleUrl>#icon-22</styleUrl>
      </Placemark>
      <Placemark>
        <name><![CDATA[Shell Express Hartola Kuninkaanportti]]></name>
        <description><![CDATA[Shell Express Hartola Kuninkaanportti, Hartola, Finland]]></description>
        <Point><coordinates>26.00717,61.564586,0</coordinates></Point>
        <styleUrl>#icon-22</styleUrl>
      </Placemark>
      <Placemark>
        <name><![CDATA[Shell Express Liljendal]]></name>
        <description><![CDATA[Shell Express Liljendal, Liljendal, Finland]]></description>
        <Point><coordinates>26.055733,60.561201,0</coordinates></Point>
        <styleUrl>#icon-22</styleUrl>
      </Placemark>
      <Placemark>
        <name><![CDATA[Shell TS Liljendal]]></name>
        <description><![CDATA[Shell TS Liljendal, Liljendal, Finland]]></description>
        <Point><coordinates>26.055793,60.56121,0</coordinates></Point>
        <styleUrl>#icon-22</styleUrl>
      </Placemark>
      <Placemark>
        <name><![CDATA[Shell Laukaa Lievestuore]]></name>
        <description><![CDATA[Shell Laukaa Lievestuore, Lievestuore, Finland]]></description>
        <Point><coordinates>26.177127,62.250718,0</coordinates></Point>
        <styleUrl>#icon-22</styleUrl>
      </Placemark>
      <Placemark>
        <name><![CDATA[Shell Express Loviisa]]></name>
        <description><![CDATA[Shell Express Loviisa, Loviisa, Finland]]></description>
        <Point><coordinates>26.232034,60.459162,0</coordinates></Point>
        <styleUrl>#icon-22</styleUrl>
      </Placemark>
      <Placemark>
        <name><![CDATA[Shell TS Keitele]]></name>
        <description><![CDATA[Shell TS Keitele, Keitele, Finland]]></description>
        <Point><coordinates>26.32954,63.172346,0</coordinates></Point>
        <styleUrl>#icon-22</styleUrl>
      </Placemark>
      <Placemark>
        <name><![CDATA[Shell Ranua]]></name>
        <description><![CDATA[Shell Ranua, Ranua, Finland]]></description>
        <Point><coordinates>26.506285,65.932774,0</coordinates></Point>
        <styleUrl>#icon-22</styleUrl>
      </Placemark>
      <Placemark>
        <name><![CDATA[Shell Express Kouvola Kuusankoski]]></name>
        <description><![CDATA[Shell Express Kouvola Kuusankoski, Kuusankoski, Finland]]></description>
        <Point><coordinates>26.629924,60.901033,0</coordinates></Point>
        <styleUrl>#icon-22</styleUrl>
      </Placemark>
      <Placemark>
        <name><![CDATA[Shell Kuusankoski Katajaharju]]></name>
        <description><![CDATA[Shell Kuusankoski Katajaharju, Kuusankoski, Finland]]></description>
        <Point><coordinates>26.658096,60.879608,0</coordinates></Point>
        <styleUrl>#icon-22</styleUrl>
      </Placemark>
      <Placemark>
        <name><![CDATA[Shell Express Kouvola Kappelikatu]]></name>
        <description><![CDATA[Shell Express Kouvola Kappelikatu, Kouvola, Finland]]></description>
        <Point><coordinates>26.68506,60.868785,0</coordinates></Point>
        <styleUrl>#icon-22</styleUrl>
      </Placemark>
      <Placemark>
        <name><![CDATA[Shell Express Kotka Ruonala]]></name>
        <description><![CDATA[Shell Express Kotka Ruonala, Kotka, Finland]]></description>
        <Point><coordinates>26.875823,60.480438,0</coordinates></Point>
        <styleUrl>#icon-22</styleUrl>
      </Placemark>
      <Placemark>
        <name><![CDATA[Shell TS Kotka Mussalo]]></name>
        <description><![CDATA[Shell TS Kotka Mussalo, Kotka, Finland]]></description>
        <Point><coordinates>26.88539,60.439249,0</coordinates></Point>
        <styleUrl>#icon-22</styleUrl>
      </Placemark>
      <Placemark>
        <name><![CDATA[Shell Express Kotka Keskustori]]></name>
        <description><![CDATA[Shell Express Kotka Keskustori, Kotka, Finland]]></description>
        <Point><coordinates>26.938646,60.461183,0</coordinates></Point>
        <styleUrl>#icon-22</styleUrl>
      </Placemark>
      <Placemark>
        <name><![CDATA[Shell TS Kotka Stora Enso Sunila Oy]]></name>
        <description><![CDATA[Shell TS Kotka Stora Enso Sunila Oy, Kotka, Finland]]></description>
        <Point><coordinates>26.9559,60.4952,0</coordinates></Point>
        <styleUrl>#icon-22</styleUrl>
      </Placemark>
      <Placemark>
        <name><![CDATA[Shell TS Hamina Satama]]></name>
        <description><![CDATA[Shell TS Hamina Satama, Hamina, Finland]]></description>
        <Point><coordinates>27.162253,60.53648,0</coordinates></Point>
        <styleUrl>#icon-22</styleUrl>
      </Placemark>
      <Placemark>
        <name><![CDATA[Shell Express Iisalmi Pohjolankatu]]></name>
        <description><![CDATA[Shell Express Iisalmi Pohjolankatu, Iisalmi, Finland]]></description>
        <Point><coordinates>27.187769,63.562447,0</coordinates></Point>
        <styleUrl>#icon-22</styleUrl>
      </Placemark>
      <Placemark>
        <name><![CDATA[Shell Express Ristiina]]></name>
        <description><![CDATA[Shell Express Ristiina, Ristiina, Finland]]></description>
        <Point><coordinates>27.242425,61.513415,0</coordinates></Point>
        <styleUrl>#icon-22</styleUrl>
      </Placemark>
      <Placemark>
        <name><![CDATA[Shell Mikkeli Ristiinantie]]></name>
        <description><![CDATA[Shell Mikkeli Ristiinantie, Mikkeli, Finland]]></description>
        <Point><coordinates>27.273635,61.675358,0</coordinates></Point>
        <styleUrl>#icon-22</styleUrl>
      </Placemark>
      <Placemark>
        <name><![CDATA[Shell Express Mikkeli Visulahti]]></name>
        <description><![CDATA[Shell Express Mikkeli Visulahti, Mikkeli, Finland]]></description>
        <Point><coordinates>27.35471,61.703752,0</coordinates></Point>
        <styleUrl>#icon-22</styleUrl>
      </Placemark>
      <Placemark>
        <name><![CDATA[Shell Kuopio Rauhalahti]]></name>
        <description><![CDATA[Shell Kuopio Rauhalahti, Kuopio, Finland]]></description>
        <Point><coordinates>27.628345,62.86152,0</coordinates></Point>
        <styleUrl>#icon-22</styleUrl>
      </Placemark>
      <Placemark>
        <name><![CDATA[Shell Express Kuopio Päiväranta]]></name>
        <description><![CDATA[Shell Express Kuopio Päiväranta, Kuopio, Finland]]></description>
        <Point><coordinates>27.665518,62.933997,0</coordinates></Point>
        <styleUrl>#icon-22</styleUrl>
      </Placemark>
      <Placemark>
        <name><![CDATA[Shell Siilinjärvi]]></name>
        <description><![CDATA[Shell Siilinjärvi, Siilinjärvi, Finland]]></description>
        <Point><coordinates>27.674135,63.059117,0</coordinates></Point>
        <styleUrl>#icon-22</styleUrl>
      </Placemark>
      <Placemark>
        <name><![CDATA[Shell Kajaani Sotkamontie]]></name>
        <description><![CDATA[Shell Kajaani Sotkamontie, Kajaani, Finland]]></description>
        <Point><coordinates>27.731046,64.216886,0</coordinates></Point>
        <styleUrl>#icon-22</styleUrl>
      </Placemark>
      <Placemark>
        <name><![CDATA[Shell TS Juva Kylmäpurontie]]></name>
        <description><![CDATA[Shell TS Juva Kylmäpurontie, Juva, Finland]]></description>
        <Point><coordinates>27.801217,61.898067,0</coordinates></Point>
        <styleUrl>#icon-22</styleUrl>
      </Placemark>
      <Placemark>
        <name><![CDATA[Shell Express Varkaus Relanderinkatu]]></name>
        <description><![CDATA[Shell Express Varkaus Relanderinkatu, Varkaus, Finland]]></description>
        <Point><coordinates>27.866395,62.3156,0</coordinates></Point>
        <styleUrl>#icon-22</styleUrl>
      </Placemark>
      <Placemark>
        <name><![CDATA[Shell Express Varkaus Mäkikatu]]></name>
        <description><![CDATA[Shell Express Varkaus Mäkikatu, Varkaus, Finland]]></description>
        <Point><coordinates>27.917888,62.303144,0</coordinates></Point>
        <styleUrl>#icon-22</styleUrl>
      </Placemark>
      <Placemark>
        <name><![CDATA[Shell TS Varkaus Mäkikatu]]></name>
        <description><![CDATA[Shell TS Varkaus Mäkikatu, Varkaus, Finland]]></description>
        <Point><coordinates>27.917888,62.303144,0</coordinates></Point>
        <styleUrl>#icon-22</styleUrl>
      </Placemark>
      <Placemark>
        <name><![CDATA[Shell Express Lappeenranta Lauritsala]]></name>
        <description><![CDATA[Shell Express Lappeenranta Lauritsala, Lappeenranta, Finland]]></description>
        <Point><coordinates>28.256629,61.066261,0</coordinates></Point>
        <styleUrl>#icon-22</styleUrl>
      </Placemark>
      <Placemark>
        <name><![CDATA[Shell Ts Imatra Abc]]></name>
        <description><![CDATA[Shell Ts Imatra Abc, Imatra, Finland]]></description>
        <Point><coordinates>28.739902,61.185836,0</coordinates></Point>
        <styleUrl>#icon-22</styleUrl>
      </Placemark>
      <Placemark>
        <name><![CDATA[Shell Imatra Lappeentie]]></name>
        <description><![CDATA[Shell Imatra Lappeentie, Imatra, Finland]]></description>
        <Point><coordinates>28.75423,61.172201,0</coordinates></Point>
        <styleUrl>#icon-22</styleUrl>
      </Placemark>
      <Placemark>
        <name><![CDATA[Shell Savonlinna Miekkoniemi]]></name>
        <description><![CDATA[Shell Savonlinna Miekkoniemi, Savonlinna, Finland]]></description>
        <Point><coordinates>28.923711,61.86907,0</coordinates></Point>
        <styleUrl>#icon-22</styleUrl>
      </Placemark>
      <Placemark>
        <name><![CDATA[Shell Outokumpu]]></name>
        <description><![CDATA[Shell Outokumpu, Outokumpu, Finland]]></description>
        <Point><coordinates>28.960559,62.701361,0</coordinates></Point>
        <styleUrl>#icon-22</styleUrl>
      </Placemark>
      <Placemark>
        <name><![CDATA[Shell Express Kuusamo]]></name>
        <description><![CDATA[Shell Express Kuusamo, Kuusamo, Finland]]></description>
        <Point><coordinates>29.160603,65.956045,0</coordinates></Point>
        <styleUrl>#icon-22</styleUrl>
      </Placemark>
      <Placemark>
        <name><![CDATA[Shell Kuusamo HelmiSimpukkaExpress]]></name>
        <description><![CDATA[Shell Kuusamo HelmiSimpukkaExpress, Kuusamo, Finland]]></description>
        <Point><coordinates>29.16098,65.95594,0</coordinates></Point>
        <styleUrl>#icon-22</styleUrl>
      </Placemark>
      <Placemark>
        <name><![CDATA[Shell Punkaharju]]></name>
        <description><![CDATA[Shell Punkaharju, Punkaharju, Finland]]></description>
        <Point><coordinates>29.393803,61.756535,0</coordinates></Point>
        <styleUrl>#icon-22</styleUrl>
      </Placemark>
      <Placemark>
        <name><![CDATA[Shell Kuhmo]]></name>
        <description><![CDATA[Shell Kuhmo, Kuhmo, Finland]]></description>
        <Point><coordinates>29.506803,64.122352,0</coordinates></Point>
        <styleUrl>#icon-22</styleUrl>
      </Placemark>
      <Placemark>
        <name><![CDATA[Shell Liperi Ylämylly]]></name>
        <description><![CDATA[Shell Liperi Ylämylly, Ylämylly, Finland]]></description>
        <Point><coordinates>29.543934,62.614412,0</coordinates></Point>
        <styleUrl>#icon-22</styleUrl>
      </Placemark>
      <Placemark>
        <name><![CDATA[Shell Joensuu Rauhankatu]]></name>
        <description><![CDATA[Shell Joensuu Rauhankatu, Joensuu, Finland]]></description>
        <Point><coordinates>29.771671,62.606936,0</coordinates></Point>
        <styleUrl>#icon-22</styleUrl>
      </Placemark>
    </Folder>
  </Document>
</kml>