<?xml version="1.0" encoding="UTF-8"?>
<kml xmlns="http://www.opengis.net/kml/2.2">
  <Document>
    <name>Shell Sverige</name>
    <description/>
    <Style id="icon-22-normal">
      <IconStyle>
        <scale>1.1</scale>
        <Icon>
          <href>https://www.gstatic.com/mapspro/images/stock/22-blue-dot.png</href>
        </Icon>
        <hotSpot x="16" xunits="pixels" y="32" yunits="insetPixels"/>
      </IconStyle>
      <LabelStyle>
        <scale>0</scale>
      </LabelStyle>
    </Style>
    <Style id="icon-22-highlight">
      <IconStyle>
        <scale>1.1</scale>
        <Icon>
          <href>https://www.gstatic.com/mapspro/images/stock/22-blue-dot.png</href>
        </Icon>
        <hotSpot x="16" xunits="pixels" y="32" yunits="insetPixels"/>
      </IconStyle>
      <LabelStyle>
        <scale>1.1</scale>
      </LabelStyle>
    </Style>
    <StyleMap id="icon-22">
      <Pair>
        <key>normal</key>
        <styleUrl>#icon-22-normal</styleUrl>
      </Pair>
      <Pair>
        <key>highlight</key>
        <styleUrl>#icon-22-highlight</styleUrl>
      </Pair>
    </StyleMap>
    <Folder>
      <name><![CDATA[Shell Sverige]]></name>
      <Placemark>
        <name><![CDATA[Välkommen in Stenungsund]]></name>
        <description>Välkommen in Stenungsund, Stenungsund, Sverige</description>
        <styleUrl>#icon-22</styleUrl>
        <Point><coordinates>11.854858,58.06906,0</coordinates></Point>
      </Placemark>
      <Placemark>
        <name><![CDATA[Shell Stenungsund]]></name>
        <description>Shell Stenungsund, Stenungsund, Sverige</description>
        <styleUrl>#icon-22</styleUrl>
        <Point><coordinates>11.854858,58.06906,0</coordinates></Point>
      </Placemark>
      <Placemark>
        <name><![CDATA[Välkommen in Västra Frölunda]]></name>
        <description>Välkommen in Västra Frölunda, Västra frölunda, Sverige</description>
        <styleUrl>#icon-22</styleUrl>
        <Point><coordinates>11.906034,57.652653,0</coordinates></Point>
      </Placemark>
      <Placemark>
        <name><![CDATA[Shell Västra Frölunda]]></name>
        <description>Shell Västra Frölunda, Västra frölunda, Sverige</description>
        <styleUrl>#icon-22</styleUrl>
        <Point><coordinates>11.906034,57.652653,0</coordinates></Point>
      </Placemark>
      <Placemark>
        <name><![CDATA[Shell Ljungskile]]></name>
        <description>Shell Ljungskile, Ljungskile, Sverige</description>
        <styleUrl>#icon-22</styleUrl>
        <Point><coordinates>11.90942,58.230496,0</coordinates></Point>
      </Placemark>
      <Placemark>
        <name><![CDATA[Välkommen in Göteborg Karl Johansg]]></name>
        <description>Välkommen in Göteborg Karl Johansg, Göteborg, Sverige</description>
        <styleUrl>#icon-22</styleUrl>
        <Point><coordinates>11.915478,57.692195,0</coordinates></Point>
      </Placemark>
      <Placemark>
        <name><![CDATA[Shell Göteborg Karl Johansg]]></name>
        <description>Shell Göteborg Karl Johansg, Göteborg, Sverige</description>
        <styleUrl>#icon-22</styleUrl>
        <Point><coordinates>11.915478,57.692195,0</coordinates></Point>
      </Placemark>
      <Placemark>
        <name><![CDATA[Shell Truck Diesel Uddevalla]]></name>
        <description>Shell Truck Diesel Uddevalla, Uddevalla, Sverige</description>
        <styleUrl>#icon-22</styleUrl>
        <Point><coordinates>11.916225,58.35057,0</coordinates></Point>
      </Placemark>
      <Placemark>
        <name><![CDATA[Välkommen in Askim Värslevägen]]></name>
        <description>Välkommen in Askim Värslevägen, Askim, Sverige</description>
        <styleUrl>#icon-22</styleUrl>
        <Point><coordinates>11.9357,57.62601,0</coordinates></Point>
      </Placemark>
      <Placemark>
        <name><![CDATA[Shell Askim Värslevägen]]></name>
        <description>Shell Askim Värslevägen, Askim, Sverige</description>
        <styleUrl>#icon-22</styleUrl>
        <Point><coordinates>11.9357,57.62601,0</coordinates></Point>
      </Placemark>
      <Placemark>
        <name><![CDATA[Välkommen in Göteborg Djurgårdsplatsen]]></name>
        <description>Välkommen in Göteborg Djurgårdsplatsen, Göteborg, Sverige</description>
        <styleUrl>#icon-22</styleUrl>
        <Point><coordinates>11.93573,57.694195,0</coordinates></Point>
      </Placemark>
      <Placemark>
        <name><![CDATA[Shell Göteborg Djurgårdsplatsen]]></name>
        <description>Shell Göteborg Djurgårdsplatsen, Göteborg, Sverige</description>
        <styleUrl>#icon-22</styleUrl>
        <Point><coordinates>11.93573,57.694195,0</coordinates></Point>
      </Placemark>
      <Placemark>
        <name><![CDATA[Shell Uddevalla]]></name>
        <description>Shell Uddevalla, Uddevalla, Sverige</description>
        <styleUrl>#icon-22</styleUrl>
        <Point><coordinates>11.963319,58.356101,0</coordinates></Point>
      </Placemark>
      <Placemark>
        <name><![CDATA[Välkommen in Särö]]></name>
        <description>Välkommen in Särö, Särö, Sverige</description>
        <styleUrl>#icon-22</styleUrl>
        <Point><coordinates>11.966645,57.520999,0</coordinates></Point>
      </Placemark>
      <Placemark>
        <name><![CDATA[Shell Särö]]></name>
        <description>Shell Särö, Särö, Sverige</description>
        <styleUrl>#icon-22</styleUrl>
        <Point><coordinates>11.966645,57.520999,0</coordinates></Point>
      </Placemark>
      <Placemark>
        <name><![CDATA[Shell Truck Diesel Hisings Backa]]></name>
        <description>Shell Truck Diesel Hisings Backa, Hisings backa, Sverige</description>
        <styleUrl>#icon-22</styleUrl>
        <Point><coordinates>11.992351,57.747776,0</coordinates></Point>
      </Placemark>
      <Placemark>
        <name><![CDATA[Välkommen in Göteborg Mölndalsvägen]]></name>
        <description>Välkommen in Göteborg Mölndalsvägen, Göteborg, Sverige</description>
        <styleUrl>#icon-22</styleUrl>
        <Point><coordinates>11.999303,57.68412,0</coordinates></Point>
      </Placemark>
      <Placemark>
        <name><![CDATA[Shell Göteborg Mölndalsvägen]]></name>
        <description>Shell Göteborg Mölndalsvägen, Göteborg, Sverige</description>
        <styleUrl>#icon-22</styleUrl>
        <Point><coordinates>11.999303,57.68412,0</coordinates></Point>
      </Placemark>
      <Placemark>
        <name><![CDATA[Shell Sandsjöbacka Väst]]></name>
        <description>Shell Sandsjöbacka Väst, Lindome, Sverige</description>
        <styleUrl>#icon-22</styleUrl>
        <Point><coordinates>12.0517,57.55494,0</coordinates></Point>
      </Placemark>
      <Placemark>
        <name><![CDATA[Shell Sandsjöbacka Öst]]></name>
        <description>Shell Sandsjöbacka Öst, Lindome, Sverige</description>
        <styleUrl>#icon-22</styleUrl>
        <Point><coordinates>12.054916,57.551508,0</coordinates></Point>
      </Placemark>
      <Placemark>
        <name><![CDATA[Välkommen in Mölnlycke]]></name>
        <description>Välkommen in Mölnlycke, Mölnlycke, Sverige</description>
        <styleUrl>#icon-22</styleUrl>
        <Point><coordinates>12.09645,57.668936,0</coordinates></Point>
      </Placemark>
      <Placemark>
        <name><![CDATA[Shell Mölnlycke]]></name>
        <description>Shell Mölnlycke, Mölnlycke, Sverige</description>
        <styleUrl>#icon-22</styleUrl>
        <Point><coordinates>12.09645,57.668936,0</coordinates></Point>
      </Placemark>
      <Placemark>
        <name><![CDATA[Välkommen in Partille]]></name>
        <description>Välkommen in Partille, Partille, Sverige</description>
        <styleUrl>#icon-22</styleUrl>
        <Point><coordinates>12.098608,57.737103,0</coordinates></Point>
      </Placemark>
      <Placemark>
        <name><![CDATA[Shell Partille]]></name>
        <description>Shell Partille, Partille, Sverige</description>
        <styleUrl>#icon-22</styleUrl>
        <Point><coordinates>12.098608,57.737103,0</coordinates></Point>
      </Placemark>
      <Placemark>
        <name><![CDATA[Shell TruckDiesel Årjäng BIO]]></name>
        <description>Shell TruckDiesel Årjäng BIO, Årjäng, Sverige</description>
        <styleUrl>#icon-22</styleUrl>
        <Point><coordinates>12.127297,59.398289,0</coordinates></Point>
      </Placemark>
      <Placemark>
        <name><![CDATA[Shell Truck Diesel Årjäng]]></name>
        <description>Shell Truck Diesel Årjäng, Årjäng, Sverige</description>
        <styleUrl>#icon-22</styleUrl>
        <Point><coordinates>12.128079,59.398731,0</coordinates></Point>
      </Placemark>
      <Placemark>
        <name><![CDATA[Välkommen in Fjärås]]></name>
        <description>Välkommen in Fjärås, Fjärås, Sverige</description>
        <styleUrl>#icon-22</styleUrl>
        <Point><coordinates>12.15413,57.435503,0</coordinates></Point>
      </Placemark>
      <Placemark>
        <name><![CDATA[Shell Fjärås]]></name>
        <description>Shell Fjärås, Fjärås, Sverige</description>
        <styleUrl>#icon-22</styleUrl>
        <Point><coordinates>12.15413,57.435503,0</coordinates></Point>
      </Placemark>
      <Placemark>
        <name><![CDATA[Välkommen in Landvetter]]></name>
        <description>Välkommen in Landvetter, Landvetter, Sverige</description>
        <styleUrl>#icon-22</styleUrl>
        <Point><coordinates>12.206449,57.687241,0</coordinates></Point>
      </Placemark>
      <Placemark>
        <name><![CDATA[Shell Landvetter]]></name>
        <description>Shell Landvetter, Landvetter, Sverige</description>
        <styleUrl>#icon-22</styleUrl>
        <Point><coordinates>12.206449,57.687241,0</coordinates></Point>
      </Placemark>
      <Placemark>
        <name><![CDATA[Välkommen in Lerum]]></name>
        <description>Välkommen in Lerum, Lerum, Sverige</description>
        <styleUrl>#icon-22</styleUrl>
        <Point><coordinates>12.249604,57.752716,0</coordinates></Point>
      </Placemark>
      <Placemark>
        <name><![CDATA[Shell Lerum]]></name>
        <description>Shell Lerum, Lerum, Sverige</description>
        <styleUrl>#icon-22</styleUrl>
        <Point><coordinates>12.249604,57.752716,0</coordinates></Point>
      </Placemark>
      <Placemark>
        <name><![CDATA[Välkommen in Varberg]]></name>
        <description>Välkommen in Varberg, Varberg, Sverige</description>
        <styleUrl>#icon-22</styleUrl>
        <Point><coordinates>12.261205,57.122889,0</coordinates></Point>
      </Placemark>
      <Placemark>
        <name><![CDATA[Shell Varberg]]></name>
        <description>Shell Varberg, Varberg, Sverige</description>
        <styleUrl>#icon-22</styleUrl>
        <Point><coordinates>12.261205,57.122889,0</coordinates></Point>
      </Placemark>
      <Placemark>
        <name><![CDATA[Shell TruckDiesel Charlottenberg]]></name>
        <description>Shell TruckDiesel Charlottenberg, Charlottenberg, Sverige</description>
        <styleUrl>#icon-22</styleUrl>
        <Point><coordinates>12.291427,59.871816,0</coordinates></Point>
      </Placemark>
      <Placemark>
        <name><![CDATA[Välkommen in Trollhättan]]></name>
        <description>Välkommen in Trollhättan, Trollhättan, Sverige</description>
        <styleUrl>#icon-22</styleUrl>
        <Point><coordinates>12.297576,58.280389,0</coordinates></Point>
      </Placemark>
      <Placemark>
        <name><![CDATA[Shell Trollhättan]]></name>
        <description>Shell Trollhättan, Trollhättan, Sverige</description>
        <styleUrl>#icon-22</styleUrl>
        <Point><coordinates>12.297576,58.280389,0</coordinates></Point>
      </Placemark>
      <Placemark>
        <name><![CDATA[Välkommen in Vänersborg]]></name>
        <description>Välkommen in Vänersborg, Vänersborg, Sverige</description>
        <styleUrl>#icon-22</styleUrl>
        <Point><coordinates>12.322459,58.366637,0</coordinates></Point>
      </Placemark>
      <Placemark>
        <name><![CDATA[Shell Vänersborg]]></name>
        <description>Shell Vänersborg, Vänersborg, Sverige</description>
        <styleUrl>#icon-22</styleUrl>
        <Point><coordinates>12.322459,58.366637,0</coordinates></Point>
      </Placemark>
      <Placemark>
        <name><![CDATA[Shell TruckDiesel Åmotfors]]></name>
        <description>Shell TruckDiesel Åmotfors, Åmotfors, Sverige</description>
        <styleUrl>#icon-22</styleUrl>
        <Point><coordinates>12.378917,59.769528,0</coordinates></Point>
      </Placemark>
      <Placemark>
        <name><![CDATA[Välkommen in Falkenberg Arvidstorpsv]]></name>
        <description>Välkommen in Falkenberg Arvidstorpsv, Falkenberg, Sverige</description>
        <styleUrl>#icon-22</styleUrl>
        <Point><coordinates>12.483208,56.911583,0</coordinates></Point>
      </Placemark>
      <Placemark>
        <name><![CDATA[Shell Falkenberg Arvidstorpsv]]></name>
        <description>Shell Falkenberg Arvidstorpsv, Falkenberg, Sverige</description>
        <styleUrl>#icon-22</styleUrl>
        <Point><coordinates>12.483208,56.911583,0</coordinates></Point>
      </Placemark>
      <Placemark>
        <name><![CDATA[Shell Falkenberg Skreamotet]]></name>
        <description>Shell Falkenberg Skreamotet, Falkenberg, Sverige</description>
        <styleUrl>#icon-22</styleUrl>
        <Point><coordinates>12.580521,56.903343,0</coordinates></Point>
      </Placemark>
      <Placemark>
        <name><![CDATA[Välkommen in Arvika]]></name>
        <description>Välkommen in Arvika, Arvika, Sverige</description>
        <styleUrl>#icon-22</styleUrl>
        <Point><coordinates>12.613259,59.660985,0</coordinates></Point>
      </Placemark>
      <Placemark>
        <name><![CDATA[Shell Arvika]]></name>
        <description>Shell Arvika, Arvika, Sverige</description>
        <styleUrl>#icon-22</styleUrl>
        <Point><coordinates>12.613259,59.660985,0</coordinates></Point>
      </Placemark>
      <Placemark>
        <name><![CDATA[Shell TruckDiesel Arvika Långvaksvägen]]></name>
        <description>Shell TruckDiesel Arvika Långvaksvägen, Arvika, Sverige</description>
        <styleUrl>#icon-22</styleUrl>
        <Point><coordinates>12.629707,59.663612,0</coordinates></Point>
      </Placemark>
      <Placemark>
        <name><![CDATA[Shell Truck Diesel Arvika]]></name>
        <description>Shell Truck Diesel Arvika, Arvika, Sverige</description>
        <styleUrl>#icon-22</styleUrl>
        <Point><coordinates>12.63612,59.659248,0</coordinates></Point>
      </Placemark>
      <Placemark>
        <name><![CDATA[Shell Truck Diesel Arvika Falleberget BIO]]></name>
        <description>Shell Truck Diesel Arvika Falleberget BIO, Arvika, Sverige</description>
        <styleUrl>#icon-22</styleUrl>
        <Point><coordinates>12.640933,59.657768,0</coordinates></Point>
      </Placemark>
      <Placemark>
        <name><![CDATA[Shell Truck Diesel Åmål]]></name>
        <description>Shell Truck Diesel Åmål, Åmål, Sverige</description>
        <styleUrl>#icon-22</styleUrl>
        <Point><coordinates>12.693019,59.045884,0</coordinates></Point>
      </Placemark>
      <Placemark>
        <name><![CDATA[Välkommen in Helsingborg Regementsv]]></name>
        <description>Välkommen in Helsingborg Regementsv, Helsingborg, Sverige</description>
        <styleUrl>#icon-22</styleUrl>
        <Point><coordinates>12.722282,56.06654,0</coordinates></Point>
      </Placemark>
      <Placemark>
        <name><![CDATA[Shell Helsingborg Regementsv]]></name>
        <description>Shell Helsingborg Regementsv, Helsingborg, Sverige</description>
        <styleUrl>#icon-22</styleUrl>
        <Point><coordinates>12.722282,56.06654,0</coordinates></Point>
      </Placemark>
      <Placemark>
        <name><![CDATA[Välkommen in Helsingborg Rusthållsg]]></name>
        <description>Välkommen in Helsingborg Rusthållsg, Helsingborg, Sverige</description>
        <styleUrl>#icon-22</styleUrl>
        <Point><coordinates>12.756102,56.016532,0</coordinates></Point>
      </Placemark>
      <Placemark>
        <name><![CDATA[Shell Helsingborg Rusthållsg]]></name>
        <description>Shell Helsingborg Rusthållsg, Helsingborg, Sverige</description>
        <styleUrl>#icon-22</styleUrl>
        <Point><coordinates>12.756102,56.016532,0</coordinates></Point>
      </Placemark>
      <Placemark>
        <name><![CDATA[Shell Truck Diesel Helsingborg]]></name>
        <description>Shell Truck Diesel Helsingborg, Helsingborg, Sverige</description>
        <styleUrl>#icon-22</styleUrl>
        <Point><coordinates>12.76976,56.01995,0</coordinates></Point>
      </Placemark>
      <Placemark>
        <name><![CDATA[Shell TruckDiesel Volvo Viared]]></name>
        <description>Shell TruckDiesel Volvo Viared, Borås, Sverige</description>
        <styleUrl>#icon-22</styleUrl>
        <Point><coordinates>12.807158,57.6881,0</coordinates></Point>
      </Placemark>
      <Placemark>
        <name><![CDATA[Välkommen in Borås Viaredsv]]></name>
        <description>Välkommen in Borås Viaredsv, Borås, Sverige</description>
        <styleUrl>#icon-22</styleUrl>
        <Point><coordinates>12.867263,57.709756,0</coordinates></Point>
      </Placemark>
      <Placemark>
        <name><![CDATA[Shell Borås Viaredsv]]></name>
        <description>Shell Borås Viaredsv, Borås, Sverige</description>
        <styleUrl>#icon-22</styleUrl>
        <Point><coordinates>12.867263,57.709756,0</coordinates></Point>
      </Placemark>
      <Placemark>
        <name><![CDATA[Välkommen in Halmstad Laholmsv]]></name>
        <description>Välkommen in Halmstad Laholmsv, Halmstad, Sverige</description>
        <styleUrl>#icon-22</styleUrl>
        <Point><coordinates>12.884672,56.66236,0</coordinates></Point>
      </Placemark>
      <Placemark>
        <name><![CDATA[Shell Halmstad Laholmsv]]></name>
        <description>Shell Halmstad Laholmsv, Halmstad, Sverige</description>
        <styleUrl>#icon-22</styleUrl>
        <Point><coordinates>12.884672,56.66236,0</coordinates></Point>
      </Placemark>
      <Placemark>
        <name><![CDATA[Välkommen in Ängelholm]]></name>
        <description>Välkommen in Ängelholm, Ängelholm, Sverige</description>
        <styleUrl>#icon-22</styleUrl>
        <Point><coordinates>12.8936,56.250668,0</coordinates></Point>
      </Placemark>
      <Placemark>
        <name><![CDATA[Shell Ängelholm]]></name>
        <description>Shell Ängelholm, Ängelholm, Sverige</description>
        <styleUrl>#icon-22</styleUrl>
        <Point><coordinates>12.8936,56.250668,0</coordinates></Point>
      </Placemark>
      <Placemark>
        <name><![CDATA[Shell Truck Diesel Halmstad Fräsareg]]></name>
        <description>Shell Truck Diesel Halmstad Fräsareg, Halmstad, Sverige</description>
        <styleUrl>#icon-22</styleUrl>
        <Point><coordinates>12.896276,56.654886,0</coordinates></Point>
      </Placemark>
      <Placemark>
        <name><![CDATA[Välkommen in Åstorp]]></name>
        <description>Välkommen in Åstorp, Åstorp, Sverige</description>
        <styleUrl>#icon-22</styleUrl>
        <Point><coordinates>12.915555,56.127174,0</coordinates></Point>
      </Placemark>
      <Placemark>
        <name><![CDATA[Shell Åstorp]]></name>
        <description>Shell Åstorp, Åstorp, Sverige</description>
        <styleUrl>#icon-22</styleUrl>
        <Point><coordinates>12.915555,56.127174,0</coordinates></Point>
      </Placemark>
      <Placemark>
        <name><![CDATA[Välkommen in Limhamn]]></name>
        <description>Välkommen in Limhamn, Limhamn, Sverige</description>
        <styleUrl>#icon-22</styleUrl>
        <Point><coordinates>12.929327,55.578817,0</coordinates></Point>
      </Placemark>
      <Placemark>
        <name><![CDATA[Shell Limhamn]]></name>
        <description>Shell Limhamn, Limhamn, Sverige</description>
        <styleUrl>#icon-22</styleUrl>
        <Point><coordinates>12.929327,55.578817,0</coordinates></Point>
      </Placemark>
      <Placemark>
        <name><![CDATA[Shell Truck Diesel Torsby]]></name>
        <description>Shell Truck Diesel Torsby, Torsby, Sverige</description>
        <styleUrl>#icon-22</styleUrl>
        <Point><coordinates>12.988267,60.132674,0</coordinates></Point>
      </Placemark>
      <Placemark>
        <name><![CDATA[Välkommen in Malmö Holmavångsvägen]]></name>
        <description>Välkommen in Malmö Holmavångsvägen, Malmö, Sverige</description>
        <styleUrl>#icon-22</styleUrl>
        <Point><coordinates>12.989927,55.57503,0</coordinates></Point>
      </Placemark>
      <Placemark>
        <name><![CDATA[Shell Malmö Holmavångsvägen]]></name>
        <description>Shell Malmö Holmavångsvägen, Malmö, Sverige</description>
        <styleUrl>#icon-22</styleUrl>
        <Point><coordinates>12.989927,55.57503,0</coordinates></Point>
      </Placemark>
      <Placemark>
        <name><![CDATA[Välkommen in Löddeköpinge]]></name>
        <description>Välkommen in Löddeköpinge, Löddeköpinge, Sverige</description>
        <styleUrl>#icon-22</styleUrl>
        <Point><coordinates>12.99205,55.766596,0</coordinates></Point>
      </Placemark>
      <Placemark>
        <name><![CDATA[Shell Löddeköpinge]]></name>
        <description>Shell Löddeköpinge, Löddeköpinge, Sverige</description>
        <styleUrl>#icon-22</styleUrl>
        <Point><coordinates>12.99205,55.766596,0</coordinates></Point>
      </Placemark>
      <Placemark>
        <name><![CDATA[Shell Lockarp]]></name>
        <description>Shell Lockarp, Malmö, Sverige</description>
        <styleUrl>#icon-22</styleUrl>
        <Point><coordinates>13.033362,55.551093,0</coordinates></Point>
      </Placemark>
      <Placemark>
        <name><![CDATA[Välkommen in Arlöv]]></name>
        <description>Välkommen in Arlöv, Arlöv, Sverige</description>
        <styleUrl>#icon-22</styleUrl>
        <Point><coordinates>13.059919,55.638888,0</coordinates></Point>
      </Placemark>
      <Placemark>
        <name><![CDATA[Shell Arlöv]]></name>
        <description>Shell Arlöv, Arlöv, Sverige</description>
        <styleUrl>#icon-22</styleUrl>
        <Point><coordinates>13.059919,55.638888,0</coordinates></Point>
      </Placemark>
      <Placemark>
        <name><![CDATA[Shell Truck Diesel Sunne]]></name>
        <description>Shell Truck Diesel Sunne, Sunne, Sverige</description>
        <styleUrl>#icon-22</styleUrl>
        <Point><coordinates>13.124695,59.855189,0</coordinates></Point>
      </Placemark>
      <Placemark>
        <name><![CDATA[Shell TruckDiesel Sunne LBC Wetab]]></name>
        <description>Shell TruckDiesel Sunne LBC Wetab, Sunne, Sverige</description>
        <styleUrl>#icon-22</styleUrl>
        <Point><coordinates>13.125422,59.842131,0</coordinates></Point>
      </Placemark>
      <Placemark>
        <name><![CDATA[Shell Truck Diesel Trelleborg]]></name>
        <description>Shell Truck Diesel Trelleborg, Trelleborg, Sverige</description>
        <styleUrl>#icon-22</styleUrl>
        <Point><coordinates>13.135909,55.373681,0</coordinates></Point>
      </Placemark>
      <Placemark>
        <name><![CDATA[Välkommen in Lidköping]]></name>
        <description>Välkommen in Lidköping, Lidköping, Sverige</description>
        <styleUrl>#icon-22</styleUrl>
        <Point><coordinates>13.144683,58.510266,0</coordinates></Point>
      </Placemark>
      <Placemark>
        <name><![CDATA[Shell Lidköping]]></name>
        <description>Shell Lidköping, Lidköping, Sverige</description>
        <styleUrl>#icon-22</styleUrl>
        <Point><coordinates>13.144683,58.510266,0</coordinates></Point>
      </Placemark>
      <Placemark>
        <name><![CDATA[Välkommen in Trelleborg]]></name>
        <description>Välkommen in Trelleborg, Trelleborg, Sverige</description>
        <styleUrl>#icon-22</styleUrl>
        <Point><coordinates>13.149848,55.373435,0</coordinates></Point>
      </Placemark>
      <Placemark>
        <name><![CDATA[Shell Trelleborg]]></name>
        <description>Shell Trelleborg, Trelleborg, Sverige</description>
        <styleUrl>#icon-22</styleUrl>
        <Point><coordinates>13.149848,55.373435,0</coordinates></Point>
      </Placemark>
      <Placemark>
        <name><![CDATA[Välkommen in Lund Förhandlingsv]]></name>
        <description>Välkommen in Lund Förhandlingsv, Lund, Sverige</description>
        <styleUrl>#icon-22</styleUrl>
        <Point><coordinates>13.155523,55.716515,0</coordinates></Point>
      </Placemark>
      <Placemark>
        <name><![CDATA[Shell Lund Förhandlingsv]]></name>
        <description>Shell Lund Förhandlingsv, Lund, Sverige</description>
        <styleUrl>#icon-22</styleUrl>
        <Point><coordinates>13.155523,55.716515,0</coordinates></Point>
      </Placemark>
      <Placemark>
        <name><![CDATA[Shell TruckDiesel Lidköping Volvo]]></name>
        <description>Shell TruckDiesel Lidköping Volvo, Lidköping, Sverige</description>
        <styleUrl>#icon-22</styleUrl>
        <Point><coordinates>13.190329,58.492289,0</coordinates></Point>
      </Placemark>
      <Placemark>
        <name><![CDATA[Shell TruckDiesel Stöllet]]></name>
        <description>Shell TruckDiesel Stöllet, Stöllet, Sverige</description>
        <styleUrl>#icon-22</styleUrl>
        <Point><coordinates>13.259712,60.422475,0</coordinates></Point>
      </Placemark>
      <Placemark>
        <name><![CDATA[Shell TruckDiesel Ilanda]]></name>
        <description>Shell TruckDiesel Ilanda, Karlstad, Sverige</description>
        <styleUrl>#icon-22</styleUrl>
        <Point><coordinates>13.412966,59.428791,0</coordinates></Point>
      </Placemark>
      <Placemark>
        <name><![CDATA[Shell TruckDIesel Skoghall Stor Enso]]></name>
        <description>Shell TruckDIesel Skoghall Stor Enso, Skoghall, Sverige</description>
        <styleUrl>#icon-22</styleUrl>
        <Point><coordinates>13.45461,59.325164,0</coordinates></Point>
      </Placemark>
      <Placemark>
        <name><![CDATA[Shell Automat Järpen]]></name>
        <description>Shell Automat Järpen, Järpen, Sverige</description>
        <styleUrl>#icon-22</styleUrl>
        <Point><coordinates>13.473824,63.34285,0</coordinates></Point>
      </Placemark>
      <Placemark>
        <name><![CDATA[Välkommen in Karlstad Östra Infarten]]></name>
        <description>Välkommen in Karlstad Östra Infarten, Karlstad, Sverige</description>
        <styleUrl>#icon-22</styleUrl>
        <Point><coordinates>13.517617,59.394637,0</coordinates></Point>
      </Placemark>
      <Placemark>
        <name><![CDATA[Shell Karlstad Östra Infarten]]></name>
        <description>Shell Karlstad Östra Infarten, Karlstad, Sverige</description>
        <styleUrl>#icon-22</styleUrl>
        <Point><coordinates>13.517617,59.394637,0</coordinates></Point>
      </Placemark>
      <Placemark>
        <name><![CDATA[Shell TruckDiesel Munkfors]]></name>
        <description>Shell TruckDiesel Munkfors, Munkfors, Sverige</description>
        <styleUrl>#icon-22</styleUrl>
        <Point><coordinates>13.52615,59.829816,0</coordinates></Point>
      </Placemark>
      <Placemark>
        <name><![CDATA[Välkommen in Gislaved]]></name>
        <description>Välkommen in Gislaved, Gislaved, Sverige</description>
        <styleUrl>#icon-22</styleUrl>
        <Point><coordinates>13.54242,57.306986,0</coordinates></Point>
      </Placemark>
      <Placemark>
        <name><![CDATA[Shell Gislaved]]></name>
        <description>Shell Gislaved, Gislaved, Sverige</description>
        <styleUrl>#icon-22</styleUrl>
        <Point><coordinates>13.54242,57.306986,0</coordinates></Point>
      </Placemark>
      <Placemark>
        <name><![CDATA[Shell TruckDiesel Karlstad Volvo]]></name>
        <description>Shell TruckDiesel Karlstad Volvo, Karlstad, Sverige</description>
        <styleUrl>#icon-22</styleUrl>
        <Point><coordinates>13.5592,59.3787,0</coordinates></Point>
      </Placemark>
      <Placemark>
        <name><![CDATA[Shell TruckDIesel Karlstad Lovartsgatan BIO]]></name>
        <description>Shell TruckDIesel Karlstad Lovartsgatan BIO, Karlstad, Sverige</description>
        <styleUrl>#icon-22</styleUrl>
        <Point><coordinates>13.560871,59.376932,0</coordinates></Point>
      </Placemark>
      <Placemark>
        <name><![CDATA[Shell Truck Diesel Välsvik]]></name>
        <description>Shell Truck Diesel Välsvik, Karlstad, Sverige</description>
        <styleUrl>#icon-22</styleUrl>
        <Point><coordinates>13.5699,59.3923,0</coordinates></Point>
      </Placemark>
      <Placemark>
        <name><![CDATA[Shell Strömsnäsbruk]]></name>
        <description>Shell Strömsnäsbruk, Strömsnäsbruk, Sverige</description>
        <styleUrl>#icon-22</styleUrl>
        <Point><coordinates>13.723026,56.562199,0</coordinates></Point>
      </Placemark>
      <Placemark>
        <name><![CDATA[Shell Truck Diesel Ystad]]></name>
        <description>Shell Truck Diesel Ystad, Ystad, Sverige</description>
        <styleUrl>#icon-22</styleUrl>
        <Point><coordinates>13.804838,55.444542,0</coordinates></Point>
      </Placemark>
      <Placemark>
        <name><![CDATA[Välkommen in Skövde]]></name>
        <description>Välkommen in Skövde, Skövde, Sverige</description>
        <styleUrl>#icon-22</styleUrl>
        <Point><coordinates>13.836678,58.37624,0</coordinates></Point>
      </Placemark>
      <Placemark>
        <name><![CDATA[Shell Skövde]]></name>
        <description>Shell Skövde, Skövde, Sverige</description>
        <styleUrl>#icon-22</styleUrl>
        <Point><coordinates>13.836678,58.37624,0</coordinates></Point>
      </Placemark>
      <Placemark>
        <name><![CDATA[Shell Truck Diesel Ljungby]]></name>
        <description>Shell Truck Diesel Ljungby, Ljungby, Sverige</description>
        <styleUrl>#icon-22</styleUrl>
        <Point><coordinates>13.906792,56.817451,0</coordinates></Point>
      </Placemark>
      <Placemark>
        <name><![CDATA[Välkommen in Mariestad Hasslerör]]></name>
        <description>Välkommen in Mariestad Hasslerör, Mariestad, Sverige</description>
        <styleUrl>#icon-22</styleUrl>
        <Point><coordinates>13.925967,58.735441,0</coordinates></Point>
      </Placemark>
      <Placemark>
        <name><![CDATA[Shell Mariestad Hasslerör]]></name>
        <description>Shell Mariestad Hasslerör, Mariestad, Sverige</description>
        <styleUrl>#icon-22</styleUrl>
        <Point><coordinates>13.925967,58.735441,0</coordinates></Point>
      </Placemark>
      <Placemark>
        <name><![CDATA[Shell Truck Diesel Tidaholm]]></name>
        <description>Shell Truck Diesel Tidaholm, Tidaholm, Sverige</description>
        <styleUrl>#icon-22</styleUrl>
        <Point><coordinates>13.941297,58.17385,0</coordinates></Point>
      </Placemark>
      <Placemark>
        <name><![CDATA[Välkommen in Bottnaryd Västra Jära]]></name>
        <description>Välkommen in Bottnaryd Västra Jära, Bottnaryd, Sverige</description>
        <styleUrl>#icon-22</styleUrl>
        <Point><coordinates>13.96026,57.751511,0</coordinates></Point>
      </Placemark>
      <Placemark>
        <name><![CDATA[Shell Bottnaryd Västra Jära]]></name>
        <description>Shell Bottnaryd Västra Jära, Bottnaryd, Sverige</description>
        <styleUrl>#icon-22</styleUrl>
        <Point><coordinates>13.96026,57.751511,0</coordinates></Point>
      </Placemark>
      <Placemark>
        <name><![CDATA[Välkommen in Osby]]></name>
        <description>Välkommen in Osby, Osby, Sverige</description>
        <styleUrl>#icon-22</styleUrl>
        <Point><coordinates>13.994006,56.378082,0</coordinates></Point>
      </Placemark>
      <Placemark>
        <name><![CDATA[Shell Osby]]></name>
        <description>Shell Osby, Osby, Sverige</description>
        <styleUrl>#icon-22</styleUrl>
        <Point><coordinates>13.994006,56.378082,0</coordinates></Point>
      </Placemark>
      <Placemark>
        <name><![CDATA[Shell Truck Diesel Tibro]]></name>
        <description>Shell Truck Diesel Tibro, Tibro, Sverige</description>
        <styleUrl>#icon-22</styleUrl>
        <Point><coordinates>14.134952,58.41485,0</coordinates></Point>
      </Placemark>
      <Placemark>
        <name><![CDATA[Shell Truck DIesel Filipstad]]></name>
        <description>Shell Truck DIesel Filipstad, Filipstad, Sverige</description>
        <styleUrl>#icon-22</styleUrl>
        <Point><coordinates>14.147746,59.712411,0</coordinates></Point>
      </Placemark>
      <Placemark>
        <name><![CDATA[Shell Jönköping Torsvik]]></name>
        <description>Shell Jönköping Torsvik, Jönköping, Sverige</description>
        <styleUrl>#icon-22</styleUrl>
        <Point><coordinates>14.156435,57.690934,0</coordinates></Point>
      </Placemark>
      <Placemark>
        <name><![CDATA[Välkommen in Jönköping Barnarpsg]]></name>
        <description>Välkommen in Jönköping Barnarpsg, Jönköping, Sverige</description>
        <styleUrl>#icon-22</styleUrl>
        <Point><coordinates>14.157102,57.772785,0</coordinates></Point>
      </Placemark>
      <Placemark>
        <name><![CDATA[Shell Jönköping Barnarpsg]]></name>
        <description>Shell Jönköping Barnarpsg, Jönköping, Sverige</description>
        <styleUrl>#icon-22</styleUrl>
        <Point><coordinates>14.157102,57.772785,0</coordinates></Point>
      </Placemark>
      <Placemark>
        <name><![CDATA[Shell TruckDiesel Jönköping Volvo]]></name>
        <description>Shell TruckDiesel Jönköping Volvo, Jönköping, Sverige</description>
        <styleUrl>#icon-22</styleUrl>
        <Point><coordinates>14.162708,57.747076,0</coordinates></Point>
      </Placemark>
      <Placemark>
        <name><![CDATA[Shell TruckDiesel Visnum Vall]]></name>
        <description>Shell TruckDiesel Visnum Vall, Kristinehamn, Sverige</description>
        <styleUrl>#icon-22</styleUrl>
        <Point><coordinates>14.178355,59.117305,0</coordinates></Point>
      </Placemark>
      <Placemark>
        <name><![CDATA[Välkommen in Jönköping Sjukhusg A6]]></name>
        <description>Välkommen in Jönköping Sjukhusg A6, Jönköping, Sverige</description>
        <styleUrl>#icon-22</styleUrl>
        <Point><coordinates>14.197752,57.77252,0</coordinates></Point>
      </Placemark>
      <Placemark>
        <name><![CDATA[Shell Jönköping Sjukhusg A6]]></name>
        <description>Shell Jönköping Sjukhusg A6, Jönköping, Sverige</description>
        <styleUrl>#icon-22</styleUrl>
        <Point><coordinates>14.197752,57.77252,0</coordinates></Point>
      </Placemark>
      <Placemark>
        <name><![CDATA[Välkommen in Huskvarna]]></name>
        <description>Välkommen in Huskvarna, Huskvarna, Sverige</description>
        <styleUrl>#icon-22</styleUrl>
        <Point><coordinates>14.267214,57.787563,0</coordinates></Point>
      </Placemark>
      <Placemark>
        <name><![CDATA[Shell Huskvarna]]></name>
        <description>Shell Huskvarna, Huskvarna, Sverige</description>
        <styleUrl>#icon-22</styleUrl>
        <Point><coordinates>14.267214,57.787563,0</coordinates></Point>
      </Placemark>
      <Placemark>
        <name><![CDATA[Shell TruckDiesel Karlskoga]]></name>
        <description>Shell TruckDiesel Karlskoga, Karlskoga, Sverige</description>
        <styleUrl>#icon-22</styleUrl>
        <Point><coordinates>14.479396,59.324326,0</coordinates></Point>
      </Placemark>
      <Placemark>
        <name><![CDATA[Shell Truck Diesel Mora]]></name>
        <description>Shell Truck Diesel Mora, Mora, Sverige</description>
        <styleUrl>#icon-22</styleUrl>
        <Point><coordinates>14.550736,61.007697,0</coordinates></Point>
      </Placemark>
      <Placemark>
        <name><![CDATA[Shell TruckDiesel Hasselfors]]></name>
        <description>Shell TruckDiesel Hasselfors, Hasselfors, Sverige</description>
        <styleUrl>#icon-22</styleUrl>
        <Point><coordinates>14.641982,59.095597,0</coordinates></Point>
      </Placemark>
      <Placemark>
        <name><![CDATA[Shell Truck Diesel Östersund Upplagsv]]></name>
        <description>Shell Truck Diesel Östersund Upplagsv, Östersund, Sverige</description>
        <styleUrl>#icon-22</styleUrl>
        <Point><coordinates>14.65092,63.21635,0</coordinates></Point>
      </Placemark>
      <Placemark>
        <name><![CDATA[Shell TruckDiesel Östersund Volvo]]></name>
        <description>Shell TruckDiesel Östersund Volvo, Östersund, Sverige</description>
        <styleUrl>#icon-22</styleUrl>
        <Point><coordinates>14.682,63.1716,0</coordinates></Point>
      </Placemark>
      <Placemark>
        <name><![CDATA[Shell Truck Diesel Växjö Råddjursv]]></name>
        <description>Shell Truck Diesel Växjö Råddjursv, Växjö, Sverige</description>
        <styleUrl>#icon-22</styleUrl>
        <Point><coordinates>14.835475,56.909463,0</coordinates></Point>
      </Placemark>
      <Placemark>
        <name><![CDATA[Shell Truck Diesel Brunflo]]></name>
        <description>Shell Truck Diesel Brunflo, Brunflo, Sverige</description>
        <styleUrl>#icon-22</styleUrl>
        <Point><coordinates>14.835889,63.075163,0</coordinates></Point>
      </Placemark>
      <Placemark>
        <name><![CDATA[Shell Truck Diesel Karlshamn]]></name>
        <description>Shell Truck Diesel Karlshamn, Karlshamn, Sverige</description>
        <styleUrl>#icon-22</styleUrl>
        <Point><coordinates>14.8449,56.1623,0</coordinates></Point>
      </Placemark>
      <Placemark>
        <name><![CDATA[Välkommen in Askersund]]></name>
        <description>Välkommen in Askersund, Askersund, Sverige</description>
        <styleUrl>#icon-22</styleUrl>
        <Point><coordinates>14.897043,58.878962,0</coordinates></Point>
      </Placemark>
      <Placemark>
        <name><![CDATA[Shell Askersund]]></name>
        <description>Shell Askersund, Askersund, Sverige</description>
        <styleUrl>#icon-22</styleUrl>
        <Point><coordinates>14.897043,58.878962,0</coordinates></Point>
      </Placemark>
      <Placemark>
        <name><![CDATA[Shell TruckDiesel Tranås Volvo]]></name>
        <description>Shell TruckDiesel Tranås Volvo, Tranås, Sverige</description>
        <styleUrl>#icon-22</styleUrl>
        <Point><coordinates>14.948787,58.03265,0</coordinates></Point>
      </Placemark>
      <Placemark>
        <name><![CDATA[Shell Automat Vintrosa]]></name>
        <description>Shell Automat Vintrosa, Vintrosa, Sverige</description>
        <styleUrl>#icon-22</styleUrl>
        <Point><coordinates>15.028587,59.241119,0</coordinates></Point>
      </Placemark>
      <Placemark>
        <name><![CDATA[Välkommen in Motala]]></name>
        <description>Välkommen in Motala, Motala, Sverige</description>
        <styleUrl>#icon-22</styleUrl>
        <Point><coordinates>15.044594,58.531294,0</coordinates></Point>
      </Placemark>
      <Placemark>
        <name><![CDATA[Shell Motala]]></name>
        <description>Shell Motala, Motala, Sverige</description>
        <styleUrl>#icon-22</styleUrl>
        <Point><coordinates>15.044594,58.531294,0</coordinates></Point>
      </Placemark>
      <Placemark>
        <name><![CDATA[Shell TruckDiesel Motala Volvo]]></name>
        <description>Shell TruckDiesel Motala Volvo, Motala, Sverige</description>
        <styleUrl>#icon-22</styleUrl>
        <Point><coordinates>15.0636,58.5585,0</coordinates></Point>
      </Placemark>
      <Placemark>
        <name><![CDATA[Shell Truck Diesel Insjön]]></name>
        <description>Shell Truck Diesel Insjön, Insjön, Sverige</description>
        <styleUrl>#icon-22</styleUrl>
        <Point><coordinates>15.09144,60.6685,0</coordinates></Point>
      </Placemark>
      <Placemark>
        <name><![CDATA[Välkommen in Kumla]]></name>
        <description>Välkommen in Kumla, Kumla, Sverige</description>
        <styleUrl>#icon-22</styleUrl>
        <Point><coordinates>15.118647,59.132265,0</coordinates></Point>
      </Placemark>
      <Placemark>
        <name><![CDATA[Shell Kumla]]></name>
        <description>Shell Kumla, Kumla, Sverige</description>
        <styleUrl>#icon-22</styleUrl>
        <Point><coordinates>15.118647,59.132265,0</coordinates></Point>
      </Placemark>
      <Placemark>
        <name><![CDATA[Shell Truck Diesel Berglunda]]></name>
        <description>Shell Truck Diesel Berglunda, Örebro, Sverige</description>
        <styleUrl>#icon-22</styleUrl>
        <Point><coordinates>15.125589,59.237588,0</coordinates></Point>
      </Placemark>
      <Placemark>
        <name><![CDATA[Shell TruckDiesel Örebro Volvo]]></name>
        <description>Shell TruckDiesel Örebro Volvo, Örebro, Sverige</description>
        <styleUrl>#icon-22</styleUrl>
        <Point><coordinates>15.233427,59.297635,0</coordinates></Point>
      </Placemark>
      <Placemark>
        <name><![CDATA[Shell Truck Diesel Tärnaby]]></name>
        <description>Shell Truck Diesel Tärnaby, Tärnaby, Sverige</description>
        <styleUrl>#icon-22</styleUrl>
        <Point><coordinates>15.249184,65.709957,0</coordinates></Point>
      </Placemark>
      <Placemark>
        <name><![CDATA[Shell TruckDiesel Frövi]]></name>
        <description>Shell TruckDiesel Frövi, Frövi, Sverige</description>
        <styleUrl>#icon-22</styleUrl>
        <Point><coordinates>15.34155,59.47422,0</coordinates></Point>
      </Placemark>
      <Placemark>
        <name><![CDATA[Välkommen in Listerby]]></name>
        <description>Välkommen in Listerby, Listerby, Sverige</description>
        <styleUrl>#icon-22</styleUrl>
        <Point><coordinates>15.403389,56.199076,0</coordinates></Point>
      </Placemark>
      <Placemark>
        <name><![CDATA[Shell Listerby]]></name>
        <description>Shell Listerby, Listerby, Sverige</description>
        <styleUrl>#icon-22</styleUrl>
        <Point><coordinates>15.403389,56.199076,0</coordinates></Point>
      </Placemark>
      <Placemark>
        <name><![CDATA[Välkommen in Borlänge Ritarg]]></name>
        <description>Välkommen in Borlänge Ritarg, Borlänge, Sverige</description>
        <styleUrl>#icon-22</styleUrl>
        <Point><coordinates>15.408808,60.475488,0</coordinates></Point>
      </Placemark>
      <Placemark>
        <name><![CDATA[Shell Borlänge Ritarg]]></name>
        <description>Shell Borlänge Ritarg, Borlänge, Sverige</description>
        <styleUrl>#icon-22</styleUrl>
        <Point><coordinates>15.408808,60.475488,0</coordinates></Point>
      </Placemark>
      <Placemark>
        <name><![CDATA[Välkommen in Borlänge Tunabro]]></name>
        <description>Välkommen in Borlänge Tunabro, Borlänge, Sverige</description>
        <styleUrl>#icon-22</styleUrl>
        <Point><coordinates>15.47024,60.463434,0</coordinates></Point>
      </Placemark>
      <Placemark>
        <name><![CDATA[Shell Borlänge Tunabro]]></name>
        <description>Shell Borlänge Tunabro, Borlänge, Sverige</description>
        <styleUrl>#icon-22</styleUrl>
        <Point><coordinates>15.47024,60.463434,0</coordinates></Point>
      </Placemark>
      <Placemark>
        <name><![CDATA[Shell Truck Diesel Strömsund]]></name>
        <description>Shell Truck Diesel Strömsund, Strömsund, Sverige</description>
        <styleUrl>#icon-22</styleUrl>
        <Point><coordinates>15.574989,63.844979,0</coordinates></Point>
      </Placemark>
      <Placemark>
        <name><![CDATA[Välkommen in Linköping Malmslätt]]></name>
        <description>Välkommen in Linköping Malmslätt, Linköping, Sverige</description>
        <styleUrl>#icon-22</styleUrl>
        <Point><coordinates>15.590998,58.40708,0</coordinates></Point>
      </Placemark>
      <Placemark>
        <name><![CDATA[Shell Linköping Malmslätt]]></name>
        <description>Shell Linköping Malmslätt, Linköping, Sverige</description>
        <styleUrl>#icon-22</styleUrl>
        <Point><coordinates>15.590998,58.40708,0</coordinates></Point>
      </Placemark>
      <Placemark>
        <name><![CDATA[Shell Truck Diesel Kisa]]></name>
        <description>Shell Truck Diesel Kisa, Kisa, Sverige</description>
        <styleUrl>#icon-22</styleUrl>
        <Point><coordinates>15.63708,57.98135,0</coordinates></Point>
      </Placemark>
      <Placemark>
        <name><![CDATA[Shell Truck Diesel Karlskrona Kaliumv]]></name>
        <description>Shell Truck Diesel Karlskrona Kaliumv, Karlskrona, Sverige</description>
        <styleUrl>#icon-22</styleUrl>
        <Point><coordinates>15.640916,56.218404,0</coordinates></Point>
      </Placemark>
      <Placemark>
        <name><![CDATA[Välkommen in Karlskrona]]></name>
        <description>Välkommen in Karlskrona, Karlskrona, Sverige</description>
        <styleUrl>#icon-22</styleUrl>
        <Point><coordinates>15.64171,56.20358,0</coordinates></Point>
      </Placemark>
      <Placemark>
        <name><![CDATA[Shell Karlskrona]]></name>
        <description>Shell Karlskrona, Karlskrona, Sverige</description>
        <styleUrl>#icon-22</styleUrl>
        <Point><coordinates>15.64171,56.20358,0</coordinates></Point>
      </Placemark>
      <Placemark>
        <name><![CDATA[Välkommen in Linköping Kylarv]]></name>
        <description>Välkommen in Linköping Kylarv, Linköping, Sverige</description>
        <styleUrl>#icon-22</styleUrl>
        <Point><coordinates>15.653005,58.399039,0</coordinates></Point>
      </Placemark>
      <Placemark>
        <name><![CDATA[Shell Linköping Kylarv]]></name>
        <description>Shell Linköping Kylarv, Linköping, Sverige</description>
        <styleUrl>#icon-22</styleUrl>
        <Point><coordinates>15.653005,58.399039,0</coordinates></Point>
      </Placemark>
      <Placemark>
        <name><![CDATA[Shell Herrbeta Ng]]></name>
        <description>Shell Herrbeta Ng, Linghem, Sverige</description>
        <styleUrl>#icon-22</styleUrl>
        <Point><coordinates>15.872867,58.47953,0</coordinates></Point>
      </Placemark>
      <Placemark>
        <name><![CDATA[Shell Herrbeta Sg]]></name>
        <description>Shell Herrbeta Sg, Linghem, Sverige</description>
        <styleUrl>#icon-22</styleUrl>
        <Point><coordinates>15.873476,58.481665,0</coordinates></Point>
      </Placemark>
      <Placemark>
        <name><![CDATA[Shell Skärblacka]]></name>
        <description>Shell Skärblacka, Skärblacka, Sverige</description>
        <styleUrl>#icon-22</styleUrl>
        <Point><coordinates>15.925628,58.581174,0</coordinates></Point>
      </Placemark>
      <Placemark>
        <name><![CDATA[Välkommen in Åtvidaberg]]></name>
        <description>Välkommen in Åtvidaberg, Åtvidaberg, Sverige</description>
        <styleUrl>#icon-22</styleUrl>
        <Point><coordinates>15.989573,58.209579,0</coordinates></Point>
      </Placemark>
      <Placemark>
        <name><![CDATA[Shell Åtvidaberg]]></name>
        <description>Shell Åtvidaberg, Åtvidaberg, Sverige</description>
        <styleUrl>#icon-22</styleUrl>
        <Point><coordinates>15.989573,58.209579,0</coordinates></Point>
      </Placemark>
      <Placemark>
        <name><![CDATA[Shell Truck Diesel Ljusdal]]></name>
        <description>Shell Truck Diesel Ljusdal, Ljusdal, Sverige</description>
        <styleUrl>#icon-22</styleUrl>
        <Point><coordinates>16.059646,61.820442,0</coordinates></Point>
      </Placemark>
      <Placemark>
        <name><![CDATA[Välkommen in Norrköping Hagag]]></name>
        <description>Välkommen in Norrköping Hagag, Norrköping, Sverige</description>
        <styleUrl>#icon-22</styleUrl>
        <Point><coordinates>16.156304,58.595655,0</coordinates></Point>
      </Placemark>
      <Placemark>
        <name><![CDATA[Shell Norrköping Hagag]]></name>
        <description>Shell Norrköping Hagag, Norrköping, Sverige</description>
        <styleUrl>#icon-22</styleUrl>
        <Point><coordinates>16.156304,58.595655,0</coordinates></Point>
      </Placemark>
      <Placemark>
        <name><![CDATA[Shell Express Norrköping Stockholmsv]]></name>
        <description>Shell Express Norrköping Stockholmsv, Norrköping, Sverige</description>
        <styleUrl>#icon-22</styleUrl>
        <Point><coordinates>16.173424,58.596231,0</coordinates></Point>
      </Placemark>
      <Placemark>
        <name><![CDATA[Välkommen in Norrköping Boktryckareg]]></name>
        <description>Välkommen in Norrköping Boktryckareg, Norrköping, Sverige</description>
        <styleUrl>#icon-22</styleUrl>
        <Point><coordinates>16.174769,58.605689,0</coordinates></Point>
      </Placemark>
      <Placemark>
        <name><![CDATA[Shell Norrköping Boktryckareg]]></name>
        <description>Shell Norrköping Boktryckareg, Norrköping, Sverige</description>
        <styleUrl>#icon-22</styleUrl>
        <Point><coordinates>16.174769,58.605689,0</coordinates></Point>
      </Placemark>
      <Placemark>
        <name><![CDATA[Shell TruckDiesel Norrköping Volvo]]></name>
        <description>Shell TruckDiesel Norrköping Volvo, Norrköping, Sverige</description>
        <styleUrl>#icon-22</styleUrl>
        <Point><coordinates>16.179624,58.604013,0</coordinates></Point>
      </Placemark>
      <Placemark>
        <name><![CDATA[Välkommen in Avesta]]></name>
        <description>Välkommen in Avesta, Avesta, Sverige</description>
        <styleUrl>#icon-22</styleUrl>
        <Point><coordinates>16.199701,60.151753,0</coordinates></Point>
      </Placemark>
      <Placemark>
        <name><![CDATA[Shell Avesta]]></name>
        <description>Shell Avesta, Avesta, Sverige</description>
        <styleUrl>#icon-22</styleUrl>
        <Point><coordinates>16.199701,60.151753,0</coordinates></Point>
      </Placemark>
      <Placemark>
        <name><![CDATA[Välkommen in Katrineholm]]></name>
        <description>Välkommen in Katrineholm, Katrineholm, Sverige</description>
        <styleUrl>#icon-22</styleUrl>
        <Point><coordinates>16.211094,58.995247,0</coordinates></Point>
      </Placemark>
      <Placemark>
        <name><![CDATA[Shell Katrineholm]]></name>
        <description>Shell Katrineholm, Katrineholm, Sverige</description>
        <styleUrl>#icon-22</styleUrl>
        <Point><coordinates>16.211094,58.995247,0</coordinates></Point>
      </Placemark>
      <Placemark>
        <name><![CDATA[Shell TruckDiesel Katrineholm Volvo]]></name>
        <description>Shell TruckDiesel Katrineholm Volvo, Katrineholm, Sverige</description>
        <styleUrl>#icon-22</styleUrl>
        <Point><coordinates>16.223547,59.001175,0</coordinates></Point>
      </Placemark>
      <Placemark>
        <name><![CDATA[Välkommen in Kalmar]]></name>
        <description>Välkommen in Kalmar, Kalmar, Sverige</description>
        <styleUrl>#icon-22</styleUrl>
        <Point><coordinates>16.333513,56.673163,0</coordinates></Point>
      </Placemark>
      <Placemark>
        <name><![CDATA[Shell Kalmar]]></name>
        <description>Shell Kalmar, Kalmar, Sverige</description>
        <styleUrl>#icon-22</styleUrl>
        <Point><coordinates>16.333513,56.673163,0</coordinates></Point>
      </Placemark>
      <Placemark>
        <name><![CDATA[Välkommen in Söderköping]]></name>
        <description>Välkommen in Söderköping, Söderköping, Sverige</description>
        <styleUrl>#icon-22</styleUrl>
        <Point><coordinates>16.333573,58.476169,0</coordinates></Point>
      </Placemark>
      <Placemark>
        <name><![CDATA[Shell Söderköping]]></name>
        <description>Shell Söderköping, Söderköping, Sverige</description>
        <styleUrl>#icon-22</styleUrl>
        <Point><coordinates>16.333573,58.476169,0</coordinates></Point>
      </Placemark>
      <Placemark>
        <name><![CDATA[Välkommen in Oskarshamn]]></name>
        <description>Välkommen in Oskarshamn, Oskarshamn, Sverige</description>
        <styleUrl>#icon-22</styleUrl>
        <Point><coordinates>16.429737,57.264203,0</coordinates></Point>
      </Placemark>
      <Placemark>
        <name><![CDATA[Shell Oskarshamn]]></name>
        <description>Shell Oskarshamn, Oskarshamn, Sverige</description>
        <styleUrl>#icon-22</styleUrl>
        <Point><coordinates>16.429737,57.264203,0</coordinates></Point>
      </Placemark>
      <Placemark>
        <name><![CDATA[Shell Truck Diesel Ramsele]]></name>
        <description>Shell Truck Diesel Ramsele, Ramsele, Sverige</description>
        <styleUrl>#icon-22</styleUrl>
        <Point><coordinates>16.463952,63.543724,0</coordinates></Point>
      </Placemark>
      <Placemark>
        <name><![CDATA[Välkommen in Västerås Arosvägen 43]]></name>
        <description>Välkommen in Västerås Arosvägen 43, Västerås, Sverige</description>
        <styleUrl>#icon-22</styleUrl>
        <Point><coordinates>16.533511,59.623502,0</coordinates></Point>
      </Placemark>
      <Placemark>
        <name><![CDATA[Shell Västerås Arosvägen 43]]></name>
        <description>Shell Västerås Arosvägen 43, Västerås, Sverige</description>
        <styleUrl>#icon-22</styleUrl>
        <Point><coordinates>16.533511,59.623502,0</coordinates></Point>
      </Placemark>
      <Placemark>
        <name><![CDATA[Shell TruckDiesel Västerås Volvo]]></name>
        <description>Shell TruckDiesel Västerås Volvo, Västerås, Sverige</description>
        <styleUrl>#icon-22</styleUrl>
        <Point><coordinates>16.5694,59.6466,0</coordinates></Point>
      </Placemark>
      <Placemark>
        <name><![CDATA[Shell Express Sala]]></name>
        <description>Shell Express Sala, Sala, Sverige</description>
        <styleUrl>#icon-22</styleUrl>
        <Point><coordinates>16.614928,59.916036,0</coordinates></Point>
      </Placemark>
      <Placemark>
        <name><![CDATA[Shell Truck Diesel Näsåker]]></name>
        <description>Shell Truck Diesel Näsåker, Näsåker, Sverige</description>
        <styleUrl>#icon-22</styleUrl>
        <Point><coordinates>16.903327,63.449274,0</coordinates></Point>
      </Placemark>
      <Placemark>
        <name><![CDATA[Välkommen in Nyköpingsbro Norr]]></name>
        <description>Välkommen in Nyköpingsbro Norr, Nyköping, Sverige</description>
        <styleUrl>#icon-22</styleUrl>
        <Point><coordinates>16.920186,58.748147,0</coordinates></Point>
      </Placemark>
      <Placemark>
        <name><![CDATA[Shell Nyköpingsbro Norr]]></name>
        <description>Shell Nyköpingsbro Norr, Nyköping, Sverige</description>
        <styleUrl>#icon-22</styleUrl>
        <Point><coordinates>16.920186,58.748147,0</coordinates></Point>
      </Placemark>
      <Placemark>
        <name><![CDATA[Välkommen in Nyköpingsbro Söder]]></name>
        <description>Välkommen in Nyköpingsbro Söder, Nyköping, Sverige</description>
        <styleUrl>#icon-22</styleUrl>
        <Point><coordinates>16.921586,58.749264,0</coordinates></Point>
      </Placemark>
      <Placemark>
        <name><![CDATA[Shell Nyköpingsbro Söder]]></name>
        <description>Shell Nyköpingsbro Söder, Nyköping, Sverige</description>
        <styleUrl>#icon-22</styleUrl>
        <Point><coordinates>16.921586,58.749264,0</coordinates></Point>
      </Placemark>
      <Placemark>
        <name><![CDATA[Välkommen in Hamrångefjärden]]></name>
        <description>Välkommen in Hamrångefjärden, Hamrångefjärden, Sverige</description>
        <styleUrl>#icon-22</styleUrl>
        <Point><coordinates>17.018971,60.903363,0</coordinates></Point>
      </Placemark>
      <Placemark>
        <name><![CDATA[Shell Hamrångefjärden]]></name>
        <description>Shell Hamrångefjärden, Hamrångefjärden, Sverige</description>
        <styleUrl>#icon-22</styleUrl>
        <Point><coordinates>17.018971,60.903363,0</coordinates></Point>
      </Placemark>
      <Placemark>
        <name><![CDATA[Shell Truck Diesel Hudiksvall]]></name>
        <description>Shell Truck Diesel Hudiksvall, Hudiksvall, Sverige</description>
        <styleUrl>#icon-22</styleUrl>
        <Point><coordinates>17.046742,61.712958,0</coordinates></Point>
      </Placemark>
      <Placemark>
        <name><![CDATA[Shell Truck Diesel Iggesund]]></name>
        <description>Shell Truck Diesel Iggesund, Iggesund, Sverige</description>
        <styleUrl>#icon-22</styleUrl>
        <Point><coordinates>17.094684,61.64059,0</coordinates></Point>
      </Placemark>
      <Placemark>
        <name><![CDATA[Shell Truck Diesel Storuman]]></name>
        <description>Shell Truck Diesel Storuman, Storuman, Sverige</description>
        <styleUrl>#icon-22</styleUrl>
        <Point><coordinates>17.107944,65.092448,0</coordinates></Point>
      </Placemark>
      <Placemark>
        <name><![CDATA[Shell Truck Diesel Gävle]]></name>
        <description>Shell Truck Diesel Gävle, Gävle, Sverige</description>
        <styleUrl>#icon-22</styleUrl>
        <Point><coordinates>17.185771,60.660417,0</coordinates></Point>
      </Placemark>
      <Placemark>
        <name><![CDATA[Välkommen in Sundsvall Bergsg]]></name>
        <description>Välkommen in Sundsvall Bergsg, Sundsvall, Sverige</description>
        <styleUrl>#icon-22</styleUrl>
        <Point><coordinates>17.26228,62.39392,0</coordinates></Point>
      </Placemark>
      <Placemark>
        <name><![CDATA[Shell Sundsvall Bergsg]]></name>
        <description>Shell Sundsvall Bergsg, Sundsvall, Sverige</description>
        <styleUrl>#icon-22</styleUrl>
        <Point><coordinates>17.26228,62.39392,0</coordinates></Point>
      </Placemark>
      <Placemark>
        <name><![CDATA[Shell Truck Diesel Sollefteå]]></name>
        <description>Shell Truck Diesel Sollefteå, Sollefteå, Sverige</description>
        <styleUrl>#icon-22</styleUrl>
        <Point><coordinates>17.306406,63.161787,0</coordinates></Point>
      </Placemark>
      <Placemark>
        <name><![CDATA[Välkommen in Sundsvall Kolvägen]]></name>
        <description>Välkommen in Sundsvall Kolvägen, Sundsvall, Sverige</description>
        <styleUrl>#icon-22</styleUrl>
        <Point><coordinates>17.318786,62.387449,0</coordinates></Point>
      </Placemark>
      <Placemark>
        <name><![CDATA[Shell Sundsvall Kolvägen]]></name>
        <description>Shell Sundsvall Kolvägen, Sundsvall, Sverige</description>
        <styleUrl>#icon-22</styleUrl>
        <Point><coordinates>17.318786,62.387449,0</coordinates></Point>
      </Placemark>
      <Placemark>
        <name><![CDATA[Välkommen in Sundsvall Hagav]]></name>
        <description>Välkommen in Sundsvall Hagav, Sundsvall, Sverige</description>
        <styleUrl>#icon-22</styleUrl>
        <Point><coordinates>17.334003,62.408903,0</coordinates></Point>
      </Placemark>
      <Placemark>
        <name><![CDATA[Shell Sundsvall Hagav]]></name>
        <description>Shell Sundsvall Hagav, Sundsvall, Sverige</description>
        <styleUrl>#icon-22</styleUrl>
        <Point><coordinates>17.334003,62.408903,0</coordinates></Point>
      </Placemark>
      <Placemark>
        <name><![CDATA[Shell Bålsta]]></name>
        <description>Shell Bålsta, Bålsta, Sverige</description>
        <styleUrl>#icon-22</styleUrl>
        <Point><coordinates>17.505137,59.584866,0</coordinates></Point>
      </Placemark>
      <Placemark>
        <name><![CDATA[Välkommen in Uppsala Kvarnbolund]]></name>
        <description>Välkommen in Uppsala Kvarnbolund, Uppsala, Sverige</description>
        <styleUrl>#icon-22</styleUrl>
        <Point><coordinates>17.552349,59.845139,0</coordinates></Point>
      </Placemark>
      <Placemark>
        <name><![CDATA[Shell Uppsala Kvarnbolund]]></name>
        <description>Shell Uppsala Kvarnbolund, Uppsala, Sverige</description>
        <styleUrl>#icon-22</styleUrl>
        <Point><coordinates>17.552349,59.845139,0</coordinates></Point>
      </Placemark>
      <Placemark>
        <name><![CDATA[Välkommen in Södertälje Bergaholmsvägen]]></name>
        <description>Välkommen in Södertälje Bergaholmsvägen, Södertälje, Sverige</description>
        <styleUrl>#icon-22</styleUrl>
        <Point><coordinates>17.644779,59.20325,0</coordinates></Point>
      </Placemark>
      <Placemark>
        <name><![CDATA[Shell Södertälje Bergaholmsvägen]]></name>
        <description>Shell Södertälje Bergaholmsvägen, Södertälje, Sverige</description>
        <styleUrl>#icon-22</styleUrl>
        <Point><coordinates>17.644779,59.20325,0</coordinates></Point>
      </Placemark>
      <Placemark>
        <name><![CDATA[Shell Truck Diesel Södertälje]]></name>
        <description>Shell Truck Diesel Södertälje, Södertälje, Sverige</description>
        <styleUrl>#icon-22</styleUrl>
        <Point><coordinates>17.656072,59.170551,0</coordinates></Point>
      </Placemark>
      <Placemark>
        <name><![CDATA[Välkommen in Uppsala Vaksalag]]></name>
        <description>Välkommen in Uppsala Vaksalag, Uppsala, Sverige</description>
        <styleUrl>#icon-22</styleUrl>
        <Point><coordinates>17.65968,59.867731,0</coordinates></Point>
      </Placemark>
      <Placemark>
        <name><![CDATA[Shell Uppsala Vaksalag]]></name>
        <description>Shell Uppsala Vaksalag, Uppsala, Sverige</description>
        <styleUrl>#icon-22</styleUrl>
        <Point><coordinates>17.65968,59.867731,0</coordinates></Point>
      </Placemark>
      <Placemark>
        <name><![CDATA[Shell TruckDiesel Moraberg]]></name>
        <description>Shell TruckDiesel Moraberg, Södertälje, Sverige</description>
        <styleUrl>#icon-22</styleUrl>
        <Point><coordinates>17.665691,59.198351,0</coordinates></Point>
      </Placemark>
      <Placemark>
        <name><![CDATA[Välkommen in Uppsala Danmarksg]]></name>
        <description>Välkommen in Uppsala Danmarksg, Uppsala, Sverige</description>
        <styleUrl>#icon-22</styleUrl>
        <Point><coordinates>17.675672,59.846608,0</coordinates></Point>
      </Placemark>
      <Placemark>
        <name><![CDATA[Shell Uppsala Danmarksg]]></name>
        <description>Shell Uppsala Danmarksg, Uppsala, Sverige</description>
        <styleUrl>#icon-22</styleUrl>
        <Point><coordinates>17.675672,59.846608,0</coordinates></Point>
      </Placemark>
      <Placemark>
        <name><![CDATA[Shell Norsborg]]></name>
        <description>Shell Norsborg, Norsborg, Sverige</description>
        <styleUrl>#icon-22</styleUrl>
        <Point><coordinates>17.828831,59.239657,0</coordinates></Point>
      </Placemark>
      <Placemark>
        <name><![CDATA[Shell Norsborg Fågelviksvägen]]></name>
        <description>Shell Norsborg Fågelviksvägen, Norsborg, Sverige</description>
        <styleUrl>#icon-22</styleUrl>
        <Point><coordinates>17.855101,59.25298,0</coordinates></Point>
      </Placemark>
      <Placemark>
        <name><![CDATA[Shell TruckDiesel Arlandastad]]></name>
        <description>Shell TruckDiesel Arlandastad, Arlandastad, Sverige</description>
        <styleUrl>#icon-22</styleUrl>
        <Point><coordinates>17.86699,59.61639,0</coordinates></Point>
      </Placemark>
      <Placemark>
        <name><![CDATA[Välkommen in Vällingby]]></name>
        <description>Välkommen in Vällingby, Vällingby, Sverige</description>
        <styleUrl>#icon-22</styleUrl>
        <Point><coordinates>17.873337,59.358984,0</coordinates></Point>
      </Placemark>
      <Placemark>
        <name><![CDATA[Shell Vällingby]]></name>
        <description>Shell Vällingby, Vällingby, Sverige</description>
        <styleUrl>#icon-22</styleUrl>
        <Point><coordinates>17.873337,59.358984,0</coordinates></Point>
      </Placemark>
      <Placemark>
        <name><![CDATA[Shell Österbybruk]]></name>
        <description>Shell Österbybruk, Österbybruk, Sverige</description>
        <styleUrl>#icon-22</styleUrl>
        <Point><coordinates>17.878496,60.197616,0</coordinates></Point>
      </Placemark>
      <Placemark>
        <name><![CDATA[Shell Österbybruk]]></name>
        <description>Shell Österbybruk, Österbybruk, Sverige</description>
        <styleUrl>#icon-22</styleUrl>
        <Point><coordinates>17.878496,60.197616,0</coordinates></Point>
      </Placemark>
      <Placemark>
        <name><![CDATA[Shell Automat Arjeplog]]></name>
        <description>Shell Automat Arjeplog, Arjeplog, Sverige</description>
        <styleUrl>#icon-22</styleUrl>
        <Point><coordinates>17.893868,66.050435,0</coordinates></Point>
      </Placemark>
      <Placemark>
        <name><![CDATA[Shell Upplands Väsby E4 Söder]]></name>
        <description>Shell Upplands Väsby E4 Söder, Upplands väsby, Sverige</description>
        <styleUrl>#icon-22</styleUrl>
        <Point><coordinates>17.897412,59.550472,0</coordinates></Point>
      </Placemark>
      <Placemark>
        <name><![CDATA[Shell Truck Diesel Skärholmen]]></name>
        <description>Shell Truck Diesel Skärholmen, Skärholmen, Sverige</description>
        <styleUrl>#icon-22</styleUrl>
        <Point><coordinates>17.900461,59.261284,0</coordinates></Point>
      </Placemark>
      <Placemark>
        <name><![CDATA[Shell Upplands Väsby E4 Norr]]></name>
        <description>Shell Upplands Väsby E4 Norr, Upplands väsby, Sverige</description>
        <styleUrl>#icon-22</styleUrl>
        <Point><coordinates>17.901292,59.550661,0</coordinates></Point>
      </Placemark>
      <Placemark>
        <name><![CDATA[Välkommen in Spånga]]></name>
        <description>Välkommen in Spånga, Spånga, Sverige</description>
        <styleUrl>#icon-22</styleUrl>
        <Point><coordinates>17.905119,59.378264,0</coordinates></Point>
      </Placemark>
      <Placemark>
        <name><![CDATA[Shell Spånga]]></name>
        <description>Shell Spånga, Spånga, Sverige</description>
        <styleUrl>#icon-22</styleUrl>
        <Point><coordinates>17.905119,59.378264,0</coordinates></Point>
      </Placemark>
      <Placemark>
        <name><![CDATA[Välkommen in Kista]]></name>
        <description>Välkommen in Kista, Kista, Sverige</description>
        <styleUrl>#icon-22</styleUrl>
        <Point><coordinates>17.93731,59.40666,0</coordinates></Point>
      </Placemark>
      <Placemark>
        <name><![CDATA[Shell Kista]]></name>
        <description>Shell Kista, Kista, Sverige</description>
        <styleUrl>#icon-22</styleUrl>
        <Point><coordinates>17.93731,59.40666,0</coordinates></Point>
      </Placemark>
      <Placemark>
        <name><![CDATA[Välkommen in Sollentuna Kanalvägen]]></name>
        <description>Välkommen in Sollentuna Kanalvägen, Sollentuna, Sverige</description>
        <styleUrl>#icon-22</styleUrl>
        <Point><coordinates>17.938684,59.418473,0</coordinates></Point>
      </Placemark>
      <Placemark>
        <name><![CDATA[Shell Sollentuna Kanalvägen]]></name>
        <description>Shell Sollentuna Kanalvägen, Sollentuna, Sverige</description>
        <styleUrl>#icon-22</styleUrl>
        <Point><coordinates>17.938684,59.418473,0</coordinates></Point>
      </Placemark>
      <Placemark>
        <name><![CDATA[Välkommen in Nynäshamn]]></name>
        <description>Välkommen in Nynäshamn, Nynäshamn, Sverige</description>
        <styleUrl>#icon-22</styleUrl>
        <Point><coordinates>17.943957,58.914596,0</coordinates></Point>
      </Placemark>
      <Placemark>
        <name><![CDATA[Shell Nynäshamn]]></name>
        <description>Shell Nynäshamn, Nynäshamn, Sverige</description>
        <styleUrl>#icon-22</styleUrl>
        <Point><coordinates>17.943957,58.914596,0</coordinates></Point>
      </Placemark>
      <Placemark>
        <name><![CDATA[Shell Bromma Ulvsundav]]></name>
        <description>Shell Bromma Ulvsundav, Bromma, Sverige</description>
        <styleUrl>#icon-22</styleUrl>
        <Point><coordinates>17.961371,59.34081,0</coordinates></Point>
      </Placemark>
      <Placemark>
        <name><![CDATA[Välkommen in Sollentuna Edsberg]]></name>
        <description>Välkommen in Sollentuna Edsberg, Sollentuna, Sverige</description>
        <styleUrl>#icon-22</styleUrl>
        <Point><coordinates>17.964744,59.443522,0</coordinates></Point>
      </Placemark>
      <Placemark>
        <name><![CDATA[Shell Sollentuna Edsberg]]></name>
        <description>Shell Sollentuna Edsberg, Sollentuna, Sverige</description>
        <styleUrl>#icon-22</styleUrl>
        <Point><coordinates>17.964744,59.443522,0</coordinates></Point>
      </Placemark>
      <Placemark>
        <name><![CDATA[Välkommen in Huddinge]]></name>
        <description>Välkommen in Huddinge, Huddinge, Sverige</description>
        <styleUrl>#icon-22</styleUrl>
        <Point><coordinates>17.978181,59.235279,0</coordinates></Point>
      </Placemark>
      <Placemark>
        <name><![CDATA[Shell Huddinge]]></name>
        <description>Shell Huddinge, Huddinge, Sverige</description>
        <styleUrl>#icon-22</styleUrl>
        <Point><coordinates>17.978181,59.235279,0</coordinates></Point>
      </Placemark>
      <Placemark>
        <name><![CDATA[Välkommen in Hägersten]]></name>
        <description>Välkommen in Hägersten, Hägersten, Sverige</description>
        <styleUrl>#icon-22</styleUrl>
        <Point><coordinates>18.00936,59.30551,0</coordinates></Point>
      </Placemark>
      <Placemark>
        <name><![CDATA[Shell Hägersten]]></name>
        <description>Shell Hägersten, Hägersten, Sverige</description>
        <styleUrl>#icon-22</styleUrl>
        <Point><coordinates>18.00936,59.30551,0</coordinates></Point>
      </Placemark>
      <Placemark>
        <name><![CDATA[Shell Lindhagensplan]]></name>
        <description>Shell Lindhagensplan, Stockholm, Sverige</description>
        <styleUrl>#icon-22</styleUrl>
        <Point><coordinates>18.02032,59.332353,0</coordinates></Point>
      </Placemark>
      <Placemark>
        <name><![CDATA[Shell Enskede Bandhagen]]></name>
        <description>Shell Enskede Bandhagen, Enskede, Sverige</description>
        <styleUrl>#icon-22</styleUrl>
        <Point><coordinates>18.057366,59.26938,0</coordinates></Point>
      </Placemark>
      <Placemark>
        <name><![CDATA[Shell Täby Motorvägen]]></name>
        <description>Shell Täby Motorvägen, Täby, Sverige</description>
        <styleUrl>#icon-22</styleUrl>
        <Point><coordinates>18.071122,59.435136,0</coordinates></Point>
      </Placemark>
      <Placemark>
        <name><![CDATA[Välkommen in Johanneshov]]></name>
        <description>Välkommen in Johanneshov, Johanneshov, Sverige</description>
        <styleUrl>#icon-22</styleUrl>
        <Point><coordinates>18.085909,59.289166,0</coordinates></Point>
      </Placemark>
      <Placemark>
        <name><![CDATA[Shell Johanneshov]]></name>
        <description>Shell Johanneshov, Johanneshov, Sverige</description>
        <styleUrl>#icon-22</styleUrl>
        <Point><coordinates>18.085909,59.289166,0</coordinates></Point>
      </Placemark>
      <Placemark>
        <name><![CDATA[Välkommen in Ropsten]]></name>
        <description>Välkommen in Ropsten, Stockholm, Sverige</description>
        <styleUrl>#icon-22</styleUrl>
        <Point><coordinates>18.105727,59.357573,0</coordinates></Point>
      </Placemark>
      <Placemark>
        <name><![CDATA[Shell Ropsten]]></name>
        <description>Shell Ropsten, Stockholm, Sverige</description>
        <styleUrl>#icon-22</styleUrl>
        <Point><coordinates>18.105727,59.357573,0</coordinates></Point>
      </Placemark>
      <Placemark>
        <name><![CDATA[Shell Truck Diesel Haninge Jordbro Industriområde]]></name>
        <description>Shell Truck Diesel Haninge Jordbro Industriområde, Jordbro, Sverige</description>
        <styleUrl>#icon-22</styleUrl>
        <Point><coordinates>18.12457,59.145245,0</coordinates></Point>
      </Placemark>
      <Placemark>
        <name><![CDATA[Shell Värmdö]]></name>
        <description>Shell Värmdö, Värmdö, Sverige</description>
        <styleUrl>#icon-22</styleUrl>
        <Point><coordinates>18.460385,59.313491,0</coordinates></Point>
      </Placemark>
      <Placemark>
        <name><![CDATA[Shell Automat Lycksele]]></name>
        <description>Shell Automat Lycksele, Lycksele, Sverige</description>
        <styleUrl>#icon-22</styleUrl>
        <Point><coordinates>18.681107,64.596056,0</coordinates></Point>
      </Placemark>
      <Placemark>
        <name><![CDATA[Shell Truck Diesel Örnsköldsvik]]></name>
        <description>Shell Truck Diesel Örnsköldsvik, Örnsköldsvik, Sverige</description>
        <styleUrl>#icon-22</styleUrl>
        <Point><coordinates>18.703551,63.292163,0</coordinates></Point>
      </Placemark>
      <Placemark>
        <name><![CDATA[Shell Truck Diesel Malå]]></name>
        <description>Shell Truck Diesel Malå, Malå, Sverige</description>
        <styleUrl>#icon-22</styleUrl>
        <Point><coordinates>18.718913,65.194698,0</coordinates></Point>
      </Placemark>
      <Placemark>
        <name><![CDATA[Shell TruckDiesel Örnsköldsvik Volvo]]></name>
        <description>Shell TruckDiesel Örnsköldsvik Volvo, Örnsköldsvik, Sverige</description>
        <styleUrl>#icon-22</styleUrl>
        <Point><coordinates>18.7498,63.303,0</coordinates></Point>
      </Placemark>
      <Placemark>
        <name><![CDATA[Shell Truck Diesel Husum]]></name>
        <description>Shell Truck Diesel Husum, Husum, Sverige</description>
        <styleUrl>#icon-22</styleUrl>
        <Point><coordinates>19.150302,63.348109,0</coordinates></Point>
      </Placemark>
      <Placemark>
        <name><![CDATA[Shell Truck Diesel Arvidsjaur]]></name>
        <description>Shell Truck Diesel Arvidsjaur, Arvidsjaur, Sverige</description>
        <styleUrl>#icon-22</styleUrl>
        <Point><coordinates>19.204128,65.578378,0</coordinates></Point>
      </Placemark>
      <Placemark>
        <name><![CDATA[Shell Truck Diesel Bjurholm]]></name>
        <description>Shell Truck Diesel Bjurholm, Bjurholm, Sverige</description>
        <styleUrl>#icon-22</styleUrl>
        <Point><coordinates>19.233517,63.931656,0</coordinates></Point>
      </Placemark>
      <Placemark>
        <name><![CDATA[Shell Truck Diesel Umeå]]></name>
        <description>Shell Truck Diesel Umeå, Umeå, Sverige</description>
        <styleUrl>#icon-22</styleUrl>
        <Point><coordinates>20.20499,63.854522,0</coordinates></Point>
      </Placemark>
      <Placemark>
        <name><![CDATA[Välkommen in Umeå Tankv]]></name>
        <description>Välkommen in Umeå Tankv, Umeå, Sverige</description>
        <styleUrl>#icon-22</styleUrl>
        <Point><coordinates>20.249038,63.818102,0</coordinates></Point>
      </Placemark>
      <Placemark>
        <name><![CDATA[Shell Umeå Tankv]]></name>
        <description>Shell Umeå Tankv, Umeå, Sverige</description>
        <styleUrl>#icon-22</styleUrl>
        <Point><coordinates>20.249038,63.818102,0</coordinates></Point>
      </Placemark>
      <Placemark>
        <name><![CDATA[Shell Truck Diesel Kiruna]]></name>
        <description>Shell Truck Diesel Kiruna, Kiruna, Sverige</description>
        <styleUrl>#icon-22</styleUrl>
        <Point><coordinates>20.271372,67.84813,0</coordinates></Point>
      </Placemark>
      <Placemark>
        <name><![CDATA[Shell Truck Diesel Gällivare]]></name>
        <description>Shell Truck Diesel Gällivare, Gällivare, Sverige</description>
        <styleUrl>#icon-22</styleUrl>
        <Point><coordinates>20.645698,67.146983,0</coordinates></Point>
      </Placemark>
      <Placemark>
        <name><![CDATA[Shell TruckDiesel Skellefteå Volvo]]></name>
        <description>Shell TruckDiesel Skellefteå Volvo, Skellefteå, Sverige</description>
        <styleUrl>#icon-22</styleUrl>
        <Point><coordinates>20.9698,64.7312,0</coordinates></Point>
      </Placemark>
      <Placemark>
        <name><![CDATA[Shell Truck Diesel Svedjevägen Skellefteå]]></name>
        <description>Shell Truck Diesel Svedjevägen Skellefteå, Skellefteå, Sverige</description>
        <styleUrl>#icon-22</styleUrl>
        <Point><coordinates>21.03273,64.7464,0</coordinates></Point>
      </Placemark>
      <Placemark>
        <name><![CDATA[Shell Truckdiesel Piteå]]></name>
        <description>Shell Truckdiesel Piteå, Piteå, Sverige</description>
        <styleUrl>#icon-22</styleUrl>
        <Point><coordinates>21.433707,65.317346,0</coordinates></Point>
      </Placemark>
      <Placemark>
        <name><![CDATA[Välkommen in Piteå]]></name>
        <description>Välkommen in Piteå, Piteå, Sverige</description>
        <styleUrl>#icon-22</styleUrl>
        <Point><coordinates>21.472754,65.320617,0</coordinates></Point>
      </Placemark>
      <Placemark>
        <name><![CDATA[Shell Piteå]]></name>
        <description>Shell Piteå, Piteå, Sverige</description>
        <styleUrl>#icon-22</styleUrl>
        <Point><coordinates>21.472754,65.320617,0</coordinates></Point>
      </Placemark>
      <Placemark>
        <name><![CDATA[Shell Automat Jävrebyn]]></name>
        <description>Shell Automat Jävrebyn, Jävrebyn, Sverige</description>
        <styleUrl>#icon-22</styleUrl>
        <Point><coordinates>21.504019,65.14341,0</coordinates></Point>
      </Placemark>
      <Placemark>
        <name><![CDATA[Shell TruckDiesel Boden]]></name>
        <description>Shell TruckDiesel Boden, Boden, Sverige</description>
        <styleUrl>#icon-22</styleUrl>
        <Point><coordinates>21.68757,65.81378,0</coordinates></Point>
      </Placemark>
      <Placemark>
        <name><![CDATA[Välkommen in Boden]]></name>
        <description>Välkommen in Boden, Boden, Sverige</description>
        <styleUrl>#icon-22</styleUrl>
        <Point><coordinates>21.70597,65.818525,0</coordinates></Point>
      </Placemark>
      <Placemark>
        <name><![CDATA[Shell Boden]]></name>
        <description>Shell Boden, Boden, Sverige</description>
        <styleUrl>#icon-22</styleUrl>
        <Point><coordinates>21.70597,65.818525,0</coordinates></Point>
      </Placemark>
      <Placemark>
        <name><![CDATA[Shell Truck Diesel Gammelstad Luleå]]></name>
        <description>Shell Truck Diesel Gammelstad Luleå, Luleå, Sverige</description>
        <styleUrl>#icon-22</styleUrl>
        <Point><coordinates>22.044498,65.621199,0</coordinates></Point>
      </Placemark>
      <Placemark>
        <name><![CDATA[Shell Automat Banv Luleå]]></name>
        <description>Shell Automat Banv Luleå, Luleå, Sverige</description>
        <styleUrl>#icon-22</styleUrl>
        <Point><coordinates>22.13515,65.602758,0</coordinates></Point>
      </Placemark>
      <Placemark>
        <name><![CDATA[Välkommen in Luleå Hällbruksg]]></name>
        <description>Välkommen in Luleå Hällbruksg, Luleå, Sverige</description>
        <styleUrl>#icon-22</styleUrl>
        <Point><coordinates>22.207241,65.582773,0</coordinates></Point>
      </Placemark>
      <Placemark>
        <name><![CDATA[Shell Luleå Hällbruksg]]></name>
        <description>Shell Luleå Hällbruksg, Luleå, Sverige</description>
        <styleUrl>#icon-22</styleUrl>
        <Point><coordinates>22.207241,65.582773,0</coordinates></Point>
      </Placemark>
      <Placemark>
        <name><![CDATA[Shell Truck Diesel Överkalix]]></name>
        <description>Shell Truck Diesel Överkalix, Överkalix, Sverige</description>
        <styleUrl>#icon-22</styleUrl>
        <Point><coordinates>22.828913,66.340279,0</coordinates></Point>
      </Placemark>
      <Placemark>
        <name><![CDATA[Shell Truck Diesel Övertorneå]]></name>
        <description>Shell Truck Diesel Övertorneå, Övertorneå, Sverige</description>
        <styleUrl>#icon-22</styleUrl>
        <Point><coordinates>23.632112,66.393961,0</coordinates></Point>
      </Placemark>
      <Placemark>
        <name><![CDATA[Välkommen in Haparanda]]></name>
        <description>Välkommen in Haparanda, Haparanda, Sverige</description>
        <styleUrl>#icon-22</styleUrl>
        <Point><coordinates>24.136324,65.839907,0</coordinates></Point>
      </Placemark>
      <Placemark>
        <name><![CDATA[Shell Haparanda]]></name>
        <description>Shell Haparanda, Haparanda, Sverige</description>
        <styleUrl>#icon-22</styleUrl>
        <Point><coordinates>24.136324,65.839907,0</coordinates></Point>
      </Placemark>
    </Folder>
  </Document>
</kml>