<?xml version="1.0" encoding="UTF-8"?>
<kml xmlns="http://www.opengis.net/kml/2.2">
  <Document>
    <name>SIA Glass</name>
    <description/>
    <Style id="icon-22-normal">
      <IconStyle>
        <scale>1.1</scale>
        <Icon>
          <href>https://www.gstatic.com/mapspro/images/stock/22-blue-dot.png</href>
        </Icon>
        <hotSpot x="16" xunits="pixels" y="32" yunits="insetPixels"/>
      </IconStyle>
      <LabelStyle>
        <scale>0</scale>
      </LabelStyle>
    </Style>
    <Style id="icon-22-highlight">
      <IconStyle>
        <scale>1.1</scale>
        <Icon>
          <href>https://www.gstatic.com/mapspro/images/stock/22-blue-dot.png</href>
        </Icon>
        <hotSpot x="16" xunits="pixels" y="32" yunits="insetPixels"/>
      </IconStyle>
      <LabelStyle>
        <scale>1.1</scale>
      </LabelStyle>
    </Style>
    <StyleMap id="icon-22">
      <Pair>
        <key>normal</key>
        <styleUrl>#icon-22-normal</styleUrl>
      </Pair>
      <Pair>
        <key>highlight</key>
        <styleUrl>#icon-22-highlight</styleUrl>
      </Pair>
    </StyleMap>
    <Folder>
      <name>SIA Glass</name>
      <Placemark>
        <name>Bastes Kafe</name>
        <description>Bastes Kafe, Nord Kloster</description>
        <styleUrl>#icon-22</styleUrl>
        <Point>
          <coordinates>
            11.005582,58.898419,0
          </coordinates>
        </Point>
      </Placemark>
      <Placemark>
        <name>Sibirien Restaurang</name>
        <description>Sibirien Restaurang, Sydkoster/Strömstad</description>
        <styleUrl>#icon-22</styleUrl>
        <Point>
          <coordinates>
            11.007966,58.89143,0
          </coordinates>
        </Point>
      </Placemark>
      <Placemark>
        <name>Entré Saltö</name>
        <description>Entré Saltö, Strömstad</description>
        <styleUrl>#icon-22</styleUrl>
        <Point>
          <coordinates>
            11.135725,58.873869,0
          </coordinates>
        </Point>
      </Placemark>
      <Placemark>
        <name>Gött Mos I Strömstad</name>
        <description>Gött Mos I Strömstad, Strömstad</description>
        <styleUrl>#icon-22</styleUrl>
        <Point>
          <coordinates>
            11.170136,58.939759,0
          </coordinates>
        </Point>
      </Placemark>
      <Placemark>
        <name>Strandbaren I Strömstad</name>
        <description>Strandbaren I Strömstad, Strömstad</description>
        <styleUrl>#icon-22</styleUrl>
        <Point>
          <coordinates>
            11.170227,58.937989,0
          </coordinates>
        </Point>
      </Placemark>
      <Placemark>
        <name>Piren 1, Kungstrappan</name>
        <description>Piren 1, Kungstrappan, Strömstad</description>
        <styleUrl>#icon-22</styleUrl>
        <Point>
          <coordinates>
            11.170502,58.939373,0
          </coordinates>
        </Point>
      </Placemark>
      <Placemark>
        <name>Entré Rossö Hamncafé</name>
        <description>Entré Rossö Hamncafé, Rossö</description>
        <styleUrl>#icon-22</styleUrl>
        <Point>
          <coordinates>
            11.173133,58.855442,0
          </coordinates>
        </Point>
      </Placemark>
      <Placemark>
        <name>Sea Lodge Smögen</name>
        <description>Sea Lodge Smögen, Smögen</description>
        <styleUrl>#icon-22</styleUrl>
        <Point>
          <coordinates>
            11.230456,58.354789,0
          </coordinates>
        </Point>
      </Placemark>
      <Placemark>
        <name>Vallervikskiosken</name>
        <description>Vallervikskiosken, Smögen</description>
        <styleUrl>#icon-22</styleUrl>
        <Point>
          <coordinates>
            11.23194,58.36111,0
          </coordinates>
        </Point>
      </Placemark>
      <Placemark>
        <name>Buar Padel AB</name>
        <description>Buar Padel AB, Tanumshede</description>
        <styleUrl>#icon-22</styleUrl>
        <Point>
          <coordinates>
            11.238471,58.791687,0
          </coordinates>
        </Point>
      </Placemark>
      <Placemark>
        <name>Hamnbageriet</name>
        <description>Hamnbageriet, Kungshamn</description>
        <styleUrl>#icon-22</styleUrl>
        <Point>
          <coordinates>
            11.24928,58.361746,0
          </coordinates>
        </Point>
      </Placemark>
      <Placemark>
        <name>Hamngrillen</name>
        <description>Hamngrillen, Grebbestad</description>
        <styleUrl>#icon-22</styleUrl>
        <Point>
          <coordinates>
            11.25733,58.689132,0
          </coordinates>
        </Point>
      </Placemark>
      <Placemark>
        <name>La Boulangerie Bröd & Hav</name>
        <description>La Boulangerie Bröd & Hav, Grebbestad</description>
        <styleUrl>#icon-22</styleUrl>
        <Point>
          <coordinates>
            11.258478,58.684197,0
          </coordinates>
        </Point>
      </Placemark>
      <Placemark>
        <name>Tobaksvagnen</name>
        <description>Tobaksvagnen, Stömstad</description>
        <styleUrl>#icon-22</styleUrl>
        <Point>
          <coordinates>
            11.265903,59.089363,0
          </coordinates>
        </Point>
      </Placemark>
      <Placemark>
        <name>Lyckans Jordgubbscafé</name>
        <description>Lyckans Jordgubbscafé, Hunnebostrand</description>
        <styleUrl>#icon-22</styleUrl>
        <Point>
          <coordinates>
            11.38348,58.417973,0
          </coordinates>
        </Point>
      </Placemark>
      <Placemark>
        <name>Gullholmsbaden</name>
        <description>Gullholmsbaden, Gullholmen</description>
        <styleUrl>#icon-22</styleUrl>
        <Point>
          <coordinates>
            11.401645,58.175036,0
          </coordinates>
        </Point>
      </Placemark>
      <Placemark>
        <name>Stockens Camping</name>
        <description>Stockens Camping, Ellös</description>
        <styleUrl>#icon-22</styleUrl>
        <Point>
          <coordinates>
            11.421541,58.147438,0
          </coordinates>
        </Point>
      </Placemark>
      <Placemark>
        <name>Hamncafét Lysekil</name>
        <description>Hamncafét Lysekil, Lysekil</description>
        <styleUrl>#icon-22</styleUrl>
        <Point>
          <coordinates>
            11.425499,58.275984,0
          </coordinates>
        </Point>
      </Placemark>
      <Placemark>
        <name>Verandan Havets Hus</name>
        <description>Verandan Havets Hus, Lysekil</description>
        <styleUrl>#icon-22</styleUrl>
        <Point>
          <coordinates>
            11.431944,58.268978,0
          </coordinates>
        </Point>
      </Placemark>
      <Placemark>
        <name>Café Kungsgatan</name>
        <description>Café Kungsgatan, Lysekil</description>
        <styleUrl>#icon-22</styleUrl>
        <Point>
          <coordinates>
            11.433759,58.274447,0
          </coordinates>
        </Point>
      </Placemark>
      <Placemark>
        <name>Pizzeria Milano</name>
        <description>Pizzeria Milano, Lysekil</description>
        <styleUrl>#icon-22</styleUrl>
        <Point>
          <coordinates>
            11.433839,58.26925,0
          </coordinates>
        </Point>
      </Placemark>
      <Placemark>
        <name>Pizzeria Lysekil</name>
        <description>Pizzeria Lysekil, Lysekil</description>
        <styleUrl>#icon-22</styleUrl>
        <Point>
          <coordinates>
            11.435586,58.274236,0
          </coordinates>
        </Point>
      </Placemark>
      <Placemark>
        <name>Röe Gård</name>
        <description>Röe Gård, Brastad</description>
        <styleUrl>#icon-22</styleUrl>
        <Point>
          <coordinates>
            11.437477,58.41624,0
          </coordinates>
        </Point>
      </Placemark>
      <Placemark>
        <name>Artans Restaurang</name>
        <description>Artans Restaurang, Lysekil</description>
        <styleUrl>#icon-22</styleUrl>
        <Point>
          <coordinates>
            11.437823,58.273312,0
          </coordinates>
        </Point>
      </Placemark>
      <Placemark>
        <name>Gullmarsstrand Hotell & Konferens</name>
        <description>Gullmarsstrand Hotell & Konferens, Fiskebäckskil</description>
        <styleUrl>#icon-22</styleUrl>
        <Point>
          <coordinates>
            11.45722,58.248848,0
          </coordinates>
        </Point>
      </Placemark>
      <Placemark>
        <name>Glasscaféet I Mollösund</name>
        <description>Glasscaféet I Mollösund, Mollösund</description>
        <styleUrl>#icon-22</styleUrl>
        <Point>
          <coordinates>
            11.470632,58.072399,0
          </coordinates>
        </Point>
      </Placemark>
      <Placemark>
        <name>Orust Golfrestaurang</name>
        <description>Orust Golfrestaurang, Ellös</description>
        <styleUrl>#icon-22</styleUrl>
        <Point>
          <coordinates>
            11.503306,58.194958,0
          </coordinates>
        </Point>
      </Placemark>
      <Placemark>
        <name>Sommardröm</name>
        <description>Sommardröm, Skärhamn</description>
        <styleUrl>#icon-22</styleUrl>
        <Point>
          <coordinates>
            11.545376,57.987099,0
          </coordinates>
        </Point>
      </Placemark>
      <Placemark>
        <name>5 Knop</name>
        <description>5 Knop, Skärhamn</description>
        <styleUrl>#icon-22</styleUrl>
        <Point>
          <coordinates>
            11.546678,57.989807,0
          </coordinates>
        </Point>
      </Placemark>
      <Placemark>
        <name>Fossen Camping</name>
        <description>Fossen Camping, Uddevalla</description>
        <styleUrl>#icon-22</styleUrl>
        <Point>
          <coordinates>
            11.565039,58.317325,0
          </coordinates>
        </Point>
      </Placemark>
      <Placemark>
        <name>Bokenäset Hotell & Konferens</name>
        <description>Bokenäset Hotell & Konferens, Uddevalla</description>
        <styleUrl>#icon-22</styleUrl>
        <Point>
          <coordinates>
            11.598042,58.261263,0
          </coordinates>
        </Point>
      </Placemark>
      <Placemark>
        <name>Marstrand Familjecamping</name>
        <description>Marstrand Familjecamping, Långedalsvägen 16</description>
        <styleUrl>#icon-22</styleUrl>
        <Point>
          <coordinates>
            11.604811,57.893835,0
          </coordinates>
        </Point>
      </Placemark>
      <Placemark>
        <name>Linas Brygga</name>
        <description>Linas Brygga, Dyrön</description>
        <styleUrl>#icon-22</styleUrl>
        <Point>
          <coordinates>
            11.608883,57.926397,0
          </coordinates>
        </Point>
      </Placemark>
      <Placemark>
        <name>Strandverket Café & Butik</name>
        <description>Strandverket Café & Butik, Marstrand</description>
        <styleUrl>#icon-22</styleUrl>
        <Point>
          <coordinates>
            11.612963,57.926719,0
          </coordinates>
        </Point>
      </Placemark>
      <Placemark>
        <name>Aleks Bageri</name>
        <description>Aleks Bageri, Hönö</description>
        <styleUrl>#icon-22</styleUrl>
        <Point>
          <coordinates>
            11.644557,57.680666,0
          </coordinates>
        </Point>
      </Placemark>
      <Placemark>
        <name>Hotell Trubaduren Hönö</name>
        <description>Hotell Trubaduren Hönö, Hönö</description>
        <styleUrl>#icon-22</styleUrl>
        <Point>
          <coordinates>
            11.644756,57.680459,0
          </coordinates>
        </Point>
      </Placemark>
      <Placemark>
        <name>Den Glade Knoden</name>
        <description>Den Glade Knoden, Källö-Knippla</description>
        <styleUrl>#icon-22</styleUrl>
        <Point>
          <coordinates>
            11.651572,57.749594,0
          </coordinates>
        </Point>
      </Placemark>
      <Placemark>
        <name>Nimbusgården</name>
        <description>Nimbusgården, Öckerö</description>
        <styleUrl>#icon-22</styleUrl>
        <Point>
          <coordinates>
            11.660761,57.709807,0
          </coordinates>
        </Point>
      </Placemark>
      <Placemark>
        <name>Sundsby Gårdscafé Restaurang & Butik</name>
        <description>Sundsby Gårdscafé Restaurang & Butik, Hjälteby</description>
        <styleUrl>#icon-22</styleUrl>
        <Point>
          <coordinates>
            11.689113,58.07045,0
          </coordinates>
        </Point>
      </Placemark>
      <Placemark>
        <name>Stallgården Krog & Kafé</name>
        <description>Stallgården Krog & Kafé, Uddevalla</description>
        <styleUrl>#icon-22</styleUrl>
        <Point>
          <coordinates>
            11.70188,58.343857,0
          </coordinates>
        </Point>
      </Placemark>
      <Placemark>
        <name>Saltkällans Badkiosk</name>
        <description>Saltkällans Badkiosk, Munkedal</description>
        <styleUrl>#icon-22</styleUrl>
        <Point>
          <coordinates>
            11.703668,58.431197,0
          </coordinates>
        </Point>
      </Placemark>
      <Placemark>
        <name>Bergholtz Trädgård & Hantverk</name>
        <description>Bergholtz Trädgård & Hantverk, Henån</description>
        <styleUrl>#icon-22</styleUrl>
        <Point>
          <coordinates>
            11.720725,58.248064,0
          </coordinates>
        </Point>
      </Placemark>
      <Placemark>
        <name>Bistro Go Mat</name>
        <description>Bistro Go Mat, Uddevalla</description>
        <styleUrl>#icon-22</styleUrl>
        <Point>
          <coordinates>
            11.769498,58.368225,0
          </coordinates>
        </Point>
      </Placemark>
      <Placemark>
        <name>Uddevalla GK</name>
        <description>Uddevalla GK, Uddevalla</description>
        <styleUrl>#icon-22</styleUrl>
        <Point>
          <coordinates>
            11.769498,58.368225,0
          </coordinates>
        </Point>
      </Placemark>
      <Placemark>
        <name>Södra Skärgårdens Café Göteborg</name>
        <description>Södra Skärgårdens Café Göteborg, Vrångö</description>
        <styleUrl>#icon-22</styleUrl>
        <Point>
          <coordinates>
            11.790562,57.568663,0
          </coordinates>
        </Point>
      </Placemark>
      <Placemark>
        <name>Gotteposten Kärna</name>
        <description>Gotteposten Kärna, Kärna</description>
        <styleUrl>#icon-22</styleUrl>
        <Point>
          <coordinates>
            11.791342,57.844802,0
          </coordinates>
        </Point>
      </Placemark>
      <Placemark>
        <name>Grandmas House</name>
        <description>Grandmas House, Torslanda</description>
        <styleUrl>#icon-22</styleUrl>
        <Point>
          <coordinates>
            11.794202,57.730606,0
          </coordinates>
        </Point>
      </Placemark>
      <Placemark>
        <name>Affären På Asperö</name>
        <description>Affären På Asperö, Asperö</description>
        <styleUrl>#icon-22</styleUrl>
        <Point>
          <coordinates>
            11.795141,57.649107,0
          </coordinates>
        </Point>
      </Placemark>
      <Placemark>
        <name>Stenungsöns Kök & Bar</name>
        <description>Stenungsöns Kök & Bar, Stenungsund</description>
        <styleUrl>#icon-22</styleUrl>
        <Point>
          <coordinates>
            11.802322,58.072481,0
          </coordinates>
        </Point>
      </Placemark>
      <Placemark>
        <name>Waynes Coffee Torp Köpcentrum</name>
        <description>Waynes Coffee Torp Köpcentrum, Uddevalla</description>
        <styleUrl>#icon-22</styleUrl>
        <Point>
          <coordinates>
            11.809136,58.352344,0
          </coordinates>
        </Point>
      </Placemark>
      <Placemark>
        <name>Volvomuseet</name>
        <description>Volvomuseet, Göteborg</description>
        <styleUrl>#icon-22</styleUrl>
        <Point>
          <coordinates>
            11.816139,57.694607,0
          </coordinates>
        </Point>
      </Placemark>
      <Placemark>
        <name>Bröbacken Café</name>
        <description>Bröbacken Café, Svanesund</description>
        <styleUrl>#icon-22</styleUrl>
        <Point>
          <coordinates>
            11.820203,58.142591,0
          </coordinates>
        </Point>
      </Placemark>
      <Placemark>
        <name>Unda Livs</name>
        <description>Unda Livs, Uddevalla</description>
        <styleUrl>#icon-22</styleUrl>
        <Point>
          <coordinates>
            11.82421,58.330176,0
          </coordinates>
        </Point>
      </Placemark>
      <Placemark>
        <name>Ulkeröds Gård</name>
        <description>Ulkeröds Gård, Hedekas</description>
        <styleUrl>#icon-22</styleUrl>
        <Point>
          <coordinates>
            11.849094,58.661982,0
          </coordinates>
        </Point>
      </Placemark>
      <Placemark>
        <name>Cafe Utsikten Ödsmålsbron</name>
        <description>Cafe Utsikten Ödsmålsbron, Ödsmål</description>
        <styleUrl>#icon-22</styleUrl>
        <Point>
          <coordinates>
            11.880425,58.113048,0
          </coordinates>
        </Point>
      </Placemark>
      <Placemark>
        <name>Restaurang Reveljen</name>
        <description>Restaurang Reveljen, Västra Frölunda</description>
        <styleUrl>#icon-22</styleUrl>
        <Point>
          <coordinates>
            11.891972,57.68518,0
          </coordinates>
        </Point>
      </Placemark>
      <Placemark>
        <name>Dockyard Hotel</name>
        <description>Dockyard Hotel, Västra Frölunda</description>
        <styleUrl>#icon-22</styleUrl>
        <Point>
          <coordinates>
            11.89368,57.685822,0
          </coordinates>
        </Point>
      </Placemark>
      <Placemark>
        <name>Viking Yachting</name>
        <description>Viking Yachting, Västra Frölunda</description>
        <styleUrl>#icon-22</styleUrl>
        <Point>
          <coordinates>
            11.895615,57.662111,0
          </coordinates>
        </Point>
      </Placemark>
      <Placemark>
        <name>Solsidan Åkered</name>
        <description>Solsidan Åkered, Västra Frölunda</description>
        <styleUrl>#icon-22</styleUrl>
        <Point>
          <coordinates>
            11.896272,57.635296,0
          </coordinates>
        </Point>
      </Placemark>
      <Placemark>
        <name>Stora Holms Säteri Butik</name>
        <description>Stora Holms Säteri Butik, Göteborg</description>
        <styleUrl>#icon-22</styleUrl>
        <Point>
          <coordinates>
            11.90685,57.772948,0
          </coordinates>
        </Point>
      </Placemark>
      <Placemark>
        <name>Frölunda Kulturhus</name>
        <description>Frölunda Kulturhus, Västra Frölunda</description>
        <styleUrl>#icon-22</styleUrl>
        <Point>
          <coordinates>
            11.909528,57.653891,0
          </coordinates>
        </Point>
      </Placemark>
      <Placemark>
        <name>Allt I Godis Eriksberg</name>
        <description>Allt I Godis Eriksberg, Göteborg</description>
        <styleUrl>#icon-22</styleUrl>
        <Point>
          <coordinates>
            11.913565,57.700248,0
          </coordinates>
        </Point>
      </Placemark>
      <Placemark>
        <name>Eriksbergs Gastronomia</name>
        <description>Eriksbergs Gastronomia, Göteborg</description>
        <styleUrl>#icon-22</styleUrl>
        <Point>
          <coordinates>
            11.913676,57.701632,0
          </coordinates>
        </Point>
      </Placemark>
      <Placemark>
        <name>Majornas Sweets</name>
        <description>Majornas Sweets, Göteborg</description>
        <styleUrl>#icon-22</styleUrl>
        <Point>
          <coordinates>
            11.915235,57.68805,0
          </coordinates>
        </Point>
      </Placemark>
      <Placemark>
        <name>Fiskhuset Svana</name>
        <description>Fiskhuset Svana, Göteborg</description>
        <styleUrl>#icon-22</styleUrl>
        <Point>
          <coordinates>
            11.91653,57.701243,0
          </coordinates>
        </Point>
      </Placemark>
      <Placemark>
        <name>Laxbutiken Ljungskile</name>
        <description>Laxbutiken Ljungskile, Ljungskile</description>
        <styleUrl>#icon-22</styleUrl>
        <Point>
          <coordinates>
            11.916634,58.222485,0
          </coordinates>
        </Point>
      </Placemark>
      <Placemark>
        <name>Lerkilsbaren</name>
        <description>Lerkilsbaren, Vallda</description>
        <styleUrl>#icon-22</styleUrl>
        <Point>
          <coordinates>
            11.916856,57.455573,0
          </coordinates>
        </Point>
      </Placemark>
      <Placemark>
        <name>Askimbadet Glasscafe O Bangolf</name>
        <description>Askimbadet Glasscafe O Bangolf, Askim</description>
        <styleUrl>#icon-22</styleUrl>
        <Point>
          <coordinates>
            11.929336,57.625294,0
          </coordinates>
        </Point>
      </Placemark>
      <Placemark>
        <name>Wards Konditori</name>
        <description>Wards Konditori, Uddevalla</description>
        <styleUrl>#icon-22</styleUrl>
        <Point>
          <coordinates>
            11.93472,58.350099,0
          </coordinates>
        </Point>
      </Placemark>
      <Placemark>
        <name>Hisingen Sweet House</name>
        <description>Hisingen Sweet House, Göteborg</description>
        <styleUrl>#icon-22</styleUrl>
        <Point>
          <coordinates>
            11.93506,57.727252,0
          </coordinates>
        </Point>
      </Placemark>
      <Placemark>
        <name>Fit Food Fun</name>
        <description>Fit Food Fun, Särö</description>
        <styleUrl>#icon-22</styleUrl>
        <Point>
          <coordinates>
            11.940231,57.505499,0
          </coordinates>
        </Point>
      </Placemark>
      <Placemark>
        <name>Paradise Corner</name>
        <description>Paradise Corner, Göteborg</description>
        <styleUrl>#icon-22</styleUrl>
        <Point>
          <coordinates>
            11.941592,57.695599,0
          </coordinates>
        </Point>
      </Placemark>
      <Placemark>
        <name>Café Kullafik</name>
        <description>Café Kullafik, Kullavik</description>
        <styleUrl>#icon-22</styleUrl>
        <Point>
          <coordinates>
            11.946671,57.546431,0
          </coordinates>
        </Point>
      </Placemark>
      <Placemark>
        <name>Aloha Poke</name>
        <description>Aloha Poke, Kullavik</description>
        <styleUrl>#icon-22</styleUrl>
        <Point>
          <coordinates>
            11.946671,57.546431,0
          </coordinates>
        </Point>
      </Placemark>
      <Placemark>
        <name>Göteborgs Naturhistoriska Museum</name>
        <description>Göteborgs Naturhistoriska Museum, Göteborg</description>
        <styleUrl>#icon-22</styleUrl>
        <Point>
          <coordinates>
            11.949011,57.689177,0
          </coordinates>
        </Point>
      </Placemark>
      <Placemark>
        <name>Gött & Borg</name>
        <description>Gött & Borg, Göteborg</description>
        <styleUrl>#icon-22</styleUrl>
        <Point>
          <coordinates>
            11.952092,57.693627,0
          </coordinates>
        </Point>
      </Placemark>
      <Placemark>
        <name>7 O Clock</name>
        <description>7 O Clock, Göteborg</description>
        <styleUrl>#icon-22</styleUrl>
        <Point>
          <coordinates>
            11.952445,57.690202,0
          </coordinates>
        </Point>
      </Placemark>
      <Placemark>
        <name>Cafe Lille Prinsen</name>
        <description>Cafe Lille Prinsen, Göteborg</description>
        <styleUrl>#icon-22</styleUrl>
        <Point>
          <coordinates>
            11.95297,57.693055,0
          </coordinates>
        </Point>
      </Placemark>
      <Placemark>
        <name>Creperie & Logi Göteborg</name>
        <description>Creperie & Logi Göteborg, Göteborg</description>
        <styleUrl>#icon-22</styleUrl>
        <Point>
          <coordinates>
            11.957457,57.694596,0
          </coordinates>
        </Point>
      </Placemark>
      <Placemark>
        <name>Maritiman</name>
        <description>Maritiman, Göteborg</description>
        <styleUrl>#icon-22</styleUrl>
        <Point>
          <coordinates>
            11.960662,57.708714,0
          </coordinates>
        </Point>
      </Placemark>
      <Placemark>
        <name>Tanjas Food And Talk</name>
        <description>Tanjas Food And Talk, Uddevalla</description>
        <styleUrl>#icon-22</styleUrl>
        <Point>
          <coordinates>
            11.962952,58.355434,0
          </coordinates>
        </Point>
      </Placemark>
      <Placemark>
        <name>Göteborgs Choklad & Karamellfabrik</name>
        <description>Göteborgs Choklad & Karamellfabrik, Göteborg</description>
        <styleUrl>#icon-22</styleUrl>
        <Point>
          <coordinates>
            11.963275,57.707598,0
          </coordinates>
        </Point>
      </Placemark>
      <Placemark>
        <name>Glassbåten MS Eire</name>
        <description>Glassbåten MS Eire, Göteborg</description>
        <styleUrl>#icon-22</styleUrl>
        <Point>
          <coordinates>
            11.96667,57.70694,0
          </coordinates>
        </Point>
      </Placemark>
      <Placemark>
        <name>Cafe Estelle</name>
        <description>Cafe Estelle, Göteborg</description>
        <styleUrl>#icon-22</styleUrl>
        <Point>
          <coordinates>
            11.972405,57.68403,0
          </coordinates>
        </Point>
      </Placemark>
      <Placemark>
        <name>Skrotfrag</name>
        <description>Skrotfrag, Uddevalla</description>
        <styleUrl>#icon-22</styleUrl>
        <Point>
          <coordinates>
            11.977062,58.366749,0
          </coordinates>
        </Point>
      </Placemark>
      <Placemark>
        <name>Gaffelkonst Restaurang</name>
        <description>Gaffelkonst Restaurang, Göteborg</description>
        <styleUrl>#icon-22</styleUrl>
        <Point>
          <coordinates>
            11.978933,57.705049,0
          </coordinates>
        </Point>
      </Placemark>
      <Placemark>
        <name>Johannebergs Matbutik</name>
        <description>Johannebergs Matbutik, Göteborg</description>
        <styleUrl>#icon-22</styleUrl>
        <Point>
          <coordinates>
            11.980112,57.692576,0
          </coordinates>
        </Point>
      </Placemark>
      <Placemark>
        <name>Mona Livs</name>
        <description>Mona Livs, Göteborg</description>
        <styleUrl>#icon-22</styleUrl>
        <Point>
          <coordinates>
            11.982513,57.686795,0
          </coordinates>
        </Point>
      </Placemark>
      <Placemark>
        <name>Berzelii Café</name>
        <description>Berzelii Café, Göteborg</description>
        <styleUrl>#icon-22</styleUrl>
        <Point>
          <coordinates>
            11.982748,57.699187,0
          </coordinates>
        </Point>
      </Placemark>
      <Placemark>
        <name>Bubbles & Fries</name>
        <description>Bubbles & Fries, Göteborg</description>
        <styleUrl>#icon-22</styleUrl>
        <Point>
          <coordinates>
            11.983894,57.701842,0
          </coordinates>
        </Point>
      </Placemark>
      <Placemark>
        <name>Cozy Café</name>
        <description>Cozy Café, Kungälv</description>
        <styleUrl>#icon-22</styleUrl>
        <Point>
          <coordinates>
            11.984114,57.869351,0
          </coordinates>
        </Point>
      </Placemark>
      <Placemark>
        <name>Domi Cafe</name>
        <description>Domi Cafe, Göteborg</description>
        <styleUrl>#icon-22</styleUrl>
        <Point>
          <coordinates>
            11.987117,57.694064,0
          </coordinates>
        </Point>
      </Placemark>
      <Placemark>
        <name>Universeum</name>
        <description>Universeum, Göteborg</description>
        <styleUrl>#icon-22</styleUrl>
        <Point>
          <coordinates>
            11.988343,57.69585,0
          </coordinates>
        </Point>
      </Placemark>
      <Placemark>
        <name>Heta Bönan Café</name>
        <description>Heta Bönan Café, Färgelanda</description>
        <styleUrl>#icon-22</styleUrl>
        <Point>
          <coordinates>
            11.995925,58.568292,0
          </coordinates>
        </Point>
      </Placemark>
      <Placemark>
        <name>Limon Café</name>
        <description>Limon Café, Göteborg</description>
        <styleUrl>#icon-22</styleUrl>
        <Point>
          <coordinates>
            12.002036,57.678087,0
          </coordinates>
        </Point>
      </Placemark>
      <Placemark>
        <name>Salladshörnan</name>
        <description>Salladshörnan, Göteborg</description>
        <styleUrl>#icon-22</styleUrl>
        <Point>
          <coordinates>
            12.002321,57.680186,0
          </coordinates>
        </Point>
      </Placemark>
      <Placemark>
        <name>Åby Hotel</name>
        <description>Åby Hotel, Mölndal</description>
        <styleUrl>#icon-22</styleUrl>
        <Point>
          <coordinates>
            12.003241,57.649148,0
          </coordinates>
        </Point>
      </Placemark>
      <Placemark>
        <name>Åbytravet</name>
        <description>Åbytravet, Mölndal</description>
        <styleUrl>#icon-22</styleUrl>
        <Point>
          <coordinates>
            12.004757,57.650874,0
          </coordinates>
        </Point>
      </Placemark>
      <Placemark>
        <name>Göteborgs Pepparkaksbageri</name>
        <description>Göteborgs Pepparkaksbageri, Göteborg</description>
        <styleUrl>#icon-22</styleUrl>
        <Point>
          <coordinates>
            12.005471,57.690537,0
          </coordinates>
        </Point>
      </Placemark>
      <Placemark>
        <name>Al Basha Gbg</name>
        <description>Al Basha Gbg, Göteborg</description>
        <styleUrl>#icon-22</styleUrl>
        <Point>
          <coordinates>
            12.00834,57.742643,0
          </coordinates>
        </Point>
      </Placemark>
      <Placemark>
        <name>Träffpunktens Sommarcafé</name>
        <description>Träffpunktens Sommarcafé, Mölndal</description>
        <styleUrl>#icon-22</styleUrl>
        <Point>
          <coordinates>
            12.012571,57.657222,0
          </coordinates>
        </Point>
      </Placemark>
      <Placemark>
        <name>Hanis Café & Konditori</name>
        <description>Hanis Café & Konditori, Mölndal</description>
        <styleUrl>#icon-22</styleUrl>
        <Point>
          <coordinates>
            12.014795,57.655721,0
          </coordinates>
        </Point>
      </Placemark>
      <Placemark>
        <name>Chokoglad Bellevue</name>
        <description>Chokoglad Bellevue, Göteborg</description>
        <styleUrl>#icon-22</styleUrl>
        <Point>
          <coordinates>
            12.024176,57.731958,0
          </coordinates>
        </Point>
      </Placemark>
      <Placemark>
        <name>Noas Ark Onsala</name>
        <description>Noas Ark Onsala, Onsala</description>
        <styleUrl>#icon-22</styleUrl>
        <Point>
          <coordinates>
            12.028231,57.414881,0
          </coordinates>
        </Point>
      </Placemark>
      <Placemark>
        <name>Forscaféet</name>
        <description>Forscaféet, Mölndal</description>
        <styleUrl>#icon-22</styleUrl>
        <Point>
          <coordinates>
            12.032086,57.657719,0
          </coordinates>
        </Point>
      </Placemark>
      <Placemark>
        <name>Barista Café</name>
        <description>Barista Café, Göteborg</description>
        <styleUrl>#icon-22</styleUrl>
        <Point>
          <coordinates>
            12.032174,57.751536,0
          </coordinates>
        </Point>
      </Placemark>
      <Placemark>
        <name>Erikshjälpen</name>
        <description>Erikshjälpen, Göteborg</description>
        <styleUrl>#icon-22</styleUrl>
        <Point>
          <coordinates>
            12.033386,57.753569,0
          </coordinates>
        </Point>
      </Placemark>
      <Placemark>
        <name>Björkekärrshus Äldreboende</name>
        <description>Björkekärrshus Äldreboende, Göteborg</description>
        <styleUrl>#icon-22</styleUrl>
        <Point>
          <coordinates>
            12.044746,57.713922,0
          </coordinates>
        </Point>
      </Placemark>
      <Placemark>
        <name>Kandy Z Kållered</name>
        <description>Kandy Z Kållered, Kållered</description>
        <styleUrl>#icon-22</styleUrl>
        <Point>
          <coordinates>
            12.046652,57.610767,0
          </coordinates>
        </Point>
      </Placemark>
      <Placemark>
        <name>Utbynäs SK</name>
        <description>Utbynäs SK, Göteborg</description>
        <styleUrl>#icon-22</styleUrl>
        <Point>
          <coordinates>
            12.053618,57.734991,0
          </coordinates>
        </Point>
      </Placemark>
      <Placemark>
        <name>Lilla Laxen Drive In & Restaurang</name>
        <description>Lilla Laxen Drive In & Restaurang, Kungsbacka</description>
        <styleUrl>#icon-22</styleUrl>
        <Point>
          <coordinates>
            12.059253,57.474318,0
          </coordinates>
        </Point>
      </Placemark>
      <Placemark>
        <name>Örtgården</name>
        <description>Örtgården, Uddevalla</description>
        <styleUrl>#icon-22</styleUrl>
        <Point>
          <coordinates>
            12.059422,58.394551,0
          </coordinates>
        </Point>
      </Placemark>
      <Placemark>
        <name>Total Harmoni</name>
        <description>Total Harmoni, Kållered</description>
        <styleUrl>#icon-22</styleUrl>
        <Point>
          <coordinates>
            12.063293,57.610409,0
          </coordinates>
        </Point>
      </Placemark>
      <Placemark>
        <name>Landet Ingenstans</name>
        <description>Landet Ingenstans, Kungsbacka</description>
        <styleUrl>#icon-22</styleUrl>
        <Point>
          <coordinates>
            12.073957,57.486626,0
          </coordinates>
        </Point>
      </Placemark>
      <Placemark>
        <name>Lindas Tips & Trav</name>
        <description>Lindas Tips & Trav, Kungsbacka</description>
        <styleUrl>#icon-22</styleUrl>
        <Point>
          <coordinates>
            12.075988,57.487269,0
          </coordinates>
        </Point>
      </Placemark>
      <Placemark>
        <name>Erikshjälpen Second Hand Kungsbacka</name>
        <description>Erikshjälpen Second Hand Kungsbacka, Kungsbacka</description>
        <styleUrl>#icon-22</styleUrl>
        <Point>
          <coordinates>
            12.077257,57.503128,0
          </coordinates>
        </Point>
      </Placemark>
      <Placemark>
        <name>Glassboden I Parken</name>
        <description>Glassboden I Parken, Kungsbacka</description>
        <styleUrl>#icon-22</styleUrl>
        <Point>
          <coordinates>
            12.077763,57.489129,0
          </coordinates>
        </Point>
      </Placemark>
      <Placemark>
        <name>Signehus ÄBO</name>
        <description>Signehus ÄBO, Kungsbacka</description>
        <styleUrl>#icon-22</styleUrl>
        <Point>
          <coordinates>
            12.077927,57.497775,0
          </coordinates>
        </Point>
      </Placemark>
      <Placemark>
        <name>Café Röda Stugan</name>
        <description>Café Röda Stugan, Kungsbacka</description>
        <styleUrl>#icon-22</styleUrl>
        <Point>
          <coordinates>
            12.077959,57.487427,0
          </coordinates>
        </Point>
      </Placemark>
      <Placemark>
        <name>Lindome Järn Bygg Foder</name>
        <description>Lindome Järn Bygg Foder, Lindome</description>
        <styleUrl>#icon-22</styleUrl>
        <Point>
          <coordinates>
            12.081135,57.574605,0
          </coordinates>
        </Point>
      </Placemark>
      <Placemark>
        <name>Lasses Glassvagn</name>
        <description>Lasses Glassvagn, Åsa</description>
        <styleUrl>#icon-22</styleUrl>
        <Point>
          <coordinates>
            12.083541,57.342933,0
          </coordinates>
        </Point>
      </Placemark>
      <Placemark>
        <name>Tjolöholms Slott</name>
        <description>Tjolöholms Slott, Fjärås</description>
        <styleUrl>#icon-22</styleUrl>
        <Point>
          <coordinates>
            12.102977,57.398633,0
          </coordinates>
        </Point>
      </Placemark>
      <Placemark>
        <name>Lerbergs Lunch & Gårdscafe</name>
        <description>Lerbergs Lunch & Gårdscafe, Kungsbacka</description>
        <styleUrl>#icon-22</styleUrl>
        <Point>
          <coordinates>
            12.109131,57.533778,0
          </coordinates>
        </Point>
      </Placemark>
      <Placemark>
        <name>Rodins Bistro</name>
        <description>Rodins Bistro, Storlien</description>
        <styleUrl>#icon-22</styleUrl>
        <Point>
          <coordinates>
            12.110102,63.309409,0
          </coordinates>
        </Point>
      </Placemark>
      <Placemark>
        <name>Kock Malin</name>
        <description>Kock Malin, Älvängen</description>
        <styleUrl>#icon-22</styleUrl>
        <Point>
          <coordinates>
            12.120868,57.958112,0
          </coordinates>
        </Point>
      </Placemark>
      <Placemark>
        <name>Åsa Glasscafé</name>
        <description>Åsa Glasscafé, Åsa</description>
        <styleUrl>#icon-22</styleUrl>
        <Point>
          <coordinates>
            12.123006,57.349309,0
          </coordinates>
        </Point>
      </Placemark>
      <Placemark>
        <name>Löftadelens Folkehögskola</name>
        <description>Löftadelens Folkehögskola, Åsa</description>
        <styleUrl>#icon-22</styleUrl>
        <Point>
          <coordinates>
            12.125083,57.344012,0
          </coordinates>
        </Point>
      </Placemark>
      <Placemark>
        <name>Elviras Glass</name>
        <description>Elviras Glass, Gustavsfors</description>
        <styleUrl>#icon-22</styleUrl>
        <Point>
          <coordinates>
            12.126131,59.204737,0
          </coordinates>
        </Point>
      </Placemark>
      <Placemark>
        <name>Broms Café</name>
        <description>Broms Café, Årjäng</description>
        <styleUrl>#icon-22</styleUrl>
        <Point>
          <coordinates>
            12.132649,59.392108,0
          </coordinates>
        </Point>
      </Placemark>
      <Placemark>
        <name>Moa's Garden</name>
        <description>Moa's Garden, Årjäng</description>
        <styleUrl>#icon-22</styleUrl>
        <Point>
          <coordinates>
            12.138978,59.395314,0
          </coordinates>
        </Point>
      </Placemark>
      <Placemark>
        <name>Jammy Restaurang</name>
        <description>Jammy Restaurang, Fjärås</description>
        <styleUrl>#icon-22</styleUrl>
        <Point>
          <coordinates>
            12.15542,57.433346,0
          </coordinates>
        </Point>
      </Placemark>
      <Placemark>
        <name>Kitekalle Göteborg</name>
        <description>Kitekalle Göteborg, Frillesås</description>
        <styleUrl>#icon-22</styleUrl>
        <Point>
          <coordinates>
            12.158166,57.331022,0
          </coordinates>
        </Point>
      </Placemark>
      <Placemark>
        <name>Vallersviks Camping</name>
        <description>Vallersviks Camping, Frillesås</description>
        <styleUrl>#icon-22</styleUrl>
        <Point>
          <coordinates>
            12.15896,57.320706,0
          </coordinates>
        </Point>
      </Placemark>
      <Placemark>
        <name>Café Maneten</name>
        <description>Café Maneten, Frillesås</description>
        <styleUrl>#icon-22</styleUrl>
        <Point>
          <coordinates>
            12.15896,57.320706,0
          </coordinates>
        </Point>
      </Placemark>
      <Placemark>
        <name>Bergums Skola Göteborg</name>
        <description>Bergums Skola Göteborg, Olofstorp</description>
        <styleUrl>#icon-22</styleUrl>
        <Point>
          <coordinates>
            12.169332,57.805055,0
          </coordinates>
        </Point>
      </Placemark>
      <Placemark>
        <name>Gött Häng</name>
        <description>Gött Häng, Frillesås</description>
        <styleUrl>#icon-22</styleUrl>
        <Point>
          <coordinates>
            12.175288,57.318541,0
          </coordinates>
        </Point>
      </Placemark>
      <Placemark>
        <name>Fridas Restaurang</name>
        <description>Fridas Restaurang, Varberg</description>
        <styleUrl>#icon-22</styleUrl>
        <Point>
          <coordinates>
            12.214231,57.185141,0
          </coordinates>
        </Point>
      </Placemark>
      <Placemark>
        <name>Varbergs Flygcafé</name>
        <description>Varbergs Flygcafé, Varberg</description>
        <styleUrl>#icon-22</styleUrl>
        <Point>
          <coordinates>
            12.214416,57.115105,0
          </coordinates>
        </Point>
      </Placemark>
      <Placemark>
        <name>Jippies Veranda</name>
        <description>Jippies Veranda, Varberg</description>
        <styleUrl>#icon-22</styleUrl>
        <Point>
          <coordinates>
            12.216528,57.185164,0
          </coordinates>
        </Point>
      </Placemark>
      <Placemark>
        <name>Köpenhamnsgården</name>
        <description>Köpenhamnsgården, Varberg</description>
        <styleUrl>#icon-22</styleUrl>
        <Point>
          <coordinates>
            12.220618,57.191318,0
          </coordinates>
        </Point>
      </Placemark>
      <Placemark>
        <name>Din X</name>
        <description>Din X, Bengtsfors</description>
        <styleUrl>#icon-22</styleUrl>
        <Point>
          <coordinates>
            12.221312,59.031867,0
          </coordinates>
        </Point>
      </Placemark>
      <Placemark>
        <name>Lilla Damaskus</name>
        <description>Lilla Damaskus, Bengtsfors</description>
        <styleUrl>#icon-22</styleUrl>
        <Point>
          <coordinates>
            12.224199,59.02972,0
          </coordinates>
        </Point>
      </Placemark>
      <Placemark>
        <name>Bengtsforsgrillen</name>
        <description>Bengtsforsgrillen, Bengtsfors</description>
        <styleUrl>#icon-22</styleUrl>
        <Point>
          <coordinates>
            12.227146,59.029042,0
          </coordinates>
        </Point>
      </Placemark>
      <Placemark>
        <name>Kafé Längan</name>
        <description>Kafé Längan, Varberg</description>
        <styleUrl>#icon-22</styleUrl>
        <Point>
          <coordinates>
            12.239679,57.105273,0
          </coordinates>
        </Point>
      </Placemark>
      <Placemark>
        <name>Rolands Café</name>
        <description>Rolands Café, Varberg</description>
        <styleUrl>#icon-22</styleUrl>
        <Point>
          <coordinates>
            12.24434,57.102236,0
          </coordinates>
        </Point>
      </Placemark>
      <Placemark>
        <name>Glasskärran</name>
        <description>Glasskärran, Varberg</description>
        <styleUrl>#icon-22</styleUrl>
        <Point>
          <coordinates>
            12.252528,57.1044,0
          </coordinates>
        </Point>
      </Placemark>
      <Placemark>
        <name>Bryggan 30</name>
        <description>Bryggan 30, Varberg</description>
        <styleUrl>#icon-22</styleUrl>
        <Point>
          <coordinates>
            12.253101,57.106613,0
          </coordinates>
        </Point>
      </Placemark>
      <Placemark>
        <name>Godis & Snuspalatset</name>
        <description>Godis & Snuspalatset, Varberg</description>
        <styleUrl>#icon-22</styleUrl>
        <Point>
          <coordinates>
            12.253612,57.105483,0
          </coordinates>
        </Point>
      </Placemark>
      <Placemark>
        <name>Båbergs Nöje</name>
        <description>Båbergs Nöje, Trollhättan</description>
        <styleUrl>#icon-22</styleUrl>
        <Point>
          <coordinates>
            12.265887,58.330267,0
          </coordinates>
        </Point>
      </Placemark>
      <Placemark>
        <name>Slusscaféet Skoftebyns If</name>
        <description>Slusscaféet Skoftebyns If, Trollhättan</description>
        <styleUrl>#icon-22</styleUrl>
        <Point>
          <coordinates>
            12.268166,58.263685,0
          </coordinates>
        </Point>
      </Placemark>
      <Placemark>
        <name>Peder Skrivares Skola</name>
        <description>Peder Skrivares Skola, Varberg</description>
        <styleUrl>#icon-22</styleUrl>
        <Point>
          <coordinates>
            12.271019,57.105101,0
          </coordinates>
        </Point>
      </Placemark>
      <Placemark>
        <name>Tre Toppar Glasscafé</name>
        <description>Tre Toppar Glasscafé, Träslövsläge</description>
        <styleUrl>#icon-22</styleUrl>
        <Point>
          <coordinates>
            12.273238,57.057893,0
          </coordinates>
        </Point>
      </Placemark>
      <Placemark>
        <name>Societetsparkens Minigolf</name>
        <description>Societetsparkens Minigolf, Varberg</description>
        <styleUrl>#icon-22</styleUrl>
        <Point>
          <coordinates>
            12.274538,57.103173,0
          </coordinates>
        </Point>
      </Placemark>
      <Placemark>
        <name>Warbergs Tomat</name>
        <description>Warbergs Tomat, Varberg</description>
        <styleUrl>#icon-22</styleUrl>
        <Point>
          <coordinates>
            12.276986,57.169638,0
          </coordinates>
        </Point>
      </Placemark>
      <Placemark>
        <name>E75 Tobak O Snuslagret</name>
        <description>E75 Tobak O Snuslagret, Frändefors</description>
        <styleUrl>#icon-22</styleUrl>
        <Point>
          <coordinates>
            12.281308,58.500176,0
          </coordinates>
        </Point>
      </Placemark>
      <Placemark>
        <name>Vovking</name>
        <description>Vovking, Träslölvsläge</description>
        <styleUrl>#icon-22</styleUrl>
        <Point>
          <coordinates>
            12.286285,57.054029,0
          </coordinates>
        </Point>
      </Placemark>
      <Placemark>
        <name>Glasscafet Tre Luckor</name>
        <description>Glasscafet Tre Luckor, Trollhättan</description>
        <styleUrl>#icon-22</styleUrl>
        <Point>
          <coordinates>
            12.286949,58.2837,0
          </coordinates>
        </Point>
      </Placemark>
      <Placemark>
        <name>Lillegårdens Kött & Chark</name>
        <description>Lillegårdens Kött & Chark, Varberg</description>
        <styleUrl>#icon-22</styleUrl>
        <Point>
          <coordinates>
            12.287499,57.140954,0
          </coordinates>
        </Point>
      </Placemark>
      <Placemark>
        <name>Träslövsläge IF</name>
        <description>Träslövsläge IF, Träslövsläge</description>
        <styleUrl>#icon-22</styleUrl>
        <Point>
          <coordinates>
            12.288798,57.05775,0
          </coordinates>
        </Point>
      </Placemark>
      <Placemark>
        <name>Glassboden Drottningtorget</name>
        <description>Glassboden Drottningtorget, Trollhättan</description>
        <styleUrl>#icon-22</styleUrl>
        <Point>
          <coordinates>
            12.28972,58.283814,0
          </coordinates>
        </Point>
      </Placemark>
      <Placemark>
        <name>Cactuz</name>
        <description>Cactuz, Trollhättan</description>
        <styleUrl>#icon-22</styleUrl>
        <Point>
          <coordinates>
            12.28972,58.283814,0
          </coordinates>
        </Point>
      </Placemark>
      <Placemark>
        <name>Kiosken Charlottenberg Shoppingcenter</name>
        <description>Kiosken Charlottenberg Shoppingcenter, Charlottenberg</description>
        <styleUrl>#icon-22</styleUrl>
        <Point>
          <coordinates>
            12.289806,59.881886,0
          </coordinates>
        </Point>
      </Placemark>
      <Placemark>
        <name>Ursand Camping, Blåbärsstället</name>
        <description>Ursand Camping, Blåbärsstället, Vänersborg</description>
        <styleUrl>#icon-22</styleUrl>
        <Point>
          <coordinates>
            12.290472,58.393671,0
          </coordinates>
        </Point>
      </Placemark>
      <Placemark>
        <name>Årjängs Golfkrog</name>
        <description>Årjängs Golfkrog, Årjäng</description>
        <styleUrl>#icon-22</styleUrl>
        <Point>
          <coordinates>
            12.291423,59.341561,0
          </coordinates>
        </Point>
      </Placemark>
      <Placemark>
        <name>Gården Vid Bron</name>
        <description>Gården Vid Bron, Veddige</description>
        <styleUrl>#icon-22</styleUrl>
        <Point>
          <coordinates>
            12.308421,57.239012,0
          </coordinates>
        </Point>
      </Placemark>
      <Placemark>
        <name>Erikshjälpen Pingstkyrkan Vänersborg</name>
        <description>Erikshjälpen Pingstkyrkan Vänersborg, Vänersborg</description>
        <styleUrl>#icon-22</styleUrl>
        <Point>
          <coordinates>
            12.3124,58.381295,0
          </coordinates>
        </Point>
      </Placemark>
      <Placemark>
        <name>Jecko & Jessies Lekland</name>
        <description>Jecko & Jessies Lekland, Trollhättan</description>
        <styleUrl>#icon-22</styleUrl>
        <Point>
          <coordinates>
            12.313252,58.315709,0
          </coordinates>
        </Point>
      </Placemark>
      <Placemark>
        <name>Baldersnäs Herrgård</name>
        <description>Baldersnäs Herrgård, Dals Långed</description>
        <styleUrl>#icon-22</styleUrl>
        <Point>
          <coordinates>
            12.31667,58.91667,0
          </coordinates>
        </Point>
      </Placemark>
      <Placemark>
        <name>Renbiten Ab</name>
        <description>Renbiten Ab, Idre</description>
        <styleUrl>#icon-22</styleUrl>
        <Point>
          <coordinates>
            12.318524,62.062601,0
          </coordinates>
        </Point>
      </Placemark>
      <Placemark>
        <name>Nolato</name>
        <description>Nolato, Trollhättan</description>
        <styleUrl>#icon-22</styleUrl>
        <Point>
          <coordinates>
            12.321696,58.274841,0
          </coordinates>
        </Point>
      </Placemark>
      <Placemark>
        <name>Veddige Simhall</name>
        <description>Veddige Simhall, Veddige</description>
        <styleUrl>#icon-22</styleUrl>
        <Point>
          <coordinates>
            12.32493,57.264485,0
          </coordinates>
        </Point>
      </Placemark>
      <Placemark>
        <name>Skräcklestugan</name>
        <description>Skräcklestugan, Vänersborg</description>
        <styleUrl>#icon-22</styleUrl>
        <Point>
          <coordinates>
            12.329102,58.385148,0
          </coordinates>
        </Point>
      </Placemark>
      <Placemark>
        <name>Elinors Fjällservice AB</name>
        <description>Elinors Fjällservice AB, Duved</description>
        <styleUrl>#icon-22</styleUrl>
        <Point>
          <coordinates>
            12.331219,63.284584,0
          </coordinates>
        </Point>
      </Placemark>
      <Placemark>
        <name>Café Commerce</name>
        <description>Café Commerce, Brålanda</description>
        <styleUrl>#icon-22</styleUrl>
        <Point>
          <coordinates>
            12.350059,58.561823,0
          </coordinates>
        </Point>
      </Placemark>
      <Placemark>
        <name>Grövelsjö Alpacka Cafe</name>
        <description>Grövelsjö Alpacka Cafe, Idre</description>
        <styleUrl>#icon-22</styleUrl>
        <Point>
          <coordinates>
            12.350729,62.004506,0
          </coordinates>
        </Point>
      </Placemark>
      <Placemark>
        <name>Kiosken På Västra Banan</name>
        <description>Kiosken På Västra Banan, Tvååker</description>
        <styleUrl>#icon-22</styleUrl>
        <Point>
          <coordinates>
            12.352146,57.05551,0
          </coordinates>
        </Point>
      </Placemark>
      <Placemark>
        <name>Varbergs Tropikarium</name>
        <description>Varbergs Tropikarium, Tvååker</description>
        <styleUrl>#icon-22</styleUrl>
        <Point>
          <coordinates>
            12.354919,57.01206,0
          </coordinates>
        </Point>
      </Placemark>
      <Placemark>
        <name>Ellas Mat & Prylar</name>
        <description>Ellas Mat & Prylar, Glommen</description>
        <styleUrl>#icon-22</styleUrl>
        <Point>
          <coordinates>
            12.361479,56.957089,0
          </coordinates>
        </Point>
      </Placemark>
      <Placemark>
        <name>Glommens Pizzeria</name>
        <description>Glommens Pizzeria, Glommen</description>
        <styleUrl>#icon-22</styleUrl>
        <Point>
          <coordinates>
            12.364194,56.930511,0
          </coordinates>
        </Point>
      </Placemark>
      <Placemark>
        <name>Bergströms Tehandel</name>
        <description>Bergströms Tehandel, Varberg</description>
        <styleUrl>#icon-22</styleUrl>
        <Point>
          <coordinates>
            12.377395,57.094624,0
          </coordinates>
        </Point>
      </Placemark>
      <Placemark>
        <name>Caravan Club</name>
        <description>Caravan Club, Falkenberg</description>
        <styleUrl>#icon-22</styleUrl>
        <Point>
          <coordinates>
            12.396089,56.922906,0
          </coordinates>
        </Point>
      </Placemark>
      <Placemark>
        <name>Gööks Bageri</name>
        <description>Gööks Bageri, Tvååker</description>
        <styleUrl>#icon-22</styleUrl>
        <Point>
          <coordinates>
            12.398822,57.040563,0
          </coordinates>
        </Point>
      </Placemark>
      <Placemark>
        <name>Hallevibadet</name>
        <description>Hallevibadet, Vargön</description>
        <styleUrl>#icon-22</styleUrl>
        <Point>
          <coordinates>
            12.400358,58.366718,0
          </coordinates>
        </Point>
      </Placemark>
      <Placemark>
        <name>Olofsbos Islandshästar</name>
        <description>Olofsbos Islandshästar, Falkenberg</description>
        <styleUrl>#icon-22</styleUrl>
        <Point>
          <coordinates>
            12.400427,56.930965,0
          </coordinates>
        </Point>
      </Placemark>
      <Placemark>
        <name>Elma's Gårdskafe & Hantverksbod</name>
        <description>Elma's Gårdskafe & Hantverksbod, Brålanda</description>
        <styleUrl>#icon-22</styleUrl>
        <Point>
          <coordinates>
            12.410931,58.508567,0
          </coordinates>
        </Point>
      </Placemark>
      <Placemark>
        <name>Dalslands Kanal</name>
        <description>Dalslands Kanal, Håverud</description>
        <styleUrl>#icon-22</styleUrl>
        <Point>
          <coordinates>
            12.412196,58.821265,0
          </coordinates>
        </Point>
      </Placemark>
      <Placemark>
        <name>Strömma Farmlodge</name>
        <description>Strömma Farmlodge, Tvååker</description>
        <styleUrl>#icon-22</styleUrl>
        <Point>
          <coordinates>
            12.425222,57.057095,0
          </coordinates>
        </Point>
      </Placemark>
      <Placemark>
        <name>Spiskupan</name>
        <description>Spiskupan, Vargön</description>
        <styleUrl>#icon-22</styleUrl>
        <Point>
          <coordinates>
            12.430418,58.346846,0
          </coordinates>
        </Point>
      </Placemark>
      <Placemark>
        <name>Hanriis Café</name>
        <description>Hanriis Café, Duved</description>
        <styleUrl>#icon-22</styleUrl>
        <Point>
          <coordinates>
            12.450625,63.252282,0
          </coordinates>
        </Point>
      </Placemark>
      <Placemark>
        <name>Kullens Fyr</name>
        <description>Kullens Fyr, Mölle</description>
        <styleUrl>#icon-22</styleUrl>
        <Point>
          <coordinates>
            12.452027,56.301275,0
          </coordinates>
        </Point>
      </Placemark>
      <Placemark>
        <name>Sunnanå Restaurang</name>
        <description>Sunnanå Restaurang, Mellerud</description>
        <styleUrl>#icon-22</styleUrl>
        <Point>
          <coordinates>
            12.484884,58.705106,0
          </coordinates>
        </Point>
      </Placemark>
      <Placemark>
        <name>SIA Glass Café</name>
        <description>SIA Glass Café, Falkenberg</description>
        <styleUrl>#icon-22</styleUrl>
        <Point>
          <coordinates>
            12.490949,56.904832,0
          </coordinates>
        </Point>
      </Placemark>
      <Placemark>
        <name>Glasshuset Skrea</name>
        <description>Glasshuset Skrea, Falkenberg</description>
        <styleUrl>#icon-22</styleUrl>
        <Point>
          <coordinates>
            12.49167,56.90278,0
          </coordinates>
        </Point>
      </Placemark>
      <Placemark>
        <name>Waynes</name>
        <description>Waynes, Falkenberg</description>
        <styleUrl>#icon-22</styleUrl>
        <Point>
          <coordinates>
            12.49219,56.903152,0
          </coordinates>
        </Point>
      </Placemark>
      <Placemark>
        <name>Waynes Coffe</name>
        <description>Waynes Coffe, Falkenberg</description>
        <styleUrl>#icon-22</styleUrl>
        <Point>
          <coordinates>
            12.492397,56.903731,0
          </coordinates>
        </Point>
      </Placemark>
      <Placemark>
        <name>Gööks Bageri</name>
        <description>Gööks Bageri, Falkenberg</description>
        <styleUrl>#icon-22</styleUrl>
        <Point>
          <coordinates>
            12.49282,56.905259,0
          </coordinates>
        </Point>
      </Placemark>
      <Placemark>
        <name>La Playa</name>
        <description>La Playa, Falkenberg</description>
        <styleUrl>#icon-22</styleUrl>
        <Point>
          <coordinates>
            12.496118,56.888006,0
          </coordinates>
        </Point>
      </Placemark>
      <Placemark>
        <name>Mijons</name>
        <description>Mijons, Falkenberg</description>
        <styleUrl>#icon-22</styleUrl>
        <Point>
          <coordinates>
            12.498604,56.888806,0
          </coordinates>
        </Point>
      </Placemark>
      <Placemark>
        <name>Standen</name>
        <description>Standen, Falkenberg</description>
        <styleUrl>#icon-22</styleUrl>
        <Point>
          <coordinates>
            12.50399,56.884345,0
          </coordinates>
        </Point>
      </Placemark>
      <Placemark>
        <name>Campino Falkenberg</name>
        <description>Campino Falkenberg, Falkenberg</description>
        <styleUrl>#icon-22</styleUrl>
        <Point>
          <coordinates>
            12.506229,56.9079,0
          </coordinates>
        </Point>
      </Placemark>
      <Placemark>
        <name>Tallhyddan</name>
        <description>Tallhyddan, Alingsås</description>
        <styleUrl>#icon-22</styleUrl>
        <Point>
          <coordinates>
            12.508793,57.934698,0
          </coordinates>
        </Point>
      </Placemark>
      <Placemark>
        <name>Ica Supermarket Skrea Strand</name>
        <description>Ica Supermarket Skrea Strand, Falkenberg</description>
        <styleUrl>#icon-22</styleUrl>
        <Point>
          <coordinates>
            12.510971,56.887221,0
          </coordinates>
        </Point>
      </Placemark>
      <Placemark>
        <name>Funäsgrillen</name>
        <description>Funäsgrillen, Funäsdalen</description>
        <styleUrl>#icon-22</styleUrl>
        <Point>
          <coordinates>
            12.522924,62.549419,0
          </coordinates>
        </Point>
      </Placemark>
      <Placemark>
        <name>Knafves Café & Diverse</name>
        <description>Knafves Café & Diverse, Mölle</description>
        <styleUrl>#icon-22</styleUrl>
        <Point>
          <coordinates>
            12.529423,56.280862,0
          </coordinates>
        </Point>
      </Placemark>
      <Placemark>
        <name>Bubblerian Mölle</name>
        <description>Bubblerian Mölle, Mölle</description>
        <styleUrl>#icon-22</styleUrl>
        <Point>
          <coordinates>
            12.531434,56.270936,0
          </coordinates>
        </Point>
      </Placemark>
      <Placemark>
        <name>A-Kembar</name>
        <description>A-Kembar, Falkenberg</description>
        <styleUrl>#icon-22</styleUrl>
        <Point>
          <coordinates>
            12.533532,56.899913,0
          </coordinates>
        </Point>
      </Placemark>
      <Placemark>
        <name>Kaffekoppen I Sollebrunn</name>
        <description>Kaffekoppen I Sollebrunn, Sollebrunn</description>
        <styleUrl>#icon-22</styleUrl>
        <Point>
          <coordinates>
            12.533715,58.118853,0
          </coordinates>
        </Point>
      </Placemark>
      <Placemark>
        <name>Larssons Gårdsbutik</name>
        <description>Larssons Gårdsbutik, Ånimskog</description>
        <styleUrl>#icon-22</styleUrl>
        <Point>
          <coordinates>
            12.541565,58.90892,0
          </coordinates>
        </Point>
      </Placemark>
      <Placemark>
        <name>Himmelstorps Hembygdsgård</name>
        <description>Himmelstorps Hembygdsgård, Mölle</description>
        <styleUrl>#icon-22</styleUrl>
        <Point>
          <coordinates>
            12.549078,56.276057,0
          </coordinates>
        </Point>
      </Placemark>
      <Placemark>
        <name>Pannkaksladan</name>
        <description>Pannkaksladan, Höganäs</description>
        <styleUrl>#icon-22</styleUrl>
        <Point>
          <coordinates>
            12.563489,56.215193,0
          </coordinates>
        </Point>
      </Placemark>
      <Placemark>
        <name>Nordvästra Skånes Flygklubb</name>
        <description>Nordvästra Skånes Flygklubb, Höganäs</description>
        <styleUrl>#icon-22</styleUrl>
        <Point>
          <coordinates>
            12.580316,56.184261,0
          </coordinates>
        </Point>
      </Placemark>
      <Placemark>
        <name>Högvalta Handelsträdgård</name>
        <description>Högvalta Handelsträdgård, Arvika</description>
        <styleUrl>#icon-22</styleUrl>
        <Point>
          <coordinates>
            12.582909,59.68642,0
          </coordinates>
        </Point>
      </Placemark>
      <Placemark>
        <name>Arvika Idrottscenter</name>
        <description>Arvika Idrottscenter, Arvika</description>
        <styleUrl>#icon-22</styleUrl>
        <Point>
          <coordinates>
            12.591813,59.652625,0
          </coordinates>
        </Point>
      </Placemark>
      <Placemark>
        <name>Nordells Konditori</name>
        <description>Nordells Konditori, Arvika</description>
        <styleUrl>#icon-22</styleUrl>
        <Point>
          <coordinates>
            12.592361,59.654193,0
          </coordinates>
        </Point>
      </Placemark>
      <Placemark>
        <name>Cafe Arvika Kommun</name>
        <description>Cafe Arvika Kommun, Arvika</description>
        <styleUrl>#icon-22</styleUrl>
        <Point>
          <coordinates>
            12.59618,59.653913,0
          </coordinates>
        </Point>
      </Placemark>
      <Placemark>
        <name>Nya Strandstugan</name>
        <description>Nya Strandstugan, Heberg</description>
        <styleUrl>#icon-22</styleUrl>
        <Point>
          <coordinates>
            12.6,56.835864,0
          </coordinates>
        </Point>
      </Placemark>
      <Placemark>
        <name>Laxbutiken</name>
        <description>Laxbutiken, Heberg</description>
        <styleUrl>#icon-22</styleUrl>
        <Point>
          <coordinates>
            12.600969,56.886258,0
          </coordinates>
        </Point>
      </Placemark>
      <Placemark>
        <name>Ugglarps Camping</name>
        <description>Ugglarps Camping, Ugglarp</description>
        <styleUrl>#icon-22</styleUrl>
        <Point>
          <coordinates>
            12.609378,56.823318,0
          </coordinates>
        </Point>
      </Placemark>
      <Placemark>
        <name>Tössestugan</name>
        <description>Tössestugan, Tösse</description>
        <styleUrl>#icon-22</styleUrl>
        <Point>
          <coordinates>
            12.614847,58.966485,0
          </coordinates>
        </Point>
      </Placemark>
      <Placemark>
        <name>Kilagård</name>
        <description>Kilagård, Heberg</description>
        <styleUrl>#icon-22</styleUrl>
        <Point>
          <coordinates>
            12.617082,56.852183,0
          </coordinates>
        </Point>
      </Placemark>
      <Placemark>
        <name>Tvällen Värdshuset</name>
        <description>Tvällen Värdshuset, Gunnarskog</description>
        <styleUrl>#icon-22</styleUrl>
        <Point>
          <coordinates>
            12.621063,60.021122,0
          </coordinates>
        </Point>
      </Placemark>
      <Placemark>
        <name>Arvika Fotboll</name>
        <description>Arvika Fotboll, Arvika</description>
        <styleUrl>#icon-22</styleUrl>
        <Point>
          <coordinates>
            12.621831,59.651717,0
          </coordinates>
        </Point>
      </Placemark>
      <Placemark>
        <name>Torekovs Hamnkiosk & Pizzeria</name>
        <description>Torekovs Hamnkiosk & Pizzeria, Torekov</description>
        <styleUrl>#icon-22</styleUrl>
        <Point>
          <coordinates>
            12.629769,56.423325,0
          </coordinates>
        </Point>
      </Placemark>
      <Placemark>
        <name>Katrinebergs Folkhögskola</name>
        <description>Katrinebergs Folkhögskola, Vessigebro</description>
        <styleUrl>#icon-22</styleUrl>
        <Point>
          <coordinates>
            12.6397,56.97352,0
          </coordinates>
        </Point>
      </Placemark>
      <Placemark>
        <name>Hilles Loppis</name>
        <description>Hilles Loppis, Ullared</description>
        <styleUrl>#icon-22</styleUrl>
        <Point>
          <coordinates>
            12.642091,57.058875,0
          </coordinates>
        </Point>
      </Placemark>
      <Placemark>
        <name>Skene Star</name>
        <description>Skene Star, Skene</description>
        <styleUrl>#icon-22</styleUrl>
        <Point>
          <coordinates>
            12.646944,57.486629,0
          </coordinates>
        </Point>
      </Placemark>
      <Placemark>
        <name>Bread On Wine</name>
        <description>Bread On Wine, Sankt Ibb</description>
        <styleUrl>#icon-22</styleUrl>
        <Point>
          <coordinates>
            12.674259,55.910387,0
          </coordinates>
        </Point>
      </Placemark>
      <Placemark>
        <name>Henke Kiosken, Pålsjöbaden</name>
        <description>Henke Kiosken, Pålsjöbaden, Helsingborg</description>
        <styleUrl>#icon-22</styleUrl>
        <Point>
          <coordinates>
            12.678287,56.0644,0
          </coordinates>
        </Point>
      </Placemark>
      <Placemark>
        <name>Sofiero Förvaltning</name>
        <description>Sofiero Förvaltning, Helsingborg</description>
        <styleUrl>#icon-22</styleUrl>
        <Point>
          <coordinates>
            12.678287,56.0644,0
          </coordinates>
        </Point>
      </Placemark>
      <Placemark>
        <name>SIA Glass butik och glassbar</name>
        <description>SIA Glass butik och glassbar, Slöinge</description>
        <styleUrl>#icon-22</styleUrl>
        <Point>
          <coordinates>
            12.682715,56.85574,0
          </coordinates>
        </Point>
      </Placemark>
      <Placemark>
        <name>Härjebygg</name>
        <description>Härjebygg, Tännäs</description>
        <styleUrl>#icon-22</styleUrl>
        <Point>
          <coordinates>
            12.685331,62.441164,0
          </coordinates>
        </Point>
      </Placemark>
      <Placemark>
        <name>Tågaglass Ab</name>
        <description>Tågaglass Ab, Helsingborg</description>
        <styleUrl>#icon-22</styleUrl>
        <Point>
          <coordinates>
            12.686154,56.05199,0
          </coordinates>
        </Point>
      </Placemark>
      <Placemark>
        <name>Lunnevibadet</name>
        <description>Lunnevibadet, Grästorp</description>
        <styleUrl>#icon-22</styleUrl>
        <Point>
          <coordinates>
            12.686451,58.32926,0
          </coordinates>
        </Point>
      </Placemark>
      <Placemark>
        <name>Kebabkungen Norra Hamnen</name>
        <description>Kebabkungen Norra Hamnen, Helsingborg</description>
        <styleUrl>#icon-22</styleUrl>
        <Point>
          <coordinates>
            12.687038,56.049189,0
          </coordinates>
        </Point>
      </Placemark>
      <Placemark>
        <name>Thores Bageri</name>
        <description>Thores Bageri, Helsingborg</description>
        <styleUrl>#icon-22</styleUrl>
        <Point>
          <coordinates>
            12.690677,56.046501,0
          </coordinates>
        </Point>
      </Placemark>
      <Placemark>
        <name>Tågaglass</name>
        <description>Tågaglass, Helsingborg</description>
        <styleUrl>#icon-22</styleUrl>
        <Point>
          <coordinates>
            12.691179,56.047538,0
          </coordinates>
        </Point>
      </Placemark>
      <Placemark>
        <name>Johans Kiosk</name>
        <description>Johans Kiosk, Kinna</description>
        <styleUrl>#icon-22</styleUrl>
        <Point>
          <coordinates>
            12.692229,57.507375,0
          </coordinates>
        </Point>
      </Placemark>
      <Placemark>
        <name>Trattoria Bonasera</name>
        <description>Trattoria Bonasera, Helsingborg</description>
        <styleUrl>#icon-22</styleUrl>
        <Point>
          <coordinates>
            12.692453,56.064903,0
          </coordinates>
        </Point>
      </Placemark>
      <Placemark>
        <name>Regio I Helsingborg</name>
        <description>Regio I Helsingborg, Helsingborg</description>
        <styleUrl>#icon-22</styleUrl>
        <Point>
          <coordinates>
            12.692453,56.064903,0
          </coordinates>
        </Point>
      </Placemark>
      <Placemark>
        <name>Waynes Coffee Rådhustorget Helsingborg</name>
        <description>Waynes Coffee Rådhustorget Helsingborg, Helsingborg</description>
        <styleUrl>#icon-22</styleUrl>
        <Point>
          <coordinates>
            12.692492,56.047282,0
          </coordinates>
        </Point>
      </Placemark>
      <Placemark>
        <name>Rydals Herrgård</name>
        <description>Rydals Herrgård, Rydal</description>
        <styleUrl>#icon-22</styleUrl>
        <Point>
          <coordinates>
            12.69488,57.554671,0
          </coordinates>
        </Point>
      </Placemark>
      <Placemark>
        <name>Rehamco International AB</name>
        <description>Rehamco International AB, Helsingborg</description>
        <styleUrl>#icon-22</styleUrl>
        <Point>
          <coordinates>
            12.695158,56.046329,0
          </coordinates>
        </Point>
      </Placemark>
      <Placemark>
        <name>Vilshärads Camping</name>
        <description>Vilshärads Camping, Vilshärad</description>
        <styleUrl>#icon-22</styleUrl>
        <Point>
          <coordinates>
            12.696088,56.694705,0
          </coordinates>
        </Point>
      </Placemark>
      <Placemark>
        <name>Vilshärads Camping</name>
        <description>Vilshärads Camping, Vilshärad</description>
        <styleUrl>#icon-22</styleUrl>
        <Point>
          <coordinates>
            12.696088,56.694705,0
          </coordinates>
        </Point>
      </Placemark>
      <Placemark>
        <name>Tåga Glass Kärnan</name>
        <description>Tåga Glass Kärnan, Helsingborg</description>
        <styleUrl>#icon-22</styleUrl>
        <Point>
          <coordinates>
            12.696456,56.04745,0
          </coordinates>
        </Point>
      </Placemark>
      <Placemark>
        <name>Kebabkungen Söder</name>
        <description>Kebabkungen Söder, Helsingborg</description>
        <styleUrl>#icon-22</styleUrl>
        <Point>
          <coordinates>
            12.698341,56.04172,0
          </coordinates>
        </Point>
      </Placemark>
      <Placemark>
        <name>Choco Venue</name>
        <description>Choco Venue, Helsingborg</description>
        <styleUrl>#icon-22</styleUrl>
        <Point>
          <coordinates>
            12.69996,56.04472,0
          </coordinates>
        </Point>
      </Placemark>
      <Placemark>
        <name>Apoteket Hjärtat Helsingborgs Lasarett</name>
        <description>Apoteket Hjärtat Helsingborgs Lasarett, Helsingborg</description>
        <styleUrl>#icon-22</styleUrl>
        <Point>
          <coordinates>
            12.7,56.05,0
          </coordinates>
        </Point>
      </Placemark>
      <Placemark>
        <name>Petter's Grill O Bar</name>
        <description>Petter's Grill O Bar, Helsingborg</description>
        <styleUrl>#icon-22</styleUrl>
        <Point>
          <coordinates>
            12.7,56.05,0
          </coordinates>
        </Point>
      </Placemark>
      <Placemark>
        <name>Svea Cater MR Matbiten</name>
        <description>Svea Cater MR Matbiten, Såtenäs</description>
        <styleUrl>#icon-22</styleUrl>
        <Point>
          <coordinates>
            12.70026,58.4425,0
          </coordinates>
        </Point>
      </Placemark>
      <Placemark>
        <name>Två Systrar Conditori</name>
        <description>Två Systrar Conditori, Helsingborg</description>
        <styleUrl>#icon-22</styleUrl>
        <Point>
          <coordinates>
            12.700477,56.050655,0
          </coordinates>
        </Point>
      </Placemark>
      <Placemark>
        <name>The Driftwood</name>
        <description>The Driftwood, Vilshärad</description>
        <styleUrl>#icon-22</styleUrl>
        <Point>
          <coordinates>
            12.700791,56.697866,0
          </coordinates>
        </Point>
      </Placemark>
      <Placemark>
        <name>GSM Service i Hbg</name>
        <description>GSM Service i Hbg, Helsingborg</description>
        <styleUrl>#icon-22</styleUrl>
        <Point>
          <coordinates>
            12.701393,56.038634,0
          </coordinates>
        </Point>
      </Placemark>
      <Placemark>
        <name>Mackans Grill</name>
        <description>Mackans Grill, Åmål</description>
        <styleUrl>#icon-22</styleUrl>
        <Point>
          <coordinates>
            12.702602,59.052329,0
          </coordinates>
        </Point>
      </Placemark>
      <Placemark>
        <name>Annas Direkten</name>
        <description>Annas Direkten, Helsingborg</description>
        <styleUrl>#icon-22</styleUrl>
        <Point>
          <coordinates>
            12.708205,56.027022,0
          </coordinates>
        </Point>
      </Placemark>
      <Placemark>
        <name>Blå Krog</name>
        <description>Blå Krog, Åmål</description>
        <styleUrl>#icon-22</styleUrl>
        <Point>
          <coordinates>
            12.709545,59.053719,0
          </coordinates>
        </Point>
      </Placemark>
      <Placemark>
        <name>Kandyz Helsingborg</name>
        <description>Kandyz Helsingborg, Helsingborg</description>
        <styleUrl>#icon-22</styleUrl>
        <Point>
          <coordinates>
            12.709736,56.060702,0
          </coordinates>
        </Point>
      </Placemark>
      <Placemark>
        <name>Strandgården</name>
        <description>Strandgården, Gullbrandstor</description>
        <styleUrl>#icon-22</styleUrl>
        <Point>
          <coordinates>
            12.711124,56.701769,0
          </coordinates>
        </Point>
      </Placemark>
      <Placemark>
        <name>NP Nilsson Trävaru AB</name>
        <description>NP Nilsson Trävaru AB, Helsingborg</description>
        <styleUrl>#icon-22</styleUrl>
        <Point>
          <coordinates>
            12.713792,56.073478,0
          </coordinates>
        </Point>
      </Placemark>
      <Placemark>
        <name>Sportladan</name>
        <description>Sportladan, Tännäs</description>
        <styleUrl>#icon-22</styleUrl>
        <Point>
          <coordinates>
            12.714729,62.440265,0
          </coordinates>
        </Point>
      </Placemark>
      <Placemark>
        <name>Gekås</name>
        <description>Gekås, Ullared</description>
        <styleUrl>#icon-22</styleUrl>
        <Point>
          <coordinates>
            12.71528,57.13611,0
          </coordinates>
        </Point>
      </Placemark>
      <Placemark>
        <name>Valla Golfkrog</name>
        <description>Valla Golfkrog, Kinna</description>
        <styleUrl>#icon-22</styleUrl>
        <Point>
          <coordinates>
            12.71715,57.501835,0
          </coordinates>
        </Point>
      </Placemark>
      <Placemark>
        <name>Din-X Ullared</name>
        <description>Din-X Ullared, Ullared</description>
        <styleUrl>#icon-22</styleUrl>
        <Point>
          <coordinates>
            12.718464,57.135762,0
          </coordinates>
        </Point>
      </Placemark>
      <Placemark>
        <name>Örebrokiosken</name>
        <description>Örebrokiosken, Helsingborg</description>
        <styleUrl>#icon-22</styleUrl>
        <Point>
          <coordinates>
            12.721241,56.044619,0
          </coordinates>
        </Point>
      </Placemark>
      <Placemark>
        <name>Gunnars Konditori</name>
        <description>Gunnars Konditori, Helsingborg</description>
        <styleUrl>#icon-22</styleUrl>
        <Point>
          <coordinates>
            12.722906,56.017141,0
          </coordinates>
        </Point>
      </Placemark>
      <Placemark>
        <name>Tjuvahålans Kiosk</name>
        <description>Tjuvahålans Kiosk, Halmstad</description>
        <styleUrl>#icon-22</styleUrl>
        <Point>
          <coordinates>
            12.73227,56.642254,0
          </coordinates>
        </Point>
      </Placemark>
      <Placemark>
        <name>Sandras Kiosk</name>
        <description>Sandras Kiosk, Halmstad</description>
        <styleUrl>#icon-22</styleUrl>
        <Point>
          <coordinates>
            12.732271,56.642253,0
          </coordinates>
        </Point>
      </Placemark>
      <Placemark>
        <name>Sandras Kiosk</name>
        <description>Sandras Kiosk, Halmstad</description>
        <styleUrl>#icon-22</styleUrl>
        <Point>
          <coordinates>
            12.732271,56.642253,0
          </coordinates>
        </Point>
      </Placemark>
      <Placemark>
        <name>Hygge</name>
        <description>Hygge, Halmstad</description>
        <styleUrl>#icon-22</styleUrl>
        <Point>
          <coordinates>
            12.73357,56.647014,0
          </coordinates>
        </Point>
      </Placemark>
      <Placemark>
        <name>Punsch Glassbar</name>
        <description>Punsch Glassbar, Halmstad</description>
        <styleUrl>#icon-22</styleUrl>
        <Point>
          <coordinates>
            12.734069,56.645838,0
          </coordinates>
        </Point>
      </Placemark>
      <Placemark>
        <name>Namnam Tylösand</name>
        <description>Namnam Tylösand, Halmstad</description>
        <styleUrl>#icon-22</styleUrl>
        <Point>
          <coordinates>
            12.736972,56.670106,0
          </coordinates>
        </Point>
      </Placemark>
      <Placemark>
        <name>Tännforsen</name>
        <description>Tännforsen, Duved</description>
        <styleUrl>#icon-22</styleUrl>
        <Point>
          <coordinates>
            12.740759,63.443133,0
          </coordinates>
        </Point>
      </Placemark>
      <Placemark>
        <name>Geting Restaurang O Pizzeria</name>
        <description>Geting Restaurang O Pizzeria, Getinge</description>
        <styleUrl>#icon-22</styleUrl>
        <Point>
          <coordinates>
            12.740767,56.821573,0
          </coordinates>
        </Point>
      </Placemark>
      <Placemark>
        <name>Kajgatan 1 Restaurang</name>
        <description>Kajgatan 1 Restaurang, Råå</description>
        <styleUrl>#icon-22</styleUrl>
        <Point>
          <coordinates>
            12.742766,55.994166,0
          </coordinates>
        </Point>
      </Placemark>
      <Placemark>
        <name>Restaurang Vänner</name>
        <description>Restaurang Vänner, Helsingborg</description>
        <styleUrl>#icon-22</styleUrl>
        <Point>
          <coordinates>
            12.744461,56.038914,0
          </coordinates>
        </Point>
      </Placemark>
      <Placemark>
        <name>Erikshjälpen Second Hand Hbg</name>
        <description>Erikshjälpen Second Hand Hbg, Helsingborg</description>
        <styleUrl>#icon-22</styleUrl>
        <Point>
          <coordinates>
            12.755438,56.040843,0
          </coordinates>
        </Point>
      </Placemark>
      <Placemark>
        <name>Tuvan Kök & Bar</name>
        <description>Tuvan Kök & Bar, Ljungdalen</description>
        <styleUrl>#icon-22</styleUrl>
        <Point>
          <coordinates>
            12.767137,62.856662,0
          </coordinates>
        </Point>
      </Placemark>
      <Placemark>
        <name>Halmstads Wakeboardförening</name>
        <description>Halmstads Wakeboardförening, Halmstad</description>
        <styleUrl>#icon-22</styleUrl>
        <Point>
          <coordinates>
            12.778438,56.641698,0
          </coordinates>
        </Point>
      </Placemark>
      <Placemark>
        <name>Rozzo Design</name>
        <description>Rozzo Design, Halmstad</description>
        <styleUrl>#icon-22</styleUrl>
        <Point>
          <coordinates>
            12.779457,56.687611,0
          </coordinates>
        </Point>
      </Placemark>
      <Placemark>
        <name>Zibeda Chocolate</name>
        <description>Zibeda Chocolate, Fritsla</description>
        <styleUrl>#icon-22</styleUrl>
        <Point>
          <coordinates>
            12.785381,57.556783,0
          </coordinates>
        </Point>
      </Placemark>
      <Placemark>
        <name>Vasatorps Golfkrog</name>
        <description>Vasatorps Golfkrog, Mörarp</description>
        <styleUrl>#icon-22</styleUrl>
        <Point>
          <coordinates>
            12.788521,56.059959,0
          </coordinates>
        </Point>
      </Placemark>
      <Placemark>
        <name>Sandareds Innebandy Förening</name>
        <description>Sandareds Innebandy Förening, Sandared</description>
        <styleUrl>#icon-22</styleUrl>
        <Point>
          <coordinates>
            12.788965,57.707585,0
          </coordinates>
        </Point>
      </Placemark>
      <Placemark>
        <name>Restaurangen I Ljungdalens</name>
        <description>Restaurangen I Ljungdalens, Ljungdalen</description>
        <styleUrl>#icon-22</styleUrl>
        <Point>
          <coordinates>
            12.79029,62.852643,0
          </coordinates>
        </Point>
      </Placemark>
      <Placemark>
        <name>Kullinghemmets Kök</name>
        <description>Kullinghemmets Kök, Vårgårda</description>
        <styleUrl>#icon-22</styleUrl>
        <Point>
          <coordinates>
            12.797994,58.021093,0
          </coordinates>
        </Point>
      </Placemark>
      <Placemark>
        <name>Kandyz</name>
        <description>Kandyz, Halmstad</description>
        <styleUrl>#icon-22</styleUrl>
        <Point>
          <coordinates>
            12.811561,56.662462,0
          </coordinates>
        </Point>
      </Placemark>
      <Placemark>
        <name>Lock Stock & Barrel Events AB</name>
        <description>Lock Stock & Barrel Events AB, Landskrona</description>
        <styleUrl>#icon-22</styleUrl>
        <Point>
          <coordinates>
            12.819302,55.871491,0
          </coordinates>
        </Point>
      </Placemark>
      <Placemark>
        <name>Falsterbo Golfklubb</name>
        <description>Falsterbo Golfklubb, Falsterbo</description>
        <styleUrl>#icon-22</styleUrl>
        <Point>
          <coordinates>
            12.820874,55.382387,0
          </coordinates>
        </Point>
      </Placemark>
      <Placemark>
        <name>Flommens GK</name>
        <description>Flommens GK, Falsterbo</description>
        <styleUrl>#icon-22</styleUrl>
        <Point>
          <coordinates>
            12.828866,55.393231,0
          </coordinates>
        </Point>
      </Placemark>
      <Placemark>
        <name>Amins Glassbil</name>
        <description>Amins Glassbil, Halmstad</description>
        <styleUrl>#icon-22</styleUrl>
        <Point>
          <coordinates>
            12.829765,56.67185,0
          </coordinates>
        </Point>
      </Placemark>
      <Placemark>
        <name>Olivers Hamburgeri</name>
        <description>Olivers Hamburgeri, Landskrona</description>
        <styleUrl>#icon-22</styleUrl>
        <Point>
          <coordinates>
            12.829834,55.87128,0
          </coordinates>
        </Point>
      </Placemark>
      <Placemark>
        <name>Cenririon Solution</name>
        <description>Cenririon Solution, Borås</description>
        <styleUrl>#icon-22</styleUrl>
        <Point>
          <coordinates>
            12.830003,57.698396,0
          </coordinates>
        </Point>
      </Placemark>
      <Placemark>
        <name>Ya Poh Empanadas</name>
        <description>Ya Poh Empanadas, Ullared</description>
        <styleUrl>#icon-22</styleUrl>
        <Point>
          <coordinates>
            12.831055,57.094745,0
          </coordinates>
        </Point>
      </Placemark>
      <Placemark>
        <name>Torsby Camping</name>
        <description>Torsby Camping, Torsby</description>
        <styleUrl>#icon-22</styleUrl>
        <Point>
          <coordinates>
            12.831551,60.140762,0
          </coordinates>
        </Point>
      </Placemark>
      <Placemark>
        <name>Tempo Kvibille</name>
        <description>Tempo Kvibille, Kvibille</description>
        <styleUrl>#icon-22</styleUrl>
        <Point>
          <coordinates>
            12.832521,56.782105,0
          </coordinates>
        </Point>
      </Placemark>
      <Placemark>
        <name>Sands Bakficka</name>
        <description>Sands Bakficka, Båstad</description>
        <styleUrl>#icon-22</styleUrl>
        <Point>
          <coordinates>
            12.83333,56.43333,0
          </coordinates>
        </Point>
      </Placemark>
      <Placemark>
        <name>Kust Café Och Catering I Falsterbo</name>
        <description>Kust Café Och Catering I Falsterbo, Falsterbo</description>
        <styleUrl>#icon-22</styleUrl>
        <Point>
          <coordinates>
            12.834401,55.391936,0
          </coordinates>
        </Point>
      </Placemark>
      <Placemark>
        <name>Nya Ladan</name>
        <description>Nya Ladan, Sjömarken</description>
        <styleUrl>#icon-22</styleUrl>
        <Point>
          <coordinates>
            12.834682,57.715651,0
          </coordinates>
        </Point>
      </Placemark>
      <Placemark>
        <name>Wapnö Butik</name>
        <description>Wapnö Butik, Halmstad</description>
        <styleUrl>#icon-22</styleUrl>
        <Point>
          <coordinates>
            12.840761,56.712979,0
          </coordinates>
        </Point>
      </Placemark>
      <Placemark>
        <name>Kapten Kajs Brygga</name>
        <description>Kapten Kajs Brygga, Ängelholm</description>
        <styleUrl>#icon-22</styleUrl>
        <Point>
          <coordinates>
            12.842129,56.268858,0
          </coordinates>
        </Point>
      </Placemark>
      <Placemark>
        <name>Verandan I Båstad</name>
        <description>Verandan I Båstad, Båstad</description>
        <styleUrl>#icon-22</styleUrl>
        <Point>
          <coordinates>
            12.847637,56.43014,0
          </coordinates>
        </Point>
      </Placemark>
      <Placemark>
        <name>Glassvagnen Torget</name>
        <description>Glassvagnen Torget, Halmstad</description>
        <styleUrl>#icon-22</styleUrl>
        <Point>
          <coordinates>
            12.85,56.66667,0
          </coordinates>
        </Point>
      </Placemark>
      <Placemark>
        <name>Bistro Perspektiv</name>
        <description>Bistro Perspektiv, Falsterbo</description>
        <styleUrl>#icon-22</styleUrl>
        <Point>
          <coordinates>
            12.850346,55.392882,0
          </coordinates>
        </Point>
      </Placemark>
      <Placemark>
        <name>Papa's Restaurang</name>
        <description>Papa's Restaurang, Halmstad</description>
        <styleUrl>#icon-22</styleUrl>
        <Point>
          <coordinates>
            12.853764,56.674573,0
          </coordinates>
        </Point>
      </Placemark>
      <Placemark>
        <name>Brooktorpsgården Café</name>
        <description>Brooktorpsgården Café, Halmstad</description>
        <styleUrl>#icon-22</styleUrl>
        <Point>
          <coordinates>
            12.855377,56.673804,0
          </coordinates>
        </Point>
      </Placemark>
      <Placemark>
        <name>Brooktorpsgården</name>
        <description>Brooktorpsgården, Halmstad</description>
        <styleUrl>#icon-22</styleUrl>
        <Point>
          <coordinates>
            12.855377,56.673804,0
          </coordinates>
        </Point>
      </Placemark>
      <Placemark>
        <name>Krav & Kram Rådhuset</name>
        <description>Krav & Kram Rådhuset, Halmstad</description>
        <styleUrl>#icon-22</styleUrl>
        <Point>
          <coordinates>
            12.856932,56.67275,0
          </coordinates>
        </Point>
      </Placemark>
      <Placemark>
        <name>Godisbutiken Tutti Frutti</name>
        <description>Godisbutiken Tutti Frutti, Halmstad</description>
        <styleUrl>#icon-22</styleUrl>
        <Point>
          <coordinates>
            12.858218,56.674657,0
          </coordinates>
        </Point>
      </Placemark>
      <Placemark>
        <name>Waynes Coffe</name>
        <description>Waynes Coffe, Halmstad</description>
        <styleUrl>#icon-22</styleUrl>
        <Point>
          <coordinates>
            12.858371,56.675093,0
          </coordinates>
        </Point>
      </Placemark>
      <Placemark>
        <name>Bulls Pub</name>
        <description>Bulls Pub, Halmstad</description>
        <styleUrl>#icon-22</styleUrl>
        <Point>
          <coordinates>
            12.858428,56.6766,0
          </coordinates>
        </Point>
      </Placemark>
      <Placemark>
        <name>Maxi Hyllinge</name>
        <description>Maxi Hyllinge, Hyllinge</description>
        <styleUrl>#icon-22</styleUrl>
        <Point>
          <coordinates>
            12.86098,56.100091,0
          </coordinates>
        </Point>
      </Placemark>
      <Placemark>
        <name>Hotell Continental</name>
        <description>Hotell Continental, Halmstad</description>
        <styleUrl>#icon-22</styleUrl>
        <Point>
          <coordinates>
            12.862053,56.670619,0
          </coordinates>
        </Point>
      </Placemark>
      <Placemark>
        <name>Hallands Konstmuseum</name>
        <description>Hallands Konstmuseum, Halmstad</description>
        <styleUrl>#icon-22</styleUrl>
        <Point>
          <coordinates>
            12.862103,56.680703,0
          </coordinates>
        </Point>
      </Placemark>
      <Placemark>
        <name>Asian Ten Express</name>
        <description>Asian Ten Express, Ängelholm</description>
        <styleUrl>#icon-22</styleUrl>
        <Point>
          <coordinates>
            12.862337,56.245089,0
          </coordinates>
        </Point>
      </Placemark>
      <Placemark>
        <name>Brasserie Loire</name>
        <description>Brasserie Loire, Halmstad</description>
        <styleUrl>#icon-22</styleUrl>
        <Point>
          <coordinates>
            12.862369,56.677433,0
          </coordinates>
        </Point>
      </Placemark>
      <Placemark>
        <name>Hallands Konstmuseum</name>
        <description>Hallands Konstmuseum, Halmstad</description>
        <styleUrl>#icon-22</styleUrl>
        <Point>
          <coordinates>
            12.86267,56.681523,0
          </coordinates>
        </Point>
      </Placemark>
      <Placemark>
        <name>24 Food Service</name>
        <description>24 Food Service, Halmstad</description>
        <styleUrl>#icon-22</styleUrl>
        <Point>
          <coordinates>
            12.864128,56.673297,0
          </coordinates>
        </Point>
      </Placemark>
      <Placemark>
        <name>Direkten</name>
        <description>Direkten, Göteborg</description>
        <styleUrl>#icon-22</styleUrl>
        <Point>
          <coordinates>
            12.865959,56.702091,0
          </coordinates>
        </Point>
      </Placemark>
      <Placemark>
        <name>Kärlekens Livs</name>
        <description>Kärlekens Livs, Halmstad</description>
        <styleUrl>#icon-22</styleUrl>
        <Point>
          <coordinates>
            12.866843,56.698524,0
          </coordinates>
        </Point>
      </Placemark>
      <Placemark>
        <name>Lumberjack Sysselebäck</name>
        <description>Lumberjack Sysselebäck, Sysslebäck</description>
        <styleUrl>#icon-22</styleUrl>
        <Point>
          <coordinates>
            12.871902,60.729691,0
          </coordinates>
        </Point>
      </Placemark>
      <Placemark>
        <name>Allmans</name>
        <description>Allmans, Borås</description>
        <styleUrl>#icon-22</styleUrl>
        <Point>
          <coordinates>
            12.874104,57.721313,0
          </coordinates>
        </Point>
      </Placemark>
      <Placemark>
        <name>Millesgården Eco Lodge</name>
        <description>Millesgården Eco Lodge, Duved</description>
        <styleUrl>#icon-22</styleUrl>
        <Point>
          <coordinates>
            12.874462,63.392482,0
          </coordinates>
        </Point>
      </Placemark>
      <Placemark>
        <name>Nyhems Servicehus</name>
        <description>Nyhems Servicehus, Halmstad</description>
        <styleUrl>#icon-22</styleUrl>
        <Point>
          <coordinates>
            12.877602,56.667393,0
          </coordinates>
        </Point>
      </Placemark>
      <Placemark>
        <name>ICA Maxi Högskolan Halmstad</name>
        <description>ICA Maxi Högskolan Halmstad, Halmstad</description>
        <styleUrl>#icon-22</styleUrl>
        <Point>
          <coordinates>
            12.877917,56.664822,0
          </coordinates>
        </Point>
      </Placemark>
      <Placemark>
        <name>Långbergets Sporthotell</name>
        <description>Långbergets Sporthotell, Sysslebäck</description>
        <styleUrl>#icon-22</styleUrl>
        <Point>
          <coordinates>
            12.879991,60.818234,0
          </coordinates>
        </Point>
      </Placemark>
      <Placemark>
        <name>Strandsnäckan</name>
        <description>Strandsnäckan, Halmstad</description>
        <styleUrl>#icon-22</styleUrl>
        <Point>
          <coordinates>
            12.881902,56.650879,0
          </coordinates>
        </Point>
      </Placemark>
      <Placemark>
        <name>Strand Cafet</name>
        <description>Strand Cafet, Halmstad</description>
        <styleUrl>#icon-22</styleUrl>
        <Point>
          <coordinates>
            12.883837,56.649359,0
          </coordinates>
        </Point>
      </Placemark>
      <Placemark>
        <name>Östras Kiosk Och Bangolf</name>
        <description>Östras Kiosk Och Bangolf, Halmstad</description>
        <styleUrl>#icon-22</styleUrl>
        <Point>
          <coordinates>
            12.884307,56.649222,0
          </coordinates>
        </Point>
      </Placemark>
      <Placemark>
        <name>Laxen Sk</name>
        <description>Laxen Sk, Halmstad</description>
        <styleUrl>#icon-22</styleUrl>
        <Point>
          <coordinates>
            12.888316,56.674542,0
          </coordinates>
        </Point>
      </Placemark>
      <Placemark>
        <name>Halmstad Hammers</name>
        <description>Halmstad Hammers, Halmstad</description>
        <styleUrl>#icon-22</styleUrl>
        <Point>
          <coordinates>
            12.889354,56.674358,0
          </coordinates>
        </Point>
      </Placemark>
      <Placemark>
        <name>Erikshjälpen Second Hand Halmstad</name>
        <description>Erikshjälpen Second Hand Halmstad, Halmstad</description>
        <styleUrl>#icon-22</styleUrl>
        <Point>
          <coordinates>
            12.900807,56.652565,0
          </coordinates>
        </Point>
      </Placemark>
      <Placemark>
        <name>Barsebäcks Hamnkrog</name>
        <description>Barsebäcks Hamnkrog, Barsebäck</description>
        <styleUrl>#icon-22</styleUrl>
        <Point>
          <coordinates>
            12.905017,55.755818,0
          </coordinates>
        </Point>
      </Placemark>
      <Placemark>
        <name>Erikshjälpen Second Hand Säffle</name>
        <description>Erikshjälpen Second Hand Säffle, Säffle</description>
        <styleUrl>#icon-22</styleUrl>
        <Point>
          <coordinates>
            12.905878,59.123232,0
          </coordinates>
        </Point>
      </Placemark>
      <Placemark>
        <name>Vallås Livs</name>
        <description>Vallås Livs, Halmstad</description>
        <styleUrl>#icon-22</styleUrl>
        <Point>
          <coordinates>
            12.908082,56.676466,0
          </coordinates>
        </Point>
      </Placemark>
      <Placemark>
        <name>Goldcity Gränegård</name>
        <description>Goldcity Gränegård, Holsjunga</description>
        <styleUrl>#icon-22</styleUrl>
        <Point>
          <coordinates>
            12.911614,57.377313,0
          </coordinates>
        </Point>
      </Placemark>
      <Placemark>
        <name>Värmskogs Servicepunkt</name>
        <description>Värmskogs Servicepunkt, Värmskog</description>
        <styleUrl>#icon-22</styleUrl>
        <Point>
          <coordinates>
            12.911668,59.452011,0
          </coordinates>
        </Point>
      </Placemark>
      <Placemark>
        <name>Ladugården Hantverk & Interiör</name>
        <description>Ladugården Hantverk & Interiör, Gräsmark</description>
        <styleUrl>#icon-22</styleUrl>
        <Point>
          <coordinates>
            12.912008,59.94621,0
          </coordinates>
        </Point>
      </Placemark>
      <Placemark>
        <name>Snöstorps Pizzeria</name>
        <description>Snöstorps Pizzeria, Halmstad</description>
        <styleUrl>#icon-22</styleUrl>
        <Point>
          <coordinates>
            12.912027,56.6709,0
          </coordinates>
        </Point>
      </Placemark>