<?xml version="1.0" encoding="UTF-8"?>
<kml xmlns="http://www.opengis.net/kml/2.2">
  <Document>
    <name><![CDATA[SIA Glass]]></name>
    <description/>
    <Style id="icon-22-normal"><IconStyle><scale>1.1</scale><Icon><href>https://www.gstatic.com/mapspro/images/stock/22-blue-dot.png</href></Icon><hotSpot x="16" xunits="pixels" y="32" yunits="insetPixels"/></IconStyle><LabelStyle><scale>0</scale></LabelStyle></Style>
    <Style id="icon-22-highlight"><IconStyle><scale>1.1</scale><Icon><href>https://www.gstatic.com/mapspro/images/stock/22-blue-dot.png</href></Icon><hotSpot x="16" xunits="pixels" y="32" yunits="insetPixels"/></IconStyle><LabelStyle><scale>1.1</scale></LabelStyle></Style>
    <StyleMap id="icon-22"><Pair><key>normal</key><styleUrl>#icon-22-normal</styleUrl></Pair><Pair><key>highlight</key><styleUrl>#icon-22-highlight</styleUrl></Pair></StyleMap>
    <Folder>
      <name><![CDATA[SIA Glass]]></name>
      <Placemark>
        <name><![CDATA[Bastes Kafe]]></name>
        <description><![CDATA[Bastes Kafe, Nord Kloster]]></description>
        <Point><coordinates>11.005582,58.898419,0</coordinates></Point>
        <styleUrl>#icon-22</styleUrl>
      </Placemark>
      <Placemark>
        <name><![CDATA[Sibirien Restaurang]]></name>
        <description><![CDATA[Sibirien Restaurang, Sydkoster/Strömstad]]></description>
        <Point><coordinates>11.007966,58.89143,0</coordinates></Point>
        <styleUrl>#icon-22</styleUrl>
      </Placemark>
      <Placemark>
        <name><![CDATA[Entré Saltö]]></name>
        <description><![CDATA[Entré Saltö, Strömstad]]></description>
        <Point><coordinates>11.135725,58.873869,0</coordinates></Point>
        <styleUrl>#icon-22</styleUrl>
      </Placemark>
      <Placemark>
        <name><![CDATA[Gött Mos I Strömstad]]></name>
        <description><![CDATA[Gött Mos I Strömstad, Strömstad]]></description>
        <Point><coordinates>11.170136,58.939759,0</coordinates></Point>
        <styleUrl>#icon-22</styleUrl>
      </Placemark>
      <Placemark>
        <name><![CDATA[Strandbaren I Strömstad]]></name>
        <description><![CDATA[Strandbaren I Strömstad, Strömstad]]></description>
        <Point><coordinates>11.170227,58.937989,0</coordinates></Point>
        <styleUrl>#icon-22</styleUrl>
      </Placemark>
      <Placemark>
        <name><![CDATA[Piren 1, Kungstrappan]]></name>
        <description><![CDATA[Piren 1, Kungstrappan, Strömstad]]></description>
        <Point><coordinates>11.170502,58.939373,0</coordinates></Point>
        <styleUrl>#icon-22</styleUrl>
      </Placemark>
      <Placemark>
        <name><![CDATA[Entré Rossö Hamncafé]]></name>
        <description><![CDATA[Entré Rossö Hamncafé, Rossö]]></description>
        <Point><coordinates>11.173133,58.855442,0</coordinates></Point>
        <styleUrl>#icon-22</styleUrl>
      </Placemark>
      <Placemark>
        <name><![CDATA[Sea Lodge Smögen]]></name>
        <description><![CDATA[Sea Lodge Smögen, Smögen]]></description>
        <Point><coordinates>11.230456,58.354789,0</coordinates></Point>
        <styleUrl>#icon-22</styleUrl>
      </Placemark>
      <Placemark>
        <name><![CDATA[Vallervikskiosken]]></name>
        <description><![CDATA[Vallervikskiosken, Smögen]]></description>
        <Point><coordinates>11.23194,58.36111,0</coordinates></Point>
        <styleUrl>#icon-22</styleUrl>
      </Placemark>
      <Placemark>
        <name><![CDATA[Buar Padel AB]]></name>
        <description><![CDATA[Buar Padel AB, Tanumshede]]></description>
        <Point><coordinates>11.238471,58.791687,0</coordinates></Point>
        <styleUrl>#icon-22</styleUrl>
      </Placemark>
      <Placemark>
        <name><![CDATA[Hamnbageriet]]></name>
        <description><![CDATA[Hamnbageriet, Kungshamn]]></description>
        <Point><coordinates>11.24928,58.361746,0</coordinates></Point>
        <styleUrl>#icon-22</styleUrl>
      </Placemark>
      <Placemark>
        <name><![CDATA[Hamngrillen]]></name>
        <description><![CDATA[Hamngrillen, Grebbestad]]></description>
        <Point><coordinates>11.25733,58.689132,0</coordinates></Point>
        <styleUrl>#icon-22</styleUrl>
      </Placemark>
      <Placemark>
        <name><![CDATA[La Boulangerie Bröd & Hav]]></name>
        <description><![CDATA[La Boulangerie Bröd & Hav, Grebbestad]]></description>
        <Point><coordinates>11.258478,58.684197,0</coordinates></Point>
        <styleUrl>#icon-22</styleUrl>
      </Placemark>
      <Placemark>
        <name><![CDATA[Tobaksvagnen]]></name>
        <description><![CDATA[Tobaksvagnen, Stömstad]]></description>
        <Point><coordinates>11.265903,59.089363,0</coordinates></Point>
        <styleUrl>#icon-22</styleUrl>
      </Placemark>
      <Placemark>
        <name><![CDATA[Lyckans Jordgubbscafé]]></name>
        <description><![CDATA[Lyckans Jordgubbscafé, Hunnebostrand]]></description>
        <Point><coordinates>11.38348,58.417973,0</coordinates></Point>
        <styleUrl>#icon-22</styleUrl>
      </Placemark>
      <Placemark>
        <name><![CDATA[Gullholmsbaden]]></name>
        <description><![CDATA[Gullholmsbaden, Gullholmen]]></description>
        <Point><coordinates>11.401645,58.175036,0</coordinates></Point>
        <styleUrl>#icon-22</styleUrl>
      </Placemark>
      <Placemark>
        <name><![CDATA[Stockens Camping]]></name>
        <description><![CDATA[Stockens Camping, Ellös]]></description>
        <Point><coordinates>11.421541,58.147438,0</coordinates></Point>
        <styleUrl>#icon-22</styleUrl>
      </Placemark>
      <Placemark>
        <name><![CDATA[Hamncafét Lysekil]]></name>
        <description><![CDATA[Hamncafét Lysekil, Lysekil]]></description>
        <Point><coordinates>11.425499,58.275984,0</coordinates></Point>
        <styleUrl>#icon-22</styleUrl>
      </Placemark>
      <Placemark>
        <name><![CDATA[Verandan Havets Hus]]></name>
        <description><![CDATA[Verandan Havets Hus, Lysekil]]></description>
        <Point><coordinates>11.431944,58.268978,0</coordinates></Point>
        <styleUrl>#icon-22</styleUrl>
      </Placemark>
      <Placemark>
        <name><![CDATA[Café Kungsgatan]]></name>
        <description><![CDATA[Café Kungsgatan, Lysekil]]></description>
        <Point><coordinates>11.433759,58.274447,0</coordinates></Point>
        <styleUrl>#icon-22</styleUrl>
      </Placemark>
      <Placemark>
        <name><![CDATA[Pizzeria Milano]]></name>
        <description><![CDATA[Pizzeria Milano, Lysekil]]></description>
        <Point><coordinates>11.433839,58.26925,0</coordinates></Point>
        <styleUrl>#icon-22</styleUrl>
      </Placemark>
      <Placemark>
        <name><![CDATA[Pizzeria Lysekil]]></name>
        <description><![CDATA[Pizzeria Lysekil, Lysekil]]></description>
        <Point><coordinates>11.435586,58.274236,0</coordinates></Point>
        <styleUrl>#icon-22</styleUrl>
      </Placemark>
      <Placemark>
        <name><![CDATA[Röe Gård]]></name>
        <description><![CDATA[Röe Gård, Brastad]]></description>
        <Point><coordinates>11.437477,58.41624,0</coordinates></Point>
        <styleUrl>#icon-22</styleUrl>
      </Placemark>
      <Placemark>
        <name><![CDATA[Artans Restaurang]]></name>
        <description><![CDATA[Artans Restaurang, Lysekil]]></description>
        <Point><coordinates>11.437823,58.273312,0</coordinates></Point>
        <styleUrl>#icon-22</styleUrl>
      </Placemark>
      <Placemark>
        <name><![CDATA[Gullmarsstrand Hotell & Konferens]]></name>
        <description><![CDATA[Gullmarsstrand Hotell & Konferens, Fiskebäckskil]]></description>
        <Point><coordinates>11.45722,58.248848,0</coordinates></Point>
        <styleUrl>#icon-22</styleUrl>
      </Placemark>
      <Placemark>
        <name><![CDATA[Glasscaféet I Mollösund]]></name>
        <description><![CDATA[Glasscaféet I Mollösund, Mollösund]]></description>
        <Point><coordinates>11.470632,58.072399,0</coordinates></Point>
        <styleUrl>#icon-22</styleUrl>
      </Placemark>
      <Placemark>
        <name><![CDATA[Orust Golfrestaurang]]></name>
        <description><![CDATA[Orust Golfrestaurang, Ellös]]></description>
        <Point><coordinates>11.503306,58.194958,0</coordinates></Point>
        <styleUrl>#icon-22</styleUrl>
      </Placemark>
      <Placemark>
        <name><![CDATA[Sommardröm]]></name>
        <description><![CDATA[Sommardröm, Skärhamn]]></description>
        <Point><coordinates>11.545376,57.987099,0</coordinates></Point>
        <styleUrl>#icon-22</styleUrl>
      </Placemark>
      <Placemark>
        <name><![CDATA[5 Knop]]></name>
        <description><![CDATA[5 Knop, Skärhamn]]></description>
        <Point><coordinates>11.546678,57.989807,0</coordinates></Point>
        <styleUrl>#icon-22</styleUrl>
      </Placemark>
      <Placemark>
        <name><![CDATA[Fossen Camping]]></name>
        <description><![CDATA[Fossen Camping, Uddevalla]]></description>
        <Point><coordinates>11.565039,58.317325,0</coordinates></Point>
        <styleUrl>#icon-22</styleUrl>
      </Placemark>
      <Placemark>
        <name><![CDATA[Bokenäset Hotell & Konferens]]></name>
        <description><![CDATA[Bokenäset Hotell & Konferens, Uddevalla]]></description>
        <Point><coordinates>11.598042,58.261263,0</coordinates></Point>
        <styleUrl>#icon-22</styleUrl>
      </Placemark>
      <Placemark>
        <name><![CDATA[Marstrand Familjecamping]]></name>
        <description><![CDATA[Marstrand Familjecamping, Långedalsvägen 16]]></description>
        <Point><coordinates>11.604811,57.893835,0</coordinates></Point>
        <styleUrl>#icon-22</styleUrl>
      </Placemark>
      <Placemark>
        <name><![CDATA[Linas Brygga]]></name>
        <description><![CDATA[Linas Brygga, Dyrön]]></description>
        <Point><coordinates>11.608883,57.926397,0</coordinates></Point>
        <styleUrl>#icon-22</styleUrl>
      </Placemark>
      <Placemark>
        <name><![CDATA[Strandverket Café & Butik]]></name>
        <description><![CDATA[Strandverket Café & Butik, Marstrand]]></description>
        <Point><coordinates>11.612963,57.926719,0</coordinates></Point>
        <styleUrl>#icon-22</styleUrl>
      </Placemark>
      <Placemark>
        <name><![CDATA[Aleks Bageri]]></name>
        <description><![CDATA[Aleks Bageri, Hönö]]></description>
        <Point><coordinates>11.644557,57.680666,0</coordinates></Point>
        <styleUrl>#icon-22</styleUrl>
      </Placemark>
      <Placemark>
        <name><![CDATA[Hotell Trubaduren Hönö]]></name>
        <description><![CDATA[Hotell Trubaduren Hönö, Hönö]]></description>
        <Point><coordinates>11.644756,57.680459,0</coordinates></Point>
        <styleUrl>#icon-22</styleUrl>
      </Placemark>
      <Placemark>
        <name><![CDATA[Den Glade Knoden]]></name>
        <description><![CDATA[Den Glade Knoden, Källö-Knippla]]></description>
        <Point><coordinates>11.651572,57.749594,0</coordinates></Point>
        <styleUrl>#icon-22</styleUrl>
      </Placemark>
      <Placemark>
        <name><![CDATA[Nimbusgården]]></name>
        <description><![CDATA[Nimbusgården, Öckerö]]></description>
        <Point><coordinates>11.660761,57.709807,0</coordinates></Point>
        <styleUrl>#icon-22</styleUrl>
      </Placemark>
      <Placemark>
        <name><![CDATA[Sundsby Gårdscafé Restaurang & Butik]]></name>
        <description><![CDATA[Sundsby Gårdscafé Restaurang & Butik, Hjälteby]]></description>
        <Point><coordinates>11.689113,58.07045,0</coordinates></Point>
        <styleUrl>#icon-22</styleUrl>
      </Placemark>
      <Placemark>
        <name><![CDATA[Stallgården Krog & Kafé]]></name>
        <description><![CDATA[Stallgården Krog & Kafé, Uddevalla]]></description>
        <Point><coordinates>11.70188,58.343857,0</coordinates></Point>
        <styleUrl>#icon-22</styleUrl>
      </Placemark>
      <Placemark>
        <name><![CDATA[Saltkällans Badkiosk]]></name>
        <description><![CDATA[Saltkällans Badkiosk, Munkedal]]></description>
        <Point><coordinates>11.703668,58.431197,0</coordinates></Point>
        <styleUrl>#icon-22</styleUrl>
      </Placemark>
      <Placemark>
        <name><![CDATA[Bergholtz Trädgård & Hantverk]]></name>
        <description><![CDATA[Bergholtz Trädgård & Hantverk, Henån]]></description>
        <Point><coordinates>11.720725,58.248064,0</coordinates></Point>
        <styleUrl>#icon-22</styleUrl>
      </Placemark>
      <Placemark>
        <name><![CDATA[Bistro Go Mat]]></name>
        <description><![CDATA[Bistro Go Mat, Uddevalla]]></description>
        <Point><coordinates>11.769498,58.368225,0</coordinates></Point>
        <styleUrl>#icon-22</styleUrl>
      </Placemark>
      <Placemark>
        <name><![CDATA[Uddevalla GK]]></name>
        <description><![CDATA[Uddevalla GK, Uddevalla]]></description>
        <Point><coordinates>11.769498,58.368225,0</coordinates></Point>
        <styleUrl>#icon-22</styleUrl>
      </Placemark>
      <Placemark>
        <name><![CDATA[Södra Skärgårdens Café Göteborg]]></name>
        <description><![CDATA[Södra Skärgårdens Café Göteborg, Vrångö]]></description>
        <Point><coordinates>11.790562,57.568663,0</coordinates></Point>
        <styleUrl>#icon-22</styleUrl>
      </Placemark>
      <Placemark>
        <name><![CDATA[Gotteposten Kärna]]></name>
        <description><![CDATA[Gotteposten Kärna, Kärna]]></description>
        <Point><coordinates>11.791342,57.844802,0</coordinates></Point>
        <styleUrl>#icon-22</styleUrl>
      </Placemark>
      <Placemark>
        <name><![CDATA[Grandmas House]]></name>
        <description><![CDATA[Grandmas House, Torslanda]]></description>
        <Point><coordinates>11.794202,57.730606,0</coordinates></Point>
        <styleUrl>#icon-22</styleUrl>
      </Placemark>
      <Placemark>
        <name><![CDATA[Affären På Asperö]]></name>
        <description><![CDATA[Affären På Asperö, Asperö]]></description>
        <Point><coordinates>11.795141,57.649107,0</coordinates></Point>
        <styleUrl>#icon-22</styleUrl>
      </Placemark>
      <Placemark>
        <name><![CDATA[Stenungsöns Kök & Bar]]></name>
        <description><![CDATA[Stenungsöns Kök & Bar, Stenungsund]]></description>
        <Point><coordinates>11.802322,58.072481,0</coordinates></Point>
        <styleUrl>#icon-22</styleUrl>
      </Placemark>
      <Placemark>
        <name><![CDATA[Waynes Coffee Torp Köpcentrum]]></name>
        <description><![CDATA[Waynes Coffee Torp Köpcentrum, Uddevalla]]></description>
        <Point><coordinates>11.809136,58.352344,0</coordinates></Point>
        <styleUrl>#icon-22</styleUrl>
      </Placemark>
      <Placemark>
        <name><![CDATA[Volvomuseet]]></name>
        <description><![CDATA[Volvomuseet, Göteborg]]></description>
        <Point><coordinates>11.816139,57.694607,0</coordinates></Point>
        <styleUrl>#icon-22</styleUrl>
      </Placemark>
      <Placemark>
        <name><![CDATA[Bröbacken Café]]></name>
        <description><![CDATA[Bröbacken Café, Svanesund]]></description>
        <Point><coordinates>11.820203,58.142591,0</coordinates></Point>
        <styleUrl>#icon-22</styleUrl>
      </Placemark>
      <Placemark>
        <name><![CDATA[Unda Livs]]></name>
        <description><![CDATA[Unda Livs, Uddevalla]]></description>
        <Point><coordinates>11.82421,58.330176,0</coordinates></Point>
        <styleUrl>#icon-22</styleUrl>
      </Placemark>
      <Placemark>
        <name><![CDATA[Ulkeröds Gård]]></name>
        <description><![CDATA[Ulkeröds Gård, Hedekas]]></description>
        <Point><coordinates>11.849094,58.661982,0</coordinates></Point>
        <styleUrl>#icon-22</styleUrl>
      </Placemark>
      <Placemark>
        <name><![CDATA[Cafe Utsikten Ödsmålsbron]]></name>
        <description><![CDATA[Cafe Utsikten Ödsmålsbron, Ödsmål]]></description>
        <Point><coordinates>11.880425,58.113048,0</coordinates></Point>
        <styleUrl>#icon-22</styleUrl>
      </Placemark>
      <Placemark>
        <name><![CDATA[Restaurang Reveljen]]></name>
        <description><![CDATA[Restaurang Reveljen, Västra Frölunda]]></description>
        <Point><coordinates>11.891972,57.68518,0</coordinates></Point>
        <styleUrl>#icon-22</styleUrl>
      </Placemark>
      <Placemark>
        <name><![CDATA[Dockyard Hotel]]></name>
        <description><![CDATA[Dockyard Hotel, Västra Frölunda]]></description>
        <Point><coordinates>11.89368,57.685822,0</coordinates></Point>
        <styleUrl>#icon-22</styleUrl>
      </Placemark>
      <Placemark>
        <name><![CDATA[Viking Yachting]]></name>
        <description><![CDATA[Viking Yachting, Västra Frölunda]]></description>
        <Point><coordinates>11.895615,57.662111,0</coordinates></Point>
        <styleUrl>#icon-22</styleUrl>
      </Placemark>
      <Placemark>
        <name><![CDATA[Solsidan Åkered]]></name>
        <description><![CDATA[Solsidan Åkered, Västra Frölunda]]></description>
        <Point><coordinates>11.896272,57.635296,0</coordinates></Point>
        <styleUrl>#icon-22</styleUrl>
      </Placemark>
      <Placemark>
        <name><![CDATA[Stora Holms Säteri Butik]]></name>
        <description><![CDATA[Stora Holms Säteri Butik, Göteborg]]></description>
        <Point><coordinates>11.90685,57.772948,0</coordinates></Point>
        <styleUrl>#icon-22</styleUrl>
      </Placemark>
      <Placemark>
        <name><![CDATA[Frölunda Kulturhus]]></name>
        <description><![CDATA[Frölunda Kulturhus, Västra Frölunda]]></description>
        <Point><coordinates>11.909528,57.653891,0</coordinates></Point>
        <styleUrl>#icon-22</styleUrl>
      </Placemark>
      <Placemark>
        <name><![CDATA[Allt I Godis Eriksberg]]></name>
        <description><![CDATA[Allt I Godis Eriksberg, Göteborg]]></description>
        <Point><coordinates>11.913565,57.700248,0</coordinates></Point>
        <styleUrl>#icon-22</styleUrl>
      </Placemark>
      <Placemark>
        <name><![CDATA[Eriksbergs Gastronomia]]></name>
        <description><![CDATA[Eriksbergs Gastronomia, Göteborg]]></description>
        <Point><coordinates>11.913676,57.701632,0</coordinates></Point>
        <styleUrl>#icon-22</styleUrl>
      </Placemark>
      <Placemark>
        <name><![CDATA[Majornas Sweets]]></name>
        <description><![CDATA[Majornas Sweets, Göteborg]]></description>
        <Point><coordinates>11.915235,57.68805,0</coordinates></Point>
        <styleUrl>#icon-22</styleUrl>
      </Placemark>
      <Placemark>
        <name><![CDATA[Fiskhuset Svana]]></name>
        <description><![CDATA[Fiskhuset Svana, Göteborg]]></description>
        <Point><coordinates>11.91653,57.701243,0</coordinates></Point>
        <styleUrl>#icon-22</styleUrl>
      </Placemark>
      <Placemark>
        <name><![CDATA[Laxbutiken Ljungskile]]></name>
        <description><![CDATA[Laxbutiken Ljungskile, Ljungskile]]></description>
        <Point><coordinates>11.916634,58.222485,0</coordinates></Point>
        <styleUrl>#icon-22</styleUrl>
      </Placemark>
      <Placemark>
        <name><![CDATA[Lerkilsbaren]]></name>
        <description><![CDATA[Lerkilsbaren, Vallda]]></description>
        <Point><coordinates>11.916856,57.455573,0</coordinates></Point>
        <styleUrl>#icon-22</styleUrl>
      </Placemark>
      <Placemark>
        <name><![CDATA[Askimbadet Glasscafe O Bangolf]]></name>
        <description><![CDATA[Askimbadet Glasscafe O Bangolf, Askim]]></description>
        <Point><coordinates>11.929336,57.625294,0</coordinates></Point>
        <styleUrl>#icon-22</styleUrl>
      </Placemark>
      <Placemark>
        <name><![CDATA[Wards Konditori]]></name>
        <description><![CDATA[Wards Konditori, Uddevalla]]></description>
        <Point><coordinates>11.93472,58.350099,0</coordinates></Point>
        <styleUrl>#icon-22</styleUrl>
      </Placemark>
      <Placemark>
        <name><![CDATA[Hisingen Sweet House]]></name>
        <description><![CDATA[Hisingen Sweet House, Göteborg]]></description>
        <Point><coordinates>11.93506,57.727252,0</coordinates></Point>
        <styleUrl>#icon-22</styleUrl>
      </Placemark>
      <Placemark>
        <name><![CDATA[Fit Food Fun]]></name>
        <description><![CDATA[Fit Food Fun, Särö]]></description>
        <Point><coordinates>11.940231,57.505499,0</coordinates></Point>
        <styleUrl>#icon-22</styleUrl>
      </Placemark>
      <Placemark>
        <name><![CDATA[Paradise Corner]]></name>
        <description><![CDATA[Paradise Corner, Göteborg]]></description>
        <Point><coordinates>11.941592,57.695599,0</coordinates></Point>
        <styleUrl>#icon-22</styleUrl>
      </Placemark>
      <Placemark>
        <name><![CDATA[Café Kullafik]]></name>
        <description><![CDATA[Café Kullafik, Kullavik]]></description>
        <Point><coordinates>11.946671,57.546431,0</coordinates></Point>
        <styleUrl>#icon-22</styleUrl>
      </Placemark>
      <Placemark>
        <name><![CDATA[Aloha Poke]]></name>
        <description><![CDATA[Aloha Poke, Kullavik]]></description>
        <Point><coordinates>11.946671,57.546431,0</coordinates></Point>
        <styleUrl>#icon-22</styleUrl>
      </Placemark>
      <Placemark>
        <name><![CDATA[Göteborgs Naturhistoriska Museum]]></name>
        <description><![CDATA[Göteborgs Naturhistoriska Museum, Göteborg]]></description>
        <Point><coordinates>11.949011,57.689177,0</coordinates></Point>
        <styleUrl>#icon-22</styleUrl>
      </Placemark>
      <Placemark>
        <name><![CDATA[Gött & Borg]]></name>
        <description><![CDATA[Gött & Borg, Göteborg]]></description>
        <Point><coordinates>11.952092,57.693627,0</coordinates></Point>
        <styleUrl>#icon-22</styleUrl>
      </Placemark>
      <Placemark>
        <name><![CDATA[7 O Clock]]></name>
        <description><![CDATA[7 O Clock, Göteborg]]></description>
        <Point><coordinates>11.952445,57.690202,0</coordinates></Point>
        <styleUrl>#icon-22</styleUrl>
      </Placemark>
      <Placemark>
        <name><![CDATA[Cafe Lille Prinsen]]></name>
        <description><![CDATA[Cafe Lille Prinsen, Göteborg]]></description>
        <Point><coordinates>11.95297,57.693055,0</coordinates></Point>
        <styleUrl>#icon-22</styleUrl>
      </Placemark>
      <Placemark>
        <name><![CDATA[Creperie & Logi Göteborg]]></name>
        <description><![CDATA[Creperie & Logi Göteborg, Göteborg]]></description>
        <Point><coordinates>11.957457,57.694596,0</coordinates></Point>
        <styleUrl>#icon-22</styleUrl>
      </Placemark>
      <Placemark>
        <name><![CDATA[Maritiman]]></name>
        <description><![CDATA[Maritiman, Göteborg]]></description>
        <Point><coordinates>11.960662,57.708714,0</coordinates></Point>
        <styleUrl>#icon-22</styleUrl>
      </Placemark>
      <Placemark>
        <name><![CDATA[Tanjas Food And Talk]]></name>
        <description><![CDATA[Tanjas Food And Talk, Uddevalla]]></description>
        <Point><coordinates>11.962952,58.355434,0</coordinates></Point>
        <styleUrl>#icon-22</styleUrl>
      </Placemark>
      <Placemark>
        <name><![CDATA[Göteborgs Choklad & Karamellfabrik]]></name>
        <description><![CDATA[Göteborgs Choklad & Karamellfabrik, Göteborg]]></description>
        <Point><coordinates>11.963275,57.707598,0</coordinates></Point>
        <styleUrl>#icon-22</styleUrl>
      </Placemark>
      <Placemark>
        <name><![CDATA[Glassbåten MS Eire]]></name>
        <description><![CDATA[Glassbåten MS Eire, Göteborg]]></description>
        <Point><coordinates>11.96667,57.70694,0</coordinates></Point>
        <styleUrl>#icon-22</styleUrl>
      </Placemark>
      <Placemark>
        <name><![CDATA[Cafe Estelle]]></name>
        <description><![CDATA[Cafe Estelle, Göteborg]]></description>
        <Point><coordinates>11.972405,57.68403,0</coordinates></Point>
        <styleUrl>#icon-22</styleUrl>
      </Placemark>
      <Placemark>
        <name><![CDATA[Skrotfrag]]></name>
        <description><![CDATA[Skrotfrag, Uddevalla]]></description>
        <Point><coordinates>11.977062,58.366749,0</coordinates></Point>
        <styleUrl>#icon-22</styleUrl>
      </Placemark>
      <Placemark>
        <name><![CDATA[Gaffelkonst Restaurang]]></name>
        <description><![CDATA[Gaffelkonst Restaurang, Göteborg]]></description>
        <Point><coordinates>11.978933,57.705049,0</coordinates></Point>
        <styleUrl>#icon-22</styleUrl>
      </Placemark>
      <Placemark>
        <name><![CDATA[Johannebergs Matbutik]]></name>
        <description><![CDATA[Johannebergs Matbutik, Göteborg]]></description>
        <Point><coordinates>11.980112,57.692576,0</coordinates></Point>
        <styleUrl>#icon-22</styleUrl>
      </Placemark>
      <Placemark>
        <name><![CDATA[Mona Livs]]></name>
        <description><![CDATA[Mona Livs, Göteborg]]></description>
        <Point><coordinates>11.982513,57.686795,0</coordinates></Point>
        <styleUrl>#icon-22</styleUrl>
      </Placemark>
      <Placemark>
        <name><![CDATA[Berzelii Café]]></name>
        <description><![CDATA[Berzelii Café, Göteborg]]></description>
        <Point><coordinates>11.982748,57.699187,0</coordinates></Point>
        <styleUrl>#icon-22</styleUrl>
      </Placemark>
      <Placemark>
        <name><![CDATA[Bubbles & Fries]]></name>
        <description><![CDATA[Bubbles & Fries, Göteborg]]></description>
        <Point><coordinates>11.983894,57.701842,0</coordinates></Point>
        <styleUrl>#icon-22</styleUrl>
      </Placemark>
      <Placemark>
        <name><![CDATA[Cozy Café]]></name>
        <description><![CDATA[Cozy Café, Kungälv]]></description>
        <Point><coordinates>11.984114,57.869351,0</coordinates></Point>
        <styleUrl>#icon-22</styleUrl>
      </Placemark>
      <Placemark>
        <name><![CDATA[Domi Cafe]]></name>
        <description><![CDATA[Domi Cafe, Göteborg]]></description>
        <Point><coordinates>11.987117,57.694064,0</coordinates></Point>
        <styleUrl>#icon-22</styleUrl>
      </Placemark>
      <Placemark>
        <name><![CDATA[Universeum]]></name>
        <description><![CDATA[Universeum, Göteborg]]></description>
        <Point><coordinates>11.988343,57.69585,0</coordinates></Point>
        <styleUrl>#icon-22</styleUrl>
      </Placemark>
      <Placemark>
        <name><![CDATA[Heta Bönan Café]]></name>
        <description><![CDATA[Heta Bönan Café, Färgelanda]]></description>
        <Point><coordinates>11.995925,58.568292,0</coordinates></Point>
        <styleUrl>#icon-22</styleUrl>
      </Placemark>
      <Placemark>
        <name><![CDATA[Limon Café]]></name>
        <description><![CDATA[Limon Café, Göteborg]]></description>
        <Point><coordinates>12.002036,57.678087,0</coordinates></Point>
        <styleUrl>#icon-22</styleUrl>
      </Placemark>
      <Placemark>
        <name><![CDATA[Salladshörnan]]></name>
        <description><![CDATA[Salladshörnan, Göteborg]]></description>
        <Point><coordinates>12.002321,57.680186,0</coordinates></Point>
        <styleUrl>#icon-22</styleUrl>
      </Placemark>
      <Placemark>
        <name><![CDATA[Åby Hotel]]></name>
        <description><![CDATA[Åby Hotel, Mölndal]]></description>
        <Point><coordinates>12.003241,57.649148,0</coordinates></Point>
        <styleUrl>#icon-22</styleUrl>
      </Placemark>
      <Placemark>
        <name><![CDATA[Åbytravet]]></name>
        <description><![CDATA[Åbytravet, Mölndal]]></description>
        <Point><coordinates>12.004757,57.650874,0</coordinates></Point>
        <styleUrl>#icon-22</styleUrl>
      </Placemark>
      <Placemark>
        <name><![CDATA[Göteborgs Pepparkaksbageri]]></name>
        <description><![CDATA[Göteborgs Pepparkaksbageri, Göteborg]]></description>
        <Point><coordinates>12.005471,57.690537,0</coordinates></Point>
        <styleUrl>#icon-22</styleUrl>
      </Placemark>
      <Placemark>
        <name><![CDATA[Al Basha Gbg]]></name>
        <description><![CDATA[Al Basha Gbg, Göteborg]]></description>
        <Point><coordinates>12.00834,57.742643,0</coordinates></Point>
        <styleUrl>#icon-22</styleUrl>
      </Placemark>
      <Placemark>
        <name><![CDATA[Träffpunktens Sommarcafé]]></name>
        <description><![CDATA[Träffpunktens Sommarcafé, Mölndal]]></description>
        <Point><coordinates>12.012571,57.657222,0</coordinates></Point>
        <styleUrl>#icon-22</styleUrl>
      </Placemark>
      <Placemark>
        <name><![CDATA[Hanis Café & Konditori]]></name>
        <description><![CDATA[Hanis Café & Konditori, Mölndal]]></description>
        <Point><coordinates>12.014795,57.655721,0</coordinates></Point>
        <styleUrl>#icon-22</styleUrl>
      </Placemark>
      <Placemark>
        <name><![CDATA[Chokoglad Bellevue]]></name>
        <description><![CDATA[Chokoglad Bellevue, Göteborg]]></description>
        <Point><coordinates>12.024176,57.731958,0</coordinates></Point>
        <styleUrl>#icon-22</styleUrl>
      </Placemark>
      <Placemark>
        <name><![CDATA[Noas Ark Onsala]]></name>
        <description><![CDATA[Noas Ark Onsala, Onsala]]></description>
        <Point><coordinates>12.028231,57.414881,0</coordinates></Point>
        <styleUrl>#icon-22</styleUrl>
      </Placemark>
      <Placemark>
        <name><![CDATA[Forscaféet]]></name>
        <description><![CDATA[Forscaféet, Mölndal]]></description>
        <Point><coordinates>12.032086,57.657719,0</coordinates></Point>
        <styleUrl>#icon-22</styleUrl>
      </Placemark>
      <Placemark>
        <name><![CDATA[Barista Café]]></name>
        <description><![CDATA[Barista Café, Göteborg]]></description>
        <Point><coordinates>12.032174,57.751536,0</coordinates></Point>
        <styleUrl>#icon-22</styleUrl>
      </Placemark>
      <Placemark>
        <name><![CDATA[Erikshjälpen]]></name>
        <description><![CDATA[Erikshjälpen, Göteborg]]></description>
        <Point><coordinates>12.033386,57.753569,0</coordinates></Point>
        <styleUrl>#icon-22</styleUrl>
      </Placemark>
      <Placemark>
        <name><![CDATA[Björkekärrshus Äldreboende]]></name>
        <description><![CDATA[Björkekärrshus Äldreboende, Göteborg]]></description>
        <Point><coordinates>12.044746,57.713922,0</coordinates></Point>
        <styleUrl>#icon-22</styleUrl>
      </Placemark>
      <Placemark>
        <name><![CDATA[Kandy Z Kållered]]></name>
        <description><![CDATA[Kandy Z Kållered, Kållered]]></description>
        <Point><coordinates>12.046652,57.610767,0</coordinates></Point>
        <styleUrl>#icon-22</styleUrl>
      </Placemark>
      <Placemark>
        <name><![CDATA[Utbynäs SK]]></name>
        <description><![CDATA[Utbynäs SK, Göteborg]]></description>
        <Point><coordinates>12.053618,57.734991,0</coordinates></Point>
        <styleUrl>#icon-22</styleUrl>
      </Placemark>
      <Placemark>
        <name><![CDATA[Lilla Laxen Drive In & Restaurang]]></name>
        <description><![CDATA[Lilla Laxen Drive In & Restaurang, Kungsbacka]]></description>
        <Point><coordinates>12.059253,57.474318,0</coordinates></Point>
        <styleUrl>#icon-22</styleUrl>
      </Placemark>
      <Placemark>
        <name><![CDATA[Örtgården]]></name>
        <description><![CDATA[Örtgården, Uddevalla]]></description>
        <Point><coordinates>12.059422,58.394551,0</coordinates></Point>
        <styleUrl>#icon-22</styleUrl>
      </Placemark>
      <Placemark>
        <name><![CDATA[Total Harmoni]]></name>
        <description><![CDATA[Total Harmoni, Kållered]]></description>
        <Point><coordinates>12.063293,57.610409,0</coordinates></Point>
        <styleUrl>#icon-22</styleUrl>
      </Placemark>
      <Placemark>
        <name><![CDATA[Landet Ingenstans]]></name>
        <description><![CDATA[Landet Ingenstans, Kungsbacka]]></description>
        <Point><coordinates>12.073957,57.486626,0</coordinates></Point>
        <styleUrl>#icon-22</styleUrl>
      </Placemark>
      <Placemark>
        <name><![CDATA[Lindas Tips & Trav]]></name>
        <description><![CDATA[Lindas Tips & Trav, Kungsbacka]]></description>
        <Point><coordinates>12.075988,57.487269,0</coordinates></Point>
        <styleUrl>#icon-22</styleUrl>
      </Placemark>
      <Placemark>
        <name><![CDATA[Erikshjälpen Second Hand Kungsbacka]]></name>
        <description><![CDATA[Erikshjälpen Second Hand Kungsbacka, Kungsbacka]]></description>
        <Point><coordinates>12.077257,57.503128,0</coordinates></Point>
        <styleUrl>#icon-22</styleUrl>
      </Placemark>
      <Placemark>
        <name><![CDATA[Glassboden I Parken]]></name>
        <description><![CDATA[Glassboden I Parken, Kungsbacka]]></description>
        <Point><coordinates>12.077763,57.489129,0</coordinates></Point>
        <styleUrl>#icon-22</styleUrl>
      </Placemark>
      <Placemark>
        <name><![CDATA[Signehus ÄBO]]></name>
        <description><![CDATA[Signehus ÄBO, Kungsbacka]]></description>
        <Point><coordinates>12.077927,57.497775,0</coordinates></Point>
        <styleUrl>#icon-22</styleUrl>
      </Placemark>
      <Placemark>
        <name><![CDATA[Café Röda Stugan]]></name>
        <description><![CDATA[Café Röda Stugan, Kungsbacka]]></description>
        <Point><coordinates>12.077959,57.487427,0</coordinates></Point>
        <styleUrl>#icon-22</styleUrl>
      </Placemark>
      <Placemark>
        <name><![CDATA[Lindome Järn Bygg Foder]]></name>
        <description><![CDATA[Lindome Järn Bygg Foder, Lindome]]></description>
        <Point><coordinates>12.081135,57.574605,0</coordinates></Point>
        <styleUrl>#icon-22</styleUrl>
      </Placemark>
      <Placemark>
        <name><![CDATA[Lasses Glassvagn]]></name>
        <description><![CDATA[Lasses Glassvagn, Åsa]]></description>
        <Point><coordinates>12.083541,57.342933,0</coordinates></Point>
        <styleUrl>#icon-22</styleUrl>
      </Placemark>
      <Placemark>
        <name><![CDATA[Tjolöholms Slott]]></name>
        <description><![CDATA[Tjolöholms Slott, Fjärås]]></description>
        <Point><coordinates>12.102977,57.398633,0</coordinates></Point>
        <styleUrl>#icon-22</styleUrl>
      </Placemark>
      <Placemark>
        <name><![CDATA[Lerbergs Lunch & Gårdscafe]]></name>
        <description><![CDATA[Lerbergs Lunch & Gårdscafe, Kungsbacka]]></description>
        <Point><coordinates>12.109131,57.533778,0</coordinates></Point>
        <styleUrl>#icon-22</styleUrl>
      </Placemark>
      <Placemark>
        <name><![CDATA[Rodins Bistro]]></name>
        <description><![CDATA[Rodins Bistro, Storlien]]></description>
        <Point><coordinates>12.110102,63.309409,0</coordinates></Point>
        <styleUrl>#icon-22</styleUrl>
      </Placemark>
      <Placemark>
        <name><![CDATA[Kock Malin]]></name>
        <description><![CDATA[Kock Malin, Älvängen]]></description>
        <Point><coordinates>12.120868,57.958112,0</coordinates></Point>
        <styleUrl>#icon-22</styleUrl>
      </Placemark>
      <Placemark>
        <name><![CDATA[Åsa Glasscafé]]></name>
        <description><![CDATA[Åsa Glasscafé, Åsa]]></description>
        <Point><coordinates>12.123006,57.349309,0</coordinates></Point>
        <styleUrl>#icon-22</styleUrl>
      </Placemark>
      <Placemark>
        <name><![CDATA[Löftadelens Folkehögskola]]></name>
        <description><![CDATA[Löftadelens Folkehögskola, Åsa]]></description>
        <Point><coordinates>12.125083,57.344012,0</coordinates></Point>
        <styleUrl>#icon-22</styleUrl>
      </Placemark>
      <Placemark>
        <name><![CDATA[Elviras Glass]]></name>
        <description><![CDATA[Elviras Glass, Gustavsfors]]></description>
        <Point><coordinates>12.126131,59.204737,0</coordinates></Point>
        <styleUrl>#icon-22</styleUrl>
      </Placemark>
      <Placemark>
        <name><![CDATA[Broms Café]]></name>
        <description><![CDATA[Broms Café, Årjäng]]></description>
        <Point><coordinates>12.132649,59.392108,0</coordinates></Point>
        <styleUrl>#icon-22</styleUrl>
      </Placemark>
      <Placemark>
        <name><![CDATA[Moa's Garden]]></name>
        <description><![CDATA[Moa's Garden, Årjäng]]></description>
        <Point><coordinates>12.138978,59.395314,0</coordinates></Point>
        <styleUrl>#icon-22</styleUrl>
      </Placemark>
      <Placemark>
        <name><![CDATA[Jammy Restaurang]]></name>
        <description><![CDATA[Jammy Restaurang, Fjärås]]></description>
        <Point><coordinates>12.15542,57.433346,0</coordinates></Point>
        <styleUrl>#icon-22</styleUrl>
      </Placemark>
      <Placemark>
        <name><![CDATA[Kitekalle Göteborg]]></name>
        <description><![CDATA[Kitekalle Göteborg, Frillesås]]></description>
        <Point><coordinates>12.158166,57.331022,0</coordinates></Point>
        <styleUrl>#icon-22</styleUrl>
      </Placemark>
      <Placemark>
        <name><![CDATA[Vallersviks Camping]]></name>
        <description><![CDATA[Vallersviks Camping, Frillesås]]></description>
        <Point><coordinates>12.15896,57.320706,0</coordinates></Point>
        <styleUrl>#icon-22</styleUrl>
      </Placemark>
      <Placemark>
        <name><![CDATA[Café Maneten]]></name>
        <description><![CDATA[Café Maneten, Frillesås]]></description>
        <Point><coordinates>12.15896,57.320706,0</coordinates></Point>
        <styleUrl>#icon-22</styleUrl>
      </Placemark>
      <Placemark>
        <name><![CDATA[Bergums Skola Göteborg]]></name>
        <description><![CDATA[Bergums Skola Göteborg, Olofstorp]]></description>
        <Point><coordinates>12.169332,57.805055,0</coordinates></Point>
        <styleUrl>#icon-22</styleUrl>
      </Placemark>
      <Placemark>
        <name><![CDATA[Gött Häng]]></name>
        <description><![CDATA[Gött Häng, Frillesås]]></description>
        <Point><coordinates>12.175288,57.318541,0</coordinates></Point>
        <styleUrl>#icon-22</styleUrl>
      </Placemark>
      <Placemark>
        <name><![CDATA[Fridas Restaurang]]></name>
        <description><![CDATA[Fridas Restaurang, Varberg]]></description>
        <Point><coordinates>12.214231,57.185141,0</coordinates></Point>
        <styleUrl>#icon-22</styleUrl>
      </Placemark>
      <Placemark>
        <name><![CDATA[Varbergs Flygcafé]]></name>
        <description><![CDATA[Varbergs Flygcafé, Varberg]]></description>
        <Point><coordinates>12.214416,57.115105,0</coordinates></Point>
        <styleUrl>#icon-22</styleUrl>
      </Placemark>
      <Placemark>
        <name><![CDATA[Jippies Veranda]]></name>
        <description><![CDATA[Jippies Veranda, Varberg]]></description>
        <Point><coordinates>12.216528,57.185164,0</coordinates></Point>
        <styleUrl>#icon-22</styleUrl>
      </Placemark>
      <Placemark>
        <name><![CDATA[Köpenhamnsgården]]></name>
        <description><![CDATA[Köpenhamnsgården, Varberg]]></description>
        <Point><coordinates>12.220618,57.191318,0</coordinates></Point>
        <styleUrl>#icon-22</styleUrl>
      </Placemark>
      <Placemark>
        <name><![CDATA[Din X]]></name>
        <description><![CDATA[Din X, Bengtsfors]]></description>
        <Point><coordinates>12.221312,59.031867,0</coordinates></Point>
        <styleUrl>#icon-22</styleUrl>
      </Placemark>
      <Placemark>
        <name><![CDATA[Lilla Damaskus]]></name>
        <description><![CDATA[Lilla Damaskus, Bengtsfors]]></description>
        <Point><coordinates>12.224199,59.02972,0</coordinates></Point>
        <styleUrl>#icon-22</styleUrl>
      </Placemark>
      <Placemark>
        <name><![CDATA[Bengtsforsgrillen]]></name>
        <description><![CDATA[Bengtsforsgrillen, Bengtsfors]]></description>
        <Point><coordinates>12.227146,59.029042,0</coordinates></Point>
        <styleUrl>#icon-22</styleUrl>
      </Placemark>
      <Placemark>
        <name><![CDATA[Kafé Längan]]></name>
        <description><![CDATA[Kafé Längan, Varberg]]></description>
        <Point><coordinates>12.239679,57.105273,0</coordinates></Point>
        <styleUrl>#icon-22</styleUrl>
      </Placemark>
      <Placemark>
        <name><![CDATA[Rolands Café]]></name>
        <description><![CDATA[Rolands Café, Varberg]]></description>
        <Point><coordinates>12.24434,57.102236,0</coordinates></Point>
        <styleUrl>#icon-22</styleUrl>
      </Placemark>
      <Placemark>
        <name><![CDATA[Glasskärran]]></name>
        <description><![CDATA[Glasskärran, Varberg]]></description>
        <Point><coordinates>12.252528,57.1044,0</coordinates></Point>
        <styleUrl>#icon-22</styleUrl>
      </Placemark>
      <Placemark>
        <name><![CDATA[Bryggan 30]]></name>
        <description><![CDATA[Bryggan 30, Varberg]]></description>
        <Point><coordinates>12.253101,57.106613,0</coordinates></Point>
        <styleUrl>#icon-22</styleUrl>
      </Placemark>
      <Placemark>
        <name><![CDATA[Godis & Snuspalatset]]></name>
        <description><![CDATA[Godis & Snuspalatset, Varberg]]></description>
        <Point><coordinates>12.253612,57.105483,0</coordinates></Point>
        <styleUrl>#icon-22</styleUrl>
      </Placemark>
      <Placemark>
        <name><![CDATA[Båbergs Nöje]]></name>
        <description><![CDATA[Båbergs Nöje, Trollhättan]]></description>
        <Point><coordinates>12.265887,58.330267,0</coordinates></Point>
        <styleUrl>#icon-22</styleUrl>
      </Placemark>
      <Placemark>
        <name><![CDATA[Slusscaféet Skoftebyns If]]></name>
        <description><![CDATA[Slusscaféet Skoftebyns If, Trollhättan]]></description>
        <Point><coordinates>12.268166,58.263685,0</coordinates></Point>
        <styleUrl>#icon-22</styleUrl>
      </Placemark>
      <Placemark>
        <name><![CDATA[Peder Skrivares Skola]]></name>
        <description><![CDATA[Peder Skrivares Skola, Varberg]]></description>
        <Point><coordinates>12.271019,57.105101,0</coordinates></Point>
        <styleUrl>#icon-22</styleUrl>
      </Placemark>
      <Placemark>
        <name><![CDATA[Tre Toppar Glasscafé]]></name>
        <description><![CDATA[Tre Toppar Glasscafé, Träslövsläge]]></description>
        <Point><coordinates>12.273238,57.057893,0</coordinates></Point>
        <styleUrl>#icon-22</styleUrl>
      </Placemark>
      <Placemark>
        <name><![CDATA[Societetsparkens Minigolf]]></name>
        <description><![CDATA[Societetsparkens Minigolf, Varberg]]></description>
        <Point><coordinates>12.274538,57.103173,0</coordinates></Point>
        <styleUrl>#icon-22</styleUrl>
      </Placemark>
      <Placemark>
        <name><![CDATA[Warbergs Tomat]]></name>
        <description><![CDATA[Warbergs Tomat, Varberg]]></description>
        <Point><coordinates>12.276986,57.169638,0</coordinates></Point>
        <styleUrl>#icon-22</styleUrl>
      </Placemark>
      <Placemark>
        <name><![CDATA[E75 Tobak O Snuslagret]]></name>
        <description><![CDATA[E75 Tobak O Snuslagret, Frändefors]]></description>
        <Point><coordinates>12.281308,58.500176,0</coordinates></Point>
        <styleUrl>#icon-22</styleUrl>
      </Placemark>
      <Placemark>
        <name><![CDATA[Vovking]]></name>
        <description><![CDATA[Vovking, Träslölvsläge]]></description>
        <Point><coordinates>12.286285,57.054029,0</coordinates></Point>
        <styleUrl>#icon-22</styleUrl>
      </Placemark>
      <Placemark>
        <name><![CDATA[Glasscafet Tre Luckor]]></name>
        <description><![CDATA[Glasscafet Tre Luckor, Trollhättan]]></description>
        <Point><coordinates>12.286949,58.2837,0</coordinates></Point>
        <styleUrl>#icon-22</styleUrl>
      </Placemark>
      <Placemark>
        <name><![CDATA[Lillegårdens Kött & Chark]]></name>
        <description><![CDATA[Lillegårdens Kött & Chark, Varberg]]></description>
        <Point><coordinates>12.287499,57.140954,0</coordinates></Point>
        <styleUrl>#icon-22</styleUrl>
      </Placemark>
      <Placemark>
        <name><![CDATA[Träslövsläge IF]]></name>
        <description><![CDATA[Träslövsläge IF, Träslövsläge]]></description>
        <Point><coordinates>12.288798,57.05775,0</coordinates></Point>
        <styleUrl>#icon-22</styleUrl>
      </Placemark>
      <Placemark>
        <name><![CDATA[Glassboden Drottningtorget]]></name>
        <description><![CDATA[Glassboden Drottningtorget, Trollhättan]]></description>
        <Point><coordinates>12.28972,58.283814,0</coordinates></Point>
        <styleUrl>#icon-22</styleUrl>
      </Placemark>
      <Placemark>
        <name><![CDATA[Cactuz]]></name>
        <description><![CDATA[Cactuz, Trollhättan]]></description>
        <Point><coordinates>12.28972,58.283814,0</coordinates></Point>
        <styleUrl>#icon-22</styleUrl>
      </Placemark>
      <Placemark>
        <name><![CDATA[Kiosken Charlottenberg Shoppingcenter]]></name>
        <description><![CDATA[Kiosken Charlottenberg Shoppingcenter, Charlottenberg]]></description>
        <Point><coordinates>12.289806,59.881886,0</coordinates></Point>
        <styleUrl>#icon-22</styleUrl>
      </Placemark>
      <Placemark>
        <name><![CDATA[Ursand Camping, Blåbärsstället]]></name>
        <description><![CDATA[Ursand Camping, Blåbärsstället, Vänersborg]]></description>
        <Point><coordinates>12.290472,58.393671,0</coordinates></Point>
        <styleUrl>#icon-22</styleUrl>
      </Placemark>
      <Placemark>
        <name><![CDATA[Årjängs Golfkrog]]></name>
        <description><![CDATA[Årjängs Golfkrog, Årjäng]]></description>
        <Point><coordinates>12.291423,59.341561,0</coordinates></Point>
        <styleUrl>#icon-22</styleUrl>
      </Placemark>
      <Placemark>
        <name><![CDATA[Gården Vid Bron]]></name>
        <description><![CDATA[Gården Vid Bron, Veddige]]></description>
        <Point><coordinates>12.308421,57.239012,0</coordinates></Point>
        <styleUrl>#icon-22</styleUrl>
      </Placemark>
      <Placemark>
        <name><![CDATA[Erikshjälpen Pingstkyrkan Vänersborg]]></name>
        <description><![CDATA[Erikshjälpen Pingstkyrkan Vänersborg, Vänersborg]]></description>
        <Point><coordinates>12.3124,58.381295,0</coordinates></Point>
        <styleUrl>#icon-22</styleUrl>
      </Placemark>
      <Placemark>
        <name><![CDATA[Jecko & Jessies Lekland]]></name>
        <description><![CDATA[Jecko & Jessies Lekland, Trollhättan]]></description>
        <Point><coordinates>12.313252,58.315709,0</coordinates></Point>
        <styleUrl>#icon-22</styleUrl>
      </Placemark>
      <Placemark>
        <name><![CDATA[Baldersnäs Herrgård]]></name>
        <description><![CDATA[Baldersnäs Herrgård, Dals Långed]]></description>
        <Point><coordinates>12.31667,58.91667,0</coordinates></Point>
        <styleUrl>#icon-22</styleUrl>
      </Placemark>
      <Placemark>
        <name><![CDATA[Renbiten Ab]]></name>
        <description><![CDATA[Renbiten Ab, Idre]]></description>
        <Point><coordinates>12.318524,62.062601,0</coordinates></Point>
        <styleUrl>#icon-22</styleUrl>
      </Placemark>
      <Placemark>
        <name><![CDATA[Nolato]]></name>
        <description><![CDATA[Nolato, Trollhättan]]></description>
        <Point><coordinates>12.321696,58.274841,0</coordinates></Point>
        <styleUrl>#icon-22</styleUrl>
      </Placemark>
      <Placemark>
        <name><![CDATA[Veddige Simhall]]></name>
        <description><![CDATA[Veddige Simhall, Veddige]]></description>
        <Point><coordinates>12.32493,57.264485,0</coordinates></Point>
        <styleUrl>#icon-22</styleUrl>
      </Placemark>
      <Placemark>
        <name><![CDATA[Skräcklestugan]]></name>
        <description><![CDATA[Skräcklestugan, Vänersborg]]></description>
        <Point><coordinates>12.329102,58.385148,0</coordinates></Point>
        <styleUrl>#icon-22</styleUrl>
      </Placemark>
      <Placemark>
        <name><![CDATA[Elinors Fjällservice AB]]></name>
        <description><![CDATA[Elinors Fjällservice AB, Duved]]></description>
        <Point><coordinates>12.331219,63.284584,0</coordinates></Point>
        <styleUrl>#icon-22</styleUrl>
      </Placemark>
      <Placemark>
        <name><![CDATA[Café Commerce]]></name>
        <description><![CDATA[Café Commerce, Brålanda]]></description>
        <Point><coordinates>12.350059,58.561823,0</coordinates></Point>
        <styleUrl>#icon-22</styleUrl>
      </Placemark>
      <Placemark>
        <name><![CDATA[Grövelsjö Alpacka Cafe]]></name>
        <description><![CDATA[Grövelsjö Alpacka Cafe, Idre]]></description>
        <Point><coordinates>12.350729,62.004506,0</coordinates></Point>
        <styleUrl>#icon-22</styleUrl>
      </Placemark>
      <Placemark>
        <name><![CDATA[Kiosken På Västra Banan]]></name>
        <description><![CDATA[Kiosken På Västra Banan, Tvååker]]></description>
        <Point><coordinates>12.352146,57.05551,0</coordinates></Point>
        <styleUrl>#icon-22</styleUrl>
      </Placemark>
      <Placemark>
        <name><![CDATA[Varbergs Tropikarium]]></name>
        <description><![CDATA[Varbergs Tropikarium, Tvååker]]></description>
        <Point><coordinates>12.354919,57.01206,0</coordinates></Point>
        <styleUrl>#icon-22</styleUrl>
      </Placemark>
      <Placemark>
        <name><![CDATA[Ellas Mat & Prylar]]></name>
        <description><![CDATA[Ellas Mat & Prylar, Glommen]]></description>
        <Point><coordinates>12.361479,56.957089,0</coordinates></Point>
        <styleUrl>#icon-22</styleUrl>
      </Placemark>
      <Placemark>
        <name><![CDATA[Glommens Pizzeria]]></name>
        <description><![CDATA[Glommens Pizzeria, Glommen]]></description>
        <Point><coordinates>12.364194,56.930511,0</coordinates></Point>
        <styleUrl>#icon-22</styleUrl>
      </Placemark>
      <Placemark>
        <name><![CDATA[Bergströms Tehandel]]></name>
        <description><![CDATA[Bergströms Tehandel, Varberg]]></description>
        <Point><coordinates>12.377395,57.094624,0</coordinates></Point>
        <styleUrl>#icon-22</styleUrl>
      </Placemark>
      <Placemark>
        <name><![CDATA[Caravan Club]]></name>
        <description><![CDATA[Caravan Club, Falkenberg]]></description>
        <Point><coordinates>12.396089,56.922906,0</coordinates></Point>
        <styleUrl>#icon-22</styleUrl>
      </Placemark>
      <Placemark>
        <name><![CDATA[Gööks Bageri]]></name>
        <description><![CDATA[Gööks Bageri, Tvååker]]></description>
        <Point><coordinates>12.398822,57.040563,0</coordinates></Point>
        <styleUrl>#icon-22</styleUrl>
      </Placemark>
      <Placemark>
        <name><![CDATA[Hallevibadet]]></name>
        <description><![CDATA[Hallevibadet, Vargön]]></description>
        <Point><coordinates>12.400358,58.366718,0</coordinates></Point>
        <styleUrl>#icon-22</styleUrl>
      </Placemark>
      <Placemark>
        <name><![CDATA[Olofsbos Islandshästar]]></name>
        <description><![CDATA[Olofsbos Islandshästar, Falkenberg]]></description>
        <Point><coordinates>12.400427,56.930965,0</coordinates></Point>
        <styleUrl>#icon-22</styleUrl>
      </Placemark>
      <Placemark>
        <name><![CDATA[Elma's Gårdskafe & Hantverksbod]]></name>
        <description><![CDATA[Elma's Gårdskafe & Hantverksbod, Brålanda]]></description>
        <Point><coordinates>12.410931,58.508567,0</coordinates></Point>
        <styleUrl>#icon-22</styleUrl>
      </Placemark>
      <Placemark>
        <name><![CDATA[Dalslands Kanal]]></name>
        <description><![CDATA[Dalslands Kanal, Håverud]]></description>
        <Point><coordinates>12.412196,58.821265,0</coordinates></Point>
        <styleUrl>#icon-22</styleUrl>
      </Placemark>
      <Placemark>
        <name><![CDATA[Strömma Farmlodge]]></name>
        <description><![CDATA[Strömma Farmlodge, Tvååker]]></description>
        <Point><coordinates>12.425222,57.057095,0</coordinates></Point>
        <styleUrl>#icon-22</styleUrl>
      </Placemark>
      <Placemark>
        <name><![CDATA[Spiskupan]]></name>
        <description><![CDATA[Spiskupan, Vargön]]></description>
        <Point><coordinates>12.430418,58.346846,0</coordinates></Point>
        <styleUrl>#icon-22</styleUrl>
      </Placemark>
      <Placemark>
        <name><![CDATA[Hanriis Café]]></name>
        <description><![CDATA[Hanriis Café, Duved]]></description>
        <Point><coordinates>12.450625,63.252282,0</coordinates></Point>
        <styleUrl>#icon-22</styleUrl>
      </Placemark>
      <Placemark>
        <name><![CDATA[Kullens Fyr]]></name>
        <description><![CDATA[Kullens Fyr, Mölle]]></description>
        <Point><coordinates>12.452027,56.301275,0</coordinates></Point>
        <styleUrl>#icon-22</styleUrl>
      </Placemark>
      <Placemark>
        <name><![CDATA[Sunnanå Restaurang]]></name>
        <description><![CDATA[Sunnanå Restaurang, Mellerud]]></description>
        <Point><coordinates>12.484884,58.705106,0</coordinates></Point>
        <styleUrl>#icon-22</styleUrl>
      </Placemark>
      <Placemark>
        <name><![CDATA[SIA Glass Café]]></name>
        <description><![CDATA[SIA Glass Café, Falkenberg]]></description>
        <Point><coordinates>12.490949,56.904832,0</coordinates></Point>
        <styleUrl>#icon-22</styleUrl>
      </Placemark>
      <Placemark>
        <name><![CDATA[Glasshuset Skrea]]></name>
        <description><![CDATA[Glasshuset Skrea, Falkenberg]]></description>
        <Point><coordinates>12.49167,56.90278,0</coordinates></Point>
        <styleUrl>#icon-22</styleUrl>
      </Placemark>
      <Placemark>
        <name><![CDATA[Waynes]]></name>
        <description><![CDATA[Waynes, Falkenberg]]></description>
        <Point><coordinates>12.49219,56.903152,0</coordinates></Point>
        <styleUrl>#icon-22</styleUrl>
      </Placemark>
      <Placemark>
        <name><![CDATA[Waynes Coffe]]></name>
        <description><![CDATA[Waynes Coffe, Falkenberg]]></description>
        <Point><coordinates>12.492397,56.903731,0</coordinates></Point>
        <styleUrl>#icon-22</styleUrl>
      </Placemark>
      <Placemark>
        <name><![CDATA[Gööks Bageri]]></name>
        <description><![CDATA[Gööks Bageri, Falkenberg]]></description>
        <Point><coordinates>12.49282,56.905259,0</coordinates></Point>
        <styleUrl>#icon-22</styleUrl>
      </Placemark>
      <Placemark>
        <name><![CDATA[La Playa]]></name>
        <description><![CDATA[La Playa, Falkenberg]]></description>
        <Point><coordinates>12.496118,56.888006,0</coordinates></Point>
        <styleUrl>#icon-22</styleUrl>
      </Placemark>
      <Placemark>
        <name><![CDATA[Mijons]]></name>
        <description><![CDATA[Mijons, Falkenberg]]></description>
        <Point><coordinates>12.498604,56.888806,0</coordinates></Point>
        <styleUrl>#icon-22</styleUrl>
      </Placemark>
      <Placemark>
        <name><![CDATA[Standen]]></name>
        <description><![CDATA[Standen, Falkenberg]]></description>
        <Point><coordinates>12.50399,56.884345,0</coordinates></Point>
        <styleUrl>#icon-22</styleUrl>
      </Placemark>
      <Placemark>
        <name><![CDATA[Campino Falkenberg]]></name>
        <description><![CDATA[Campino Falkenberg, Falkenberg]]></description>
        <Point><coordinates>12.506229,56.9079,0</coordinates></Point>
        <styleUrl>#icon-22</styleUrl>
      </Placemark>
      <Placemark>
        <name><![CDATA[Tallhyddan]]></name>
        <description><![CDATA[Tallhyddan, Alingsås]]></description>
        <Point><coordinates>12.508793,57.934698,0</coordinates></Point>
        <styleUrl>#icon-22</styleUrl>
      </Placemark>
      <Placemark>
        <name><![CDATA[Ica Supermarket Skrea Strand]]></name>
        <description><![CDATA[Ica Supermarket Skrea Strand, Falkenberg]]></description>
        <Point><coordinates>12.510971,56.887221,0</coordinates></Point>
        <styleUrl>#icon-22</styleUrl>
      </Placemark>
      <Placemark>
        <name><![CDATA[Funäsgrillen]]></name>
        <description><![CDATA[Funäsgrillen, Funäsdalen]]></description>
        <Point><coordinates>12.522924,62.549419,0</coordinates></Point>
        <styleUrl>#icon-22</styleUrl>
      </Placemark>
      <Placemark>
        <name><![CDATA[Knafves Café & Diverse]]></name>
        <description><![CDATA[Knafves Café & Diverse, Mölle]]></description>
        <Point><coordinates>12.529423,56.280862,0</coordinates></Point>
        <styleUrl>#icon-22</styleUrl>
      </Placemark>
      <Placemark>
        <name><![CDATA[Bubblerian Mölle]]></name>
        <description><![CDATA[Bubblerian Mölle, Mölle]]></description>
        <Point><coordinates>12.531434,56.270936,0</coordinates></Point>
        <styleUrl>#icon-22</styleUrl>
      </Placemark>
      <Placemark>
        <name><![CDATA[A-Kembar]]></name>
        <description><![CDATA[A-Kembar, Falkenberg]]></description>
        <Point><coordinates>12.533532,56.899913,0</coordinates></Point>
        <styleUrl>#icon-22</styleUrl>
      </Placemark>
      <Placemark>
        <name><![CDATA[Kaffekoppen I Sollebrunn]]></name>
        <description><![CDATA[Kaffekoppen I Sollebrunn, Sollebrunn]]></description>
        <Point><coordinates>12.533715,58.118853,0</coordinates></Point>
        <styleUrl>#icon-22</styleUrl>
      </Placemark>
      <Placemark>
        <name><![CDATA[Larssons Gårdsbutik]]></name>
        <description><![CDATA[Larssons Gårdsbutik, Ånimskog]]></description>
        <Point><coordinates>12.541565,58.90892,0</coordinates></Point>
        <styleUrl>#icon-22</styleUrl>
      </Placemark>
      <Placemark>
        <name><![CDATA[Himmelstorps Hembygdsgård]]></name>
        <description><![CDATA[Himmelstorps Hembygdsgård, Mölle]]></description>
        <Point><coordinates>12.549078,56.276057,0</coordinates></Point>
        <styleUrl>#icon-22</styleUrl>
      </Placemark>
      <Placemark>
        <name><![CDATA[Pannkaksladan]]></name>
        <description><![CDATA[Pannkaksladan, Höganäs]]></description>
        <Point><coordinates>12.563489,56.215193,0</coordinates></Point>
        <styleUrl>#icon-22</styleUrl>
      </Placemark>
      <Placemark>
        <name><![CDATA[Nordvästra Skånes Flygklubb]]></name>
        <description><![CDATA[Nordvästra Skånes Flygklubb, Höganäs]]></description>
        <Point><coordinates>12.580316,56.184261,0</coordinates></Point>
        <styleUrl>#icon-22</styleUrl>
      </Placemark>
      <Placemark>
        <name><![CDATA[Högvalta Handelsträdgård]]></name>
        <description><![CDATA[Högvalta Handelsträdgård, Arvika]]></description>
        <Point><coordinates>12.582909,59.68642,0</coordinates></Point>
        <styleUrl>#icon-22</styleUrl>
      </Placemark>
      <Placemark>
        <name><![CDATA[Arvika Idrottscenter]]></name>
        <description><![CDATA[Arvika Idrottscenter, Arvika]]></description>
        <Point><coordinates>12.591813,59.652625,0</coordinates></Point>
        <styleUrl>#icon-22</styleUrl>
      </Placemark>
      <Placemark>
        <name><![CDATA[Nordells Konditori]]></name>
        <description><![CDATA[Nordells Konditori, Arvika]]></description>
        <Point><coordinates>12.592361,59.654193,0</coordinates></Point>
        <styleUrl>#icon-22</styleUrl>
      </Placemark>
      <Placemark>
        <name><![CDATA[Cafe Arvika Kommun]]></name>
        <description><![CDATA[Cafe Arvika Kommun, Arvika]]></description>
        <Point><coordinates>12.59618,59.653913,0</coordinates></Point>
        <styleUrl>#icon-22</styleUrl>
      </Placemark>
      <Placemark>
        <name><![CDATA[Nya Strandstugan]]></name>
        <description><![CDATA[Nya Strandstugan, Heberg]]></description>
        <Point><coordinates>12.6,56.835864,0</coordinates></Point>
        <styleUrl>#icon-22</styleUrl>
      </Placemark>
      <Placemark>
        <name><![CDATA[Laxbutiken]]></name>
        <description><![CDATA[Laxbutiken, Heberg]]></description>
        <Point><coordinates>12.600969,56.886258,0</coordinates></Point>
        <styleUrl>#icon-22</styleUrl>
      </Placemark>
      <Placemark>
        <name><![CDATA[Ugglarps Camping]]></name>
        <description><![CDATA[Ugglarps Camping, Ugglarp]]></description>
        <Point><coordinates>12.609378,56.823318,0</coordinates></Point>
        <styleUrl>#icon-22</styleUrl>
      </Placemark>
      <Placemark>
        <name><![CDATA[Tössestugan]]></name>
        <description><![CDATA[Tössestugan, Tösse]]></description>
        <Point><coordinates>12.614847,58.966485,0</coordinates></Point>
        <styleUrl>#icon-22</styleUrl>
      </Placemark>
      <Placemark>
        <name><![CDATA[Kilagård]]></name>
        <description><![CDATA[Kilagård, Heberg]]></description>
        <Point><coordinates>12.617082,56.852183,0</coordinates></Point>
        <styleUrl>#icon-22</styleUrl>
      </Placemark>
      <Placemark>
        <name><![CDATA[Tvällen Värdshuset]]></name>
        <description><![CDATA[Tvällen Värdshuset, Gunnarskog]]></description>
        <Point><coordinates>12.621063,60.021122,0</coordinates></Point>
        <styleUrl>#icon-22</styleUrl>
      </Placemark>
      <Placemark>
        <name><![CDATA[Arvika Fotboll]]></name>
        <description><![CDATA[Arvika Fotboll, Arvika]]></description>
        <Point><coordinates>12.621831,59.651717,0</coordinates></Point>
        <styleUrl>#icon-22</styleUrl>
      </Placemark>
      <Placemark>
        <name><![CDATA[Torekovs Hamnkiosk & Pizzeria]]></name>
        <description><![CDATA[Torekovs Hamnkiosk & Pizzeria, Torekov]]></description>
        <Point><coordinates>12.629769,56.423325,0</coordinates></Point>
        <styleUrl>#icon-22</styleUrl>
      </Placemark>
      <Placemark>
        <name><![CDATA[Katrinebergs Folkhögskola]]></name>
        <description><![CDATA[Katrinebergs Folkhögskola, Vessigebro]]></description>
        <Point><coordinates>12.6397,56.97352,0</coordinates></Point>
        <styleUrl>#icon-22</styleUrl>
      </Placemark>
      <Placemark>
        <name><![CDATA[Hilles Loppis]]></name>
        <description><![CDATA[Hilles Loppis, Ullared]]></description>
        <Point><coordinates>12.642091,57.058875,0</coordinates></Point>
        <styleUrl>#icon-22</styleUrl>
      </Placemark>
      <Placemark>
        <name><![CDATA[Skene Star]]></name>
        <description><![CDATA[Skene Star, Skene]]></description>
        <Point><coordinates>12.646944,57.486629,0</coordinates></Point>
        <styleUrl>#icon-22</styleUrl>
      </Placemark>
      <Placemark>
        <name><![CDATA[Bread On Wine]]></name>
        <description><![CDATA[Bread On Wine, Sankt Ibb]]></description>
        <Point><coordinates>12.674259,55.910387,0</coordinates></Point>
        <styleUrl>#icon-22</styleUrl>
      </Placemark>
      <Placemark>
        <name><![CDATA[Henke Kiosken, Pålsjöbaden]]></name>
        <description><![CDATA[Henke Kiosken, Pålsjöbaden, Helsingborg]]></description>
        <Point><coordinates>12.678287,56.0644,0</coordinates></Point>
        <styleUrl>#icon-22</styleUrl>
      </Placemark>
      <Placemark>
        <name><![CDATA[Sofiero Förvaltning]]></name>
        <description><![CDATA[Sofiero Förvaltning, Helsingborg]]></description>
        <Point><coordinates>12.678287,56.0644,0</coordinates></Point>
        <styleUrl>#icon-22</styleUrl>
      </Placemark>
      <Placemark>
        <name><![CDATA[SIA Glass butik och glassbar]]></name>
        <description><![CDATA[SIA Glass butik och glassbar, Slöinge]]></description>
        <Point><coordinates>12.682715,56.85574,0</coordinates></Point>
        <styleUrl>#icon-22</styleUrl>
      </Placemark>
      <Placemark>
        <name><![CDATA[Härjebygg]]></name>
        <description><![CDATA[Härjebygg, Tännäs]]></description>
        <Point><coordinates>12.685331,62.441164,0</coordinates></Point>
        <styleUrl>#icon-22</styleUrl>
      </Placemark>
      <Placemark>
        <name><![CDATA[Tågaglass Ab]]></name>
        <description><![CDATA[Tågaglass Ab, Helsingborg]]></description>
        <Point><coordinates>12.686154,56.05199,0</coordinates></Point>
        <styleUrl>#icon-22</styleUrl>
      </Placemark>
      <Placemark>
        <name><![CDATA[Lunnevibadet]]></name>
        <description><![CDATA[Lunnevibadet, Grästorp]]></description>
        <Point><coordinates>12.686451,58.32926,0</coordinates></Point>
        <styleUrl>#icon-22</styleUrl>
      </Placemark>
      <Placemark>
        <name><![CDATA[Kebabkungen Norra Hamnen]]></name>
        <description><![CDATA[Kebabkungen Norra Hamnen, Helsingborg]]></description>
        <Point><coordinates>12.687038,56.049189,0</coordinates></Point>
        <styleUrl>#icon-22</styleUrl>
      </Placemark>
      <Placemark>
        <name><![CDATA[Thores Bageri]]></name>
        <description><![CDATA[Thores Bageri, Helsingborg]]></description>
        <Point><coordinates>12.690677,56.046501,0</coordinates></Point>
        <styleUrl>#icon-22</styleUrl>
      </Placemark>
      <Placemark>
        <name><![CDATA[Tågaglass]]></name>
        <description><![CDATA[Tågaglass, Helsingborg]]></description>
        <Point><coordinates>12.691179,56.047538,0</coordinates></Point>
        <styleUrl>#icon-22</styleUrl>
      </Placemark>
      <Placemark>
        <name><![CDATA[Johans Kiosk]]></name>
        <description><![CDATA[Johans Kiosk, Kinna]]></description>
        <Point><coordinates>12.692229,57.507375,0</coordinates></Point>
        <styleUrl>#icon-22</styleUrl>
      </Placemark>
      <Placemark>
        <name><![CDATA[Trattoria Bonasera]]></name>
        <description><![CDATA[Trattoria Bonasera, Helsingborg]]></description>
        <Point><coordinates>12.692453,56.064903,0</coordinates></Point>
        <styleUrl>#icon-22</styleUrl>
      </Placemark>
      <Placemark>
        <name><![CDATA[Regio I Helsingborg]]></name>
        <description><![CDATA[Regio I Helsingborg, Helsingborg]]></description>
        <Point><coordinates>12.692453,56.064903,0</coordinates></Point>
        <styleUrl>#icon-22</styleUrl>
      </Placemark>
      <Placemark>
        <name><![CDATA[Waynes Coffee Rådhustorget Helsingborg]]></name>
        <description><![CDATA[Waynes Coffee Rådhustorget Helsingborg, Helsingborg]]></description>
        <Point><coordinates>12.692492,56.047282,0</coordinates></Point>
        <styleUrl>#icon-22</styleUrl>
      </Placemark>
      <Placemark>
        <name><![CDATA[Rydals Herrgård]]></name>
        <description><![CDATA[Rydals Herrgård, Rydal]]></description>
        <Point><coordinates>12.69488,57.554671,0</coordinates></Point>
        <styleUrl>#icon-22</styleUrl>
      </Placemark>
      <Placemark>
        <name><![CDATA[Rehamco International AB]]></name>
        <description><![CDATA[Rehamco International AB, Helsingborg]]></description>
        <Point><coordinates>12.695158,56.046329,0</coordinates></Point>
        <styleUrl>#icon-22</styleUrl>
      </Placemark>
      <Placemark>
        <name><![CDATA[Vilshärads Camping]]></name>
        <description><![CDATA[Vilshärads Camping, Vilshärad]]></description>
        <Point><coordinates>12.696088,56.694705,0</coordinates></Point>
        <styleUrl>#icon-22</styleUrl>
      </Placemark>
      <Placemark>
        <name><![CDATA[Vilshärads Camping]]></name>
        <description><![CDATA[Vilshärads Camping, Vilshärad]]></description>
        <Point><coordinates>12.696088,56.694705,0</coordinates></Point>
        <styleUrl>#icon-22</styleUrl>
      </Placemark>
      <Placemark>
        <name><![CDATA[Tåga Glass Kärnan]]></name>
        <description><![CDATA[Tåga Glass Kärnan, Helsingborg]]></description>
        <Point><coordinates>12.696456,56.04745,0</coordinates></Point>
        <styleUrl>#icon-22</styleUrl>
      </Placemark>
      <Placemark>
        <name><![CDATA[Kebabkungen Söder]]></name>
        <description><![CDATA[Kebabkungen Söder, Helsingborg]]></description>
        <Point><coordinates>12.698341,56.04172,0</coordinates></Point>
        <styleUrl>#icon-22</styleUrl>
      </Placemark>
      <Placemark>
        <name><![CDATA[Choco Venue]]></name>
        <description><![CDATA[Choco Venue, Helsingborg]]></description>
        <Point><coordinates>12.69996,56.04472,0</coordinates></Point>
        <styleUrl>#icon-22</styleUrl>
      </Placemark>
      <Placemark>
        <name><![CDATA[Apoteket Hjärtat Helsingborgs Lasarett]]></name>
        <description><![CDATA[Apoteket Hjärtat Helsingborgs Lasarett, Helsingborg]]></description>
        <Point><coordinates>12.7,56.05,0</coordinates></Point>
        <styleUrl>#icon-22</styleUrl>
      </Placemark>
      <Placemark>
        <name><![CDATA[Petter's Grill O Bar]]></name>
        <description><![CDATA[Petter's Grill O Bar, Helsingborg]]></description>
        <Point><coordinates>12.7,56.05,0</coordinates></Point>
        <styleUrl>#icon-22</styleUrl>
      </Placemark>
      <Placemark>
        <name><![CDATA[Svea Cater MR Matbiten]]></name>
        <description><![CDATA[Svea Cater MR Matbiten, Såtenäs]]></description>
        <Point><coordinates>12.70026,58.4425,0</coordinates></Point>
        <styleUrl>#icon-22</styleUrl>
      </Placemark>
      <Placemark>
        <name><![CDATA[Två Systrar Conditori]]></name>
        <description><![CDATA[Två Systrar Conditori, Helsingborg]]></description>
        <Point><coordinates>12.700477,56.050655,0</coordinates></Point>
        <styleUrl>#icon-22</styleUrl>
      </Placemark>
      <Placemark>
        <name><![CDATA[The Driftwood]]></name>
        <description><![CDATA[The Driftwood, Vilshärad]]></description>
        <Point><coordinates>12.700791,56.697866,0</coordinates></Point>
        <styleUrl>#icon-22</styleUrl>
      </Placemark>
      <Placemark>
        <name><![CDATA[GSM Service i Hbg]]></name>
        <description><![CDATA[GSM Service i Hbg, Helsingborg]]></description>
        <Point><coordinates>12.701393,56.038634,0</coordinates></Point>
        <styleUrl>#icon-22</styleUrl>
      </Placemark>
      <Placemark>
        <name><![CDATA[Mackans Grill]]></name>
        <description><![CDATA[Mackans Grill, Åmål]]></description>
        <Point><coordinates>12.702602,59.052329,0</coordinates></Point>
        <styleUrl>#icon-22</styleUrl>
      </Placemark>
      <Placemark>
        <name><![CDATA[Annas Direkten]]></name>
        <description><![CDATA[Annas Direkten, Helsingborg]]></description>
        <Point><coordinates>12.708205,56.027022,0</coordinates></Point>
        <styleUrl>#icon-22</styleUrl>
      </Placemark>
      <Placemark>
        <name><![CDATA[Blå Krog]]></name>
        <description><![CDATA[Blå Krog, Åmål]]></description>
        <Point><coordinates>12.709545,59.053719,0</coordinates></Point>
        <styleUrl>#icon-22</styleUrl>
      </Placemark>
      <Placemark>
        <name><![CDATA[Kandyz Helsingborg]]></name>
        <description><![CDATA[Kandyz Helsingborg, Helsingborg]]></description>
        <Point><coordinates>12.709736,56.060702,0</coordinates></Point>
        <styleUrl>#icon-22</styleUrl>
      </Placemark>
      <Placemark>
        <name><![CDATA[Strandgården]]></name>
        <description><![CDATA[Strandgården, Gullbrandstor]]></description>
        <Point><coordinates>12.711124,56.701769,0</coordinates></Point>
        <styleUrl>#icon-22</styleUrl>
      </Placemark>
      <Placemark>
        <name><![CDATA[NP Nilsson Trävaru AB]]></name>
        <description><![CDATA[NP Nilsson Trävaru AB, Helsingborg]]></description>
        <Point><coordinates>12.713792,56.073478,0</coordinates></Point>
        <styleUrl>#icon-22</styleUrl>
      </Placemark>
      <Placemark>
        <name><![CDATA[Sportladan]]></name>
        <description><![CDATA[Sportladan, Tännäs]]></description>
        <Point><coordinates>12.714729,62.440265,0</coordinates></Point>
        <styleUrl>#icon-22</styleUrl>
      </Placemark>
      <Placemark>
        <name><![CDATA[Gekås]]></name>
        <description><![CDATA[Gekås, Ullared]]></description>
        <Point><coordinates>12.71528,57.13611,0</coordinates></Point>
        <styleUrl>#icon-22</styleUrl>
      </Placemark>
      <Placemark>
        <name><![CDATA[Valla Golfkrog]]></name>
        <description><![CDATA[Valla Golfkrog, Kinna]]></description>
        <Point><coordinates>12.71715,57.501835,0</coordinates></Point>
        <styleUrl>#icon-22</styleUrl>
      </Placemark>
      <Placemark>
        <name><![CDATA[Din-X Ullared]]></name>
        <description><![CDATA[Din-X Ullared, Ullared]]></description>
        <Point><coordinates>12.718464,57.135762,0</coordinates></Point>
        <styleUrl>#icon-22</styleUrl>
      </Placemark>
      <Placemark>
        <name><![CDATA[Örebrokiosken]]></name>
        <description><![CDATA[Örebrokiosken, Helsingborg]]></description>
        <Point><coordinates>12.721241,56.044619,0</coordinates></Point>
        <styleUrl>#icon-22</styleUrl>
      </Placemark>
      <Placemark>
        <name><![CDATA[Gunnars Konditori]]></name>
        <description><![CDATA[Gunnars Konditori, Helsingborg]]></description>
        <Point><coordinates>12.722906,56.017141,0</coordinates></Point>
        <styleUrl>#icon-22</styleUrl>
      </Placemark>
      <Placemark>
        <name><![CDATA[Tjuvahålans Kiosk]]></name>
        <description><![CDATA[Tjuvahålans Kiosk, Halmstad]]></description>
        <Point><coordinates>12.73227,56.642254,0</coordinates></Point>
        <styleUrl>#icon-22</styleUrl>
      </Placemark>
      <Placemark>
        <name><![CDATA[Sandras Kiosk]]></name>
        <description><![CDATA[Sandras Kiosk, Halmstad]]></description>
        <Point><coordinates>12.732271,56.642253,0</coordinates></Point>
        <styleUrl>#icon-22</styleUrl>
      </Placemark>
      <Placemark>
        <name><![CDATA[Sandras Kiosk]]></name>
        <description><![CDATA[Sandras Kiosk, Halmstad]]></description>
        <Point><coordinates>12.732271,56.642253,0</coordinates></Point>
        <styleUrl>#icon-22</styleUrl>
      </Placemark>
      <Placemark>
        <name><![CDATA[Hygge]]></name>
        <description><![CDATA[Hygge, Halmstad]]></description>
        <Point><coordinates>12.73357,56.647014,0</coordinates></Point>
        <styleUrl>#icon-22</styleUrl>
      </Placemark>
      <Placemark>
        <name><![CDATA[Punsch Glassbar]]></name>
        <description><![CDATA[Punsch Glassbar, Halmstad]]></description>
        <Point><coordinates>12.734069,56.645838,0</coordinates></Point>
        <styleUrl>#icon-22</styleUrl>
      </Placemark>
      <Placemark>
        <name><![CDATA[Namnam Tylösand]]></name>
        <description><![CDATA[Namnam Tylösand, Halmstad]]></description>
        <Point><coordinates>12.736972,56.670106,0</coordinates></Point>
        <styleUrl>#icon-22</styleUrl>
      </Placemark>
      <Placemark>
        <name><![CDATA[Tännforsen]]></name>
        <description><![CDATA[Tännforsen, Duved]]></description>
        <Point><coordinates>12.740759,63.443133,0</coordinates></Point>
        <styleUrl>#icon-22</styleUrl>
      </Placemark>
      <Placemark>
        <name><![CDATA[Geting Restaurang O Pizzeria]]></name>
        <description><![CDATA[Geting Restaurang O Pizzeria, Getinge]]></description>
        <Point><coordinates>12.740767,56.821573,0</coordinates></Point>
        <styleUrl>#icon-22</styleUrl>
      </Placemark>
      <Placemark>
        <name><![CDATA[Kajgatan 1 Restaurang]]></name>
        <description><![CDATA[Kajgatan 1 Restaurang, Råå]]></description>
        <Point><coordinates>12.742766,55.994166,0</coordinates></Point>
        <styleUrl>#icon-22</styleUrl>
      </Placemark>
      <Placemark>
        <name><![CDATA[Restaurang Vänner]]></name>
        <description><![CDATA[Restaurang Vänner, Helsingborg]]></description>
        <Point><coordinates>12.744461,56.038914,0</coordinates></Point>
        <styleUrl>#icon-22</styleUrl>
      </Placemark>
      <Placemark>
        <name><![CDATA[Erikshjälpen Second Hand Hbg]]></name>
        <description><![CDATA[Erikshjälpen Second Hand Hbg, Helsingborg]]></description>
        <Point><coordinates>12.755438,56.040843,0</coordinates></Point>
        <styleUrl>#icon-22</styleUrl>
      </Placemark>
      <Placemark>
        <name><![CDATA[Tuvan Kök & Bar]]></name>
        <description><![CDATA[Tuvan Kök & Bar, Ljungdalen]]></description>
        <Point><coordinates>12.767137,62.856662,0</coordinates></Point>
        <styleUrl>#icon-22</styleUrl>
      </Placemark>
      <Placemark>
        <name><![CDATA[Halmstads Wakeboardförening]]></name>
        <description><![CDATA[Halmstads Wakeboardförening, Halmstad]]></description>
        <Point><coordinates>12.778438,56.641698,0</coordinates></Point>
        <styleUrl>#icon-22</styleUrl>
      </Placemark>
      <Placemark>
        <name><![CDATA[Rozzo Design]]></name>
        <description><![CDATA[Rozzo Design, Halmstad]]></description>
        <Point><coordinates>12.779457,56.687611,0</coordinates></Point>
        <styleUrl>#icon-22</styleUrl>
      </Placemark>
      <Placemark>
        <name><![CDATA[Zibeda Chocolate]]></name>
        <description><![CDATA[Zibeda Chocolate, Fritsla]]></description>
        <Point><coordinates>12.785381,57.556783,0</coordinates></Point>
        <styleUrl>#icon-22</styleUrl>
      </Placemark>
      <Placemark>
        <name><![CDATA[Vasatorps Golfkrog]]></name>
        <description><![CDATA[Vasatorps Golfkrog, Mörarp]]></description>
        <Point><coordinates>12.788521,56.059959,0</coordinates></Point>
        <styleUrl>#icon-22</styleUrl>
      </Placemark>
      <Placemark>
        <name><![CDATA[Sandareds Innebandy Förening]]></name>
        <description><![CDATA[Sandareds Innebandy Förening, Sandared]]></description>
        <Point><coordinates>12.788965,57.707585,0</coordinates></Point>
        <styleUrl>#icon-22</styleUrl>
      </Placemark>
      <Placemark>
        <name><![CDATA[Restaurangen I Ljungdalens]]></name>
        <description><![CDATA[Restaurangen I Ljungdalens, Ljungdalen]]></description>
        <Point><coordinates>12.79029,62.852643,0</coordinates></Point>
        <styleUrl>#icon-22</styleUrl>
      </Placemark>
      <Placemark>
        <name><![CDATA[Kullinghemmets Kök]]></name>
        <description><![CDATA[Kullinghemmets Kök, Vårgårda]]></description>
        <Point><coordinates>12.797994,58.021093,0</coordinates></Point>
        <styleUrl>#icon-22</styleUrl>
      </Placemark>
      <Placemark>
        <name><![CDATA[Kandyz]]></name>
        <description><![CDATA[Kandyz, Halmstad]]></description>
        <Point><coordinates>12.811561,56.662462,0</coordinates></Point>
        <styleUrl>#icon-22</styleUrl>
      </Placemark>
      <Placemark>
        <name><![CDATA[Lock Stock & Barrel Events AB]]></name>
        <description><![CDATA[Lock Stock & Barrel Events AB, Landskrona]]></description>
        <Point><coordinates>12.819302,55.871491,0</coordinates></Point>
        <styleUrl>#icon-22</styleUrl>
      </Placemark>
      <Placemark>
        <name><![CDATA[Falsterbo Golfklubb]]></name>
        <description><![CDATA[Falsterbo Golfklubb, Falsterbo]]></description>
        <Point><coordinates>12.820874,55.382387,0</coordinates></Point>
        <styleUrl>#icon-22</styleUrl>
      </Placemark>
      <Placemark>
        <name><![CDATA[Flommens GK]]></name>
        <description><![CDATA[Flommens GK, Falsterbo]]></description>
        <Point><coordinates>12.828866,55.393231,0</coordinates></Point>
        <styleUrl>#icon-22</styleUrl>
      </Placemark>
      <Placemark>
        <name><![CDATA[Amins Glassbil]]></name>
        <description><![CDATA[Amins Glassbil, Halmstad]]></description>
        <Point><coordinates>12.829765,56.67185,0</coordinates></Point>
        <styleUrl>#icon-22</styleUrl>
      </Placemark>
      <Placemark>
        <name><![CDATA[Olivers Hamburgeri]]></name>
        <description><![CDATA[Olivers Hamburgeri, Landskrona]]></description>
        <Point><coordinates>12.829834,55.87128,0</coordinates></Point>
        <styleUrl>#icon-22</styleUrl>
      </Placemark>
      <Placemark>
        <name><![CDATA[Cenririon Solution]]></name>
        <description><![CDATA[Cenririon Solution, Borås]]></description>
        <Point><coordinates>12.830003,57.698396,0</coordinates></Point>
        <styleUrl>#icon-22</styleUrl>
      </Placemark>
      <Placemark>
        <name><![CDATA[Ya Poh Empanadas]]></name>
        <description><![CDATA[Ya Poh Empanadas, Ullared]]></description>
        <Point><coordinates>12.831055,57.094745,0</coordinates></Point>
        <styleUrl>#icon-22</styleUrl>
      </Placemark>
      <Placemark>
        <name><![CDATA[Torsby Camping]]></name>
        <description><![CDATA[Torsby Camping, Torsby]]></description>
        <Point><coordinates>12.831551,60.140762,0</coordinates></Point>
        <styleUrl>#icon-22</styleUrl>
      </Placemark>
      <Placemark>
        <name><![CDATA[Tempo Kvibille]]></name>
        <description><![CDATA[Tempo Kvibille, Kvibille]]></description>
        <Point><coordinates>12.832521,56.782105,0</coordinates></Point>
        <styleUrl>#icon-22</styleUrl>
      </Placemark>
      <Placemark>
        <name><![CDATA[Sands Bakficka]]></name>
        <description><![CDATA[Sands Bakficka, Båstad]]></description>
        <Point><coordinates>12.83333,56.43333,0</coordinates></Point>
        <styleUrl>#icon-22</styleUrl>
      </Placemark>
      <Placemark>
        <name><![CDATA[Kust Café Och Catering I Falsterbo]]></name>
        <description><![CDATA[Kust Café Och Catering I Falsterbo, Falsterbo]]></description>
        <Point><coordinates>12.834401,55.391936,0</coordinates></Point>
        <styleUrl>#icon-22</styleUrl>
      </Placemark>
      <Placemark>
        <name><![CDATA[Nya Ladan]]></name>
        <description><![CDATA[Nya Ladan, Sjömarken]]></description>
        <Point><coordinates>12.834682,57.715651,0</coordinates></Point>
        <styleUrl>#icon-22</styleUrl>
      </Placemark>
      <Placemark>
        <name><![CDATA[Wapnö Butik]]></name>
        <description><![CDATA[Wapnö Butik, Halmstad]]></description>
        <Point><coordinates>12.840761,56.712979,0</coordinates></Point>
        <styleUrl>#icon-22</styleUrl>
      </Placemark>
      <Placemark>
        <name><![CDATA[Kapten Kajs Brygga]]></name>
        <description><![CDATA[Kapten Kajs Brygga, Ängelholm]]></description>
        <Point><coordinates>12.842129,56.268858,0</coordinates></Point>
        <styleUrl>#icon-22</styleUrl>
      </Placemark>
      <Placemark>
        <name><![CDATA[Verandan I Båstad]]></name>
        <description><![CDATA[Verandan I Båstad, Båstad]]></description>
        <Point><coordinates>12.847637,56.43014,0</coordinates></Point>
        <styleUrl>#icon-22</styleUrl>
      </Placemark>
      <Placemark>
        <name><![CDATA[Glassvagnen Torget]]></name>
        <description><![CDATA[Glassvagnen Torget, Halmstad]]></description>
        <Point><coordinates>12.85,56.66667,0</coordinates></Point>
        <styleUrl>#icon-22</styleUrl>
      </Placemark>
      <Placemark>
        <name><![CDATA[Bistro Perspektiv]]></name>
        <description><![CDATA[Bistro Perspektiv, Falsterbo]]></description>
        <Point><coordinates>12.850346,55.392882,0</coordinates></Point>
        <styleUrl>#icon-22</styleUrl>
      </Placemark>
      <Placemark>
        <name><![CDATA[Papa's Restaurang]]></name>
        <description><![CDATA[Papa's Restaurang, Halmstad]]></description>
        <Point><coordinates>12.853764,56.674573,0</coordinates></Point>
        <styleUrl>#icon-22</styleUrl>
      </Placemark>
      <Placemark>
        <name><![CDATA[Brooktorpsgården Café]]></name>
        <description><![CDATA[Brooktorpsgården Café, Halmstad]]></description>
        <Point><coordinates>12.855377,56.673804,0</coordinates></Point>
        <styleUrl>#icon-22</styleUrl>
      </Placemark>
      <Placemark>
        <name><![CDATA[Brooktorpsgården]]></name>
        <description><![CDATA[Brooktorpsgården, Halmstad]]></description>
        <Point><coordinates>12.855377,56.673804,0</coordinates></Point>
        <styleUrl>#icon-22</styleUrl>
      </Placemark>
      <Placemark>
        <name><![CDATA[Krav & Kram Rådhuset]]></name>
        <description><![CDATA[Krav & Kram Rådhuset, Halmstad]]></description>
        <Point><coordinates>12.856932,56.67275,0</coordinates></Point>
        <styleUrl>#icon-22</styleUrl>
      </Placemark>
      <Placemark>
        <name><![CDATA[Godisbutiken Tutti Frutti]]></name>
        <description><![CDATA[Godisbutiken Tutti Frutti, Halmstad]]></description>
        <Point><coordinates>12.858218,56.674657,0</coordinates></Point>
        <styleUrl>#icon-22</styleUrl>
      </Placemark>
      <Placemark>
        <name><![CDATA[Waynes Coffe]]></name>
        <description><![CDATA[Waynes Coffe, Halmstad]]></description>
        <Point><coordinates>12.858371,56.675093,0</coordinates></Point>
        <styleUrl>#icon-22</styleUrl>
      </Placemark>
      <Placemark>
        <name><![CDATA[Bulls Pub]]></name>
        <description><![CDATA[Bulls Pub, Halmstad]]></description>
        <Point><coordinates>12.858428,56.6766,0</coordinates></Point>
        <styleUrl>#icon-22</styleUrl>
      </Placemark>
      <Placemark>
        <name><![CDATA[Maxi Hyllinge]]></name>
        <description><![CDATA[Maxi Hyllinge, Hyllinge]]></description>
        <Point><coordinates>12.86098,56.100091,0</coordinates></Point>
        <styleUrl>#icon-22</styleUrl>
      </Placemark>
      <Placemark>
        <name><![CDATA[Hotell Continental]]></name>
        <description><![CDATA[Hotell Continental, Halmstad]]></description>
        <Point><coordinates>12.862053,56.670619,0</coordinates></Point>
        <styleUrl>#icon-22</styleUrl>
      </Placemark>
      <Placemark>
        <name><![CDATA[Hallands Konstmuseum]]></name>
        <description><![CDATA[Hallands Konstmuseum, Halmstad]]></description>
        <Point><coordinates>12.862103,56.680703,0</coordinates></Point>
        <styleUrl>#icon-22</styleUrl>
      </Placemark>
      <Placemark>
        <name><![CDATA[Asian Ten Express]]></name>
        <description><![CDATA[Asian Ten Express, Ängelholm]]></description>
        <Point><coordinates>12.862337,56.245089,0</coordinates></Point>
        <styleUrl>#icon-22</styleUrl>
      </Placemark>
      <Placemark>
        <name><![CDATA[Brasserie Loire]]></name>
        <description><![CDATA[Brasserie Loire, Halmstad]]></description>
        <Point><coordinates>12.862369,56.677433,0</coordinates></Point>
        <styleUrl>#icon-22</styleUrl>
      </Placemark>
      <Placemark>
        <name><![CDATA[Hallands Konstmuseum]]></name>
        <description><![CDATA[Hallands Konstmuseum, Halmstad]]></description>
        <Point><coordinates>12.86267,56.681523,0</coordinates></Point>
        <styleUrl>#icon-22</styleUrl>
      </Placemark>
      <Placemark>
        <name><![CDATA[24 Food Service]]></name>
        <description><![CDATA[24 Food Service, Halmstad]]></description>
        <Point><coordinates>12.864128,56.673297,0</coordinates></Point>
        <styleUrl>#icon-22</styleUrl>
      </Placemark>
      <Placemark>
        <name><![CDATA[Direkten]]></name>
        <description><![CDATA[Direkten, Göteborg]]></description>
        <Point><coordinates>12.865959,56.702091,0</coordinates></Point>
        <styleUrl>#icon-22</styleUrl>
      </Placemark>
      <Placemark>
        <name><![CDATA[Kärlekens Livs]]></name>
        <description><![CDATA[Kärlekens Livs, Halmstad]]></description>
        <Point><coordinates>12.866843,56.698524,0</coordinates></Point>
        <styleUrl>#icon-22</styleUrl>
      </Placemark>
      <Placemark>
        <name><![CDATA[Lumberjack Sysselebäck]]></name>
        <description><![CDATA[Lumberjack Sysselebäck, Sysslebäck]]></description>
        <Point><coordinates>12.871902,60.729691,0</coordinates></Point>
        <styleUrl>#icon-22</styleUrl>
      </Placemark>
      <Placemark>
        <name><![CDATA[Allmans]]></name>
        <description><![CDATA[Allmans, Borås]]></description>
        <Point><coordinates>12.874104,57.721313,0</coordinates></Point>
        <styleUrl>#icon-22</styleUrl>
      </Placemark>
      <Placemark>
        <name><![CDATA[Millesgården Eco Lodge]]></name>
        <description><![CDATA[Millesgården Eco Lodge, Duved]]></description>
        <Point><coordinates>12.874462,63.392482,0</coordinates></Point>
        <styleUrl>#icon-22</styleUrl>
      </Placemark>
      <Placemark>
        <name><![CDATA[Nyhems Servicehus]]></name>
        <description><![CDATA[Nyhems Servicehus, Halmstad]]></description>
        <Point><coordinates>12.877602,56.667393,0</coordinates></Point>
        <styleUrl>#icon-22</styleUrl>
      </Placemark>
      <Placemark>
        <name><![CDATA[ICA Maxi Högskolan Halmstad]]></name>
        <description><![CDATA[ICA Maxi Högskolan Halmstad, Halmstad]]></description>
        <Point><coordinates>12.877917,56.664822,0</coordinates></Point>
        <styleUrl>#icon-22</styleUrl>
      </Placemark>
      <Placemark>
        <name><![CDATA[Långbergets Sporthotell]]></name>
        <description><![CDATA[Långbergets Sporthotell, Sysslebäck]]></description>
        <Point><coordinates>12.879991,60.818234,0</coordinates></Point>
        <styleUrl>#icon-22</styleUrl>
      </Placemark>
      <Placemark>
        <name><![CDATA[Strandsnäckan]]></name>
        <description><![CDATA[Strandsnäckan, Halmstad]]></description>
        <Point><coordinates>12.881902,56.650879,0</coordinates></Point>
        <styleUrl>#icon-22</styleUrl>
      </Placemark>
      <Placemark>
        <name><![CDATA[Strand Cafet]]></name>
        <description><![CDATA[Strand Cafet, Halmstad]]></description>
        <Point><coordinates>12.883837,56.649359,0</coordinates></Point>
        <styleUrl>#icon-22</styleUrl>
      </Placemark>
      <Placemark>
        <name><![CDATA[Östras Kiosk Och Bangolf]]></name>
        <description><![CDATA[Östras Kiosk Och Bangolf, Halmstad]]></description>
        <Point><coordinates>12.884307,56.649222,0</coordinates></Point>
        <styleUrl>#icon-22</styleUrl>
      </Placemark>
      <Placemark>
        <name><![CDATA[Laxen Sk]]></name>
        <description><![CDATA[Laxen Sk, Halmstad]]></description>
        <Point><coordinates>12.888316,56.674542,0</coordinates></Point>
        <styleUrl>#icon-22</styleUrl>
      </Placemark>
      <Placemark>
        <name><![CDATA[Halmstad Hammers]]></name>
        <description><![CDATA[Halmstad Hammers, Halmstad]]></description>
        <Point><coordinates>12.889354,56.674358,0</coordinates></Point>
        <styleUrl>#icon-22</styleUrl>
      </Placemark>
      <Placemark>
        <name><![CDATA[Erikshjälpen Second Hand Halmstad]]></name>
        <description><![CDATA[Erikshjälpen Second Hand Halmstad, Halmstad]]></description>
        <Point><coordinates>12.900807,56.652565,0</coordinates></Point>
        <styleUrl>#icon-22</styleUrl>
      </Placemark>
      <Placemark>
        <name><![CDATA[Barsebäcks Hamnkrog]]></name>
        <description><![CDATA[Barsebäcks Hamnkrog, Barsebäck]]></description>
        <Point><coordinates>12.905017,55.755818,0</coordinates></Point>
        <styleUrl>#icon-22</styleUrl>
      </Placemark>
      <Placemark>
        <name><![CDATA[Erikshjälpen Second Hand Säffle]]></name>
        <description><![CDATA[Erikshjälpen Second Hand Säffle, Säffle]]></description>
        <Point><coordinates>12.905878,59.123232,0</coordinates></Point>
        <styleUrl>#icon-22</styleUrl>
      </Placemark>
      <Placemark>
        <name><![CDATA[Vallås Livs]]></name>
        <description><![CDATA[Vallås Livs, Halmstad]]></description>
        <Point><coordinates>12.908082,56.676466,0</coordinates></Point>
        <styleUrl>#icon-22</styleUrl>
      </Placemark>
      <Placemark>
        <name><![CDATA[Goldcity Gränegård]]></name>
        <description><![CDATA[Goldcity Gränegård, Holsjunga]]></description>
        <Point><coordinates>12.911614,57.377313,0</coordinates></Point>
        <styleUrl>#icon-22</styleUrl>
      </Placemark>
      <Placemark>
        <name><![CDATA[Värmskogs Servicepunkt]]></name>
        <description><![CDATA[Värmskogs Servicepunkt, Värmskog]]></description>
        <Point><coordinates>12.911668,59.452011,0</coordinates></Point>
        <styleUrl>#icon-22</styleUrl>
      </Placemark>
      <Placemark>
        <name><![CDATA[Ladugården Hantverk & Interiör]]></name>
        <description><![CDATA[Ladugården Hantverk & Interiör, Gräsmark]]></description>
        <Point><coordinates>12.912008,59.94621,0</coordinates></Point>
        <styleUrl>#icon-22</styleUrl>
      </Placemark>
      <Placemark>
        <name><![CDATA[Snöstorps Pizzeria]]></name>
        <description><![CDATA[Snöstorps Pizzeria, Halmstad]]></description>
        <Point><coordinates>12.912027,56.6709,0</coordinates></Point>
        <styleUrl>#icon-22</styleUrl>
      </Placemark>
      <Placemark>
        <name><![CDATA[Skummeslövsbadet]]></name>
        <description><![CDATA[Skummeslövsbadet, Skummeslövsstrand]]></description>
        <Point><coordinates>12.914128,56.4514,0</coordinates></Point>
        <styleUrl>#icon-22</styleUrl>
      </Placemark>
      <Placemark>
        <name><![CDATA[Skistarshop Åre Centrallager - Holiday club Åre]]></name>
        <description><![CDATA[Skistarshop Åre Centrallager - Holiday club Åre, Duved]]></description>
        <Point><coordinates>12.914707,63.390732,0</coordinates></Point>
        <styleUrl>#icon-22</styleUrl>
      </Placemark>
      <Placemark>
        <name><![CDATA[Skistarshop Åre Centrallager - Skistar Åre Björnen]]></name>
        <description><![CDATA[Skistarshop Åre Centrallager - Skistar Åre Björnen, Duved]]></description>
        <Point><coordinates>12.914707,63.390732,0</coordinates></Point>
        <styleUrl>#icon-22</styleUrl>
      </Placemark>
      <Placemark>
        <name><![CDATA[Skistarshop Åre Centrallager - Åre Torg]]></name>
        <description><![CDATA[Skistarshop Åre Centrallager - Åre Torg, Duved]]></description>
        <Point><coordinates>12.914707,63.390732,0</coordinates></Point>
        <styleUrl>#icon-22</styleUrl>
      </Placemark>
      <Placemark>
        <name><![CDATA[Skistarshop Åre Centrallager - Duved]]></name>
        <description><![CDATA[Skistarshop Åre Centrallager - Duved, Duved]]></description>
        <Point><coordinates>12.914707,63.390732,0</coordinates></Point>
        <styleUrl>#icon-22</styleUrl>
      </Placemark>
      <Placemark>
        <name><![CDATA[Js Beach Club]]></name>
        <description><![CDATA[Js Beach Club, Skummeslövsstrand]]></description>
        <Point><coordinates>12.919385,56.461853,0</coordinates></Point>
        <styleUrl>#icon-22</styleUrl>
      </Placemark>
      <Placemark>
        <name><![CDATA[Skummeslövs Tennisklubb]]></name>
        <description><![CDATA[Skummeslövs Tennisklubb, Skummeslövstrand]]></description>
        <Point><coordinates>12.92296,56.462631,0</coordinates></Point>
        <styleUrl>#icon-22</styleUrl>
      </Placemark>
      <Placemark>
        <name><![CDATA[Göta Kiosken]]></name>
        <description><![CDATA[Göta Kiosken, Borås]]></description>
        <Point><coordinates>12.925937,57.712004,0</coordinates></Point>
        <styleUrl>#icon-22</styleUrl>
      </Placemark>
      <Placemark>
        <name><![CDATA[Barsebäck Badhotell]]></name>
        <description><![CDATA[Barsebäck Badhotell, Barsebäck]]></description>
        <Point><coordinates>12.927355,55.770189,0</coordinates></Point>
        <styleUrl>#icon-22</styleUrl>
      </Placemark>
      <Placemark>
        <name><![CDATA[Copydax]]></name>
        <description><![CDATA[Copydax, Halmstad]]></description>
        <Point><coordinates>12.929211,56.595456,0</coordinates></Point>
        <styleUrl>#icon-22</styleUrl>
      </Placemark>
      <Placemark>
        <name><![CDATA[Ifk Klagshamn]]></name>
        <description><![CDATA[Ifk Klagshamn, Klagshamn]]></description>
        <Point><coordinates>12.929339,55.521298,0</coordinates></Point>
        <styleUrl>#icon-22</styleUrl>
      </Placemark>
      <Placemark>
        <name><![CDATA[Lagunen]]></name>
        <description><![CDATA[Lagunen, Limhamn]]></description>
        <Point><coordinates>12.93334,55.595951,0</coordinates></Point>
        <styleUrl>#icon-22</styleUrl>
      </Placemark>
      <Placemark>
        <name><![CDATA[Pågagrillen]]></name>
        <description><![CDATA[Pågagrillen, Landskrona]]></description>
        <Point><coordinates>12.933838,55.907863,0</coordinates></Point>
        <styleUrl>#icon-22</styleUrl>
      </Placemark>
      <Placemark>
        <name><![CDATA[Mr Glass I Höllviken]]></name>
        <description><![CDATA[Mr Glass I Höllviken, Höllviken]]></description>
        <Point><coordinates>12.936118,55.409945,0</coordinates></Point>
        <styleUrl>#icon-22</styleUrl>
      </Placemark>
      <Placemark>
        <name><![CDATA[Strömma Turism & Sjöfart]]></name>
        <description><![CDATA[Strömma Turism & Sjöfart, Malmö]]></description>
        <Point><coordinates>12.938191,59.1362,0</coordinates></Point>
        <styleUrl>#icon-22</styleUrl>
      </Placemark>
      <Placemark>
        <name><![CDATA[Almenäs Café & Kök]]></name>
        <description><![CDATA[Almenäs Café & Kök, Borås]]></description>
        <Point><coordinates>12.939111,57.761478,0</coordinates></Point>
        <styleUrl>#icon-22</styleUrl>
      </Placemark>
      <Placemark>
        <name><![CDATA[Soltorgets Shop]]></name>
        <description><![CDATA[Soltorgets Shop, Sysslebäck]]></description>
        <Point><coordinates>12.940874,60.648624,0</coordinates></Point>
        <styleUrl>#icon-22</styleUrl>
      </Placemark>
      <Placemark>
        <name><![CDATA[Glada Hönan]]></name>
        <description><![CDATA[Glada Hönan, Ullarp]]></description>
        <Point><coordinates>12.941427,56.450606,0</coordinates></Point>
        <styleUrl>#icon-22</styleUrl>
      </Placemark>
      <Placemark>
        <name><![CDATA[My Sweet]]></name>
        <description><![CDATA[My Sweet, Borås]]></description>
        <Point><coordinates>12.941863,57.721604,0</coordinates></Point>
        <styleUrl>#icon-22</styleUrl>
      </Placemark>
      <Placemark>
        <name><![CDATA[Burkens Livs]]></name>
        <description><![CDATA[Burkens Livs, Borås]]></description>
        <Point><coordinates>12.942402,57.706897,0</coordinates></Point>
        <styleUrl>#icon-22</styleUrl>
      </Placemark>
      <Placemark>
        <name><![CDATA[Borgviks Hamncafé]]></name>
        <description><![CDATA[Borgviks Hamncafé, Borgvik]]></description>
        <Point><coordinates>12.942471,59.3474,0</coordinates></Point>
        <styleUrl>#icon-22</styleUrl>
      </Placemark>
      <Placemark>
        <name><![CDATA[Falsterbo Kursgård]]></name>
        <description><![CDATA[Falsterbo Kursgård, Höllviken]]></description>
        <Point><coordinates>12.942964,55.412717,0</coordinates></Point>
        <styleUrl>#icon-22</styleUrl>
      </Placemark>
      <Placemark>
        <name><![CDATA[Gullbrannagården]]></name>
        <description><![CDATA[Gullbrannagården, Eldsberga]]></description>
        <Point><coordinates>12.943336,56.59099,0</coordinates></Point>
        <styleUrl>#icon-22</styleUrl>
      </Placemark>
      <Placemark>
        <name><![CDATA[Delfinen]]></name>
        <description><![CDATA[Delfinen, Mellbystrand]]></description>
        <Point><coordinates>12.944514,56.500794,0</coordinates></Point>
        <styleUrl>#icon-22</styleUrl>
      </Placemark>
      <Placemark>
        <name><![CDATA[Ätrans loppis]]></name>
        <description><![CDATA[Ätrans loppis, Ätran]]></description>
        <Point><coordinates>12.944895,57.120362,0</coordinates></Point>
        <styleUrl>#icon-22</styleUrl>
      </Placemark>