<?xml version="1.0" encoding="UTF-8"?>
<kml xmlns="http://www.opengis.net/kml/2.2">
  <Document>
    <name>SIA Glass</name>
    <description/>
    <Style id="icon-22-normal">
      <IconStyle>
        <scale>1.1</scale>
        <Icon>
          <href>https://www.gstatic.com/mapspro/images/stock/22-blue-dot.png</href>
        </Icon>
        <hotSpot x="16" xunits="pixels" y="32" yunits="insetPixels"/>
      </IconStyle>
      <LabelStyle>
        <scale>0</scale>
      </LabelStyle>
    </Style>
    <Style id="icon-22-highlight">
      <IconStyle>
        <scale>1.1</scale>
        <Icon>
          <href>https://www.gstatic.com/mapspro/images/stock/22-blue-dot.png</href>
        </Icon>
        <hotSpot x="16" xunits="pixels" y="32" yunits="insetPixels"/>
      </IconStyle>
      <LabelStyle>
        <scale>1.1</scale>
      </LabelStyle>
    </Style>
    <StyleMap id="icon-22">
      <Pair>
        <key>normal</key>
        <styleUrl>#icon-22-normal</styleUrl>
      </Pair>
      <Pair>
        <key>highlight</key>
        <styleUrl>#icon-22-highlight</styleUrl>
      </Pair>
    </StyleMap>
    <Folder>
      <name><![CDATA[SIA Glass]]></name>
      <Placemark>
        <name><![CDATA[Bastes Kafe]]></name>
        <description>Bastes Kafe, Nord Kloster</description>
        <styleUrl>#icon-22</styleUrl>
        <Point><coordinates>11.005582,58.898419,0</coordinates></Point>
      </Placemark>
      <Placemark>
        <name><![CDATA[Sibirien Restaurang]]></name>
        <description>Sibirien Restaurang, Sydkoster/Strömstad</description>
        <styleUrl>#icon-22</styleUrl>
        <Point><coordinates>11.007966,58.89143,0</coordinates></Point>
      </Placemark>
      <Placemark>
        <name><![CDATA[Entré Saltö]]></name>
        <description>Entré Saltö, Strömstad</description>
        <styleUrl>#icon-22</styleUrl>
        <Point><coordinates>11.135725,58.873869,0</coordinates></Point>
      </Placemark>
      <Placemark>
        <name><![CDATA[Gött Mos I Strömstad]]></name>
        <description>Gött Mos I Strömstad, Strömstad</description>
        <styleUrl>#icon-22</styleUrl>
        <Point><coordinates>11.170136,58.939759,0</coordinates></Point>
      </Placemark>
      <Placemark>
        <name><![CDATA[Strandbaren I Strömstad]]></name>
        <description>Strandbaren I Strömstad, Strömstad</description>
        <styleUrl>#icon-22</styleUrl>
        <Point><coordinates>11.170227,58.937989,0</coordinates></Point>
      </Placemark>
      <Placemark>
        <name><![CDATA[Piren 1, Kungstrappan]]></name>
        <description>Piren 1, Kungstrappan, Strömstad</description>
        <styleUrl>#icon-22</styleUrl>
        <Point><coordinates>11.170502,58.939373,0</coordinates></Point>
      </Placemark>
      <Placemark>
        <name><![CDATA[Entré Rossö Hamncafé]]></name>
        <description>Entré Rossö Hamncafé, Rossö</description>
        <styleUrl>#icon-22</styleUrl>
        <Point><coordinates>11.173133,58.855442,0</coordinates></Point>
      </Placemark>
      <Placemark>
        <name><![CDATA[Sea Lodge Smögen]]></name>
        <description>Sea Lodge Smögen, Smögen</description>
        <styleUrl>#icon-22</styleUrl>
        <Point><coordinates>11.230456,58.354789,0</coordinates></Point>
      </Placemark>
      <Placemark>
        <name><![CDATA[Vallervikskiosken]]></name>
        <description>Vallervikskiosken, Smögen</description>
        <styleUrl>#icon-22</styleUrl>
        <Point><coordinates>11.23194,58.36111,0</coordinates></Point>
      </Placemark>
      <Placemark>
        <name><![CDATA[Buar Padel AB]]></name>
        <description>Buar Padel AB, Tanumshede</description>
        <styleUrl>#icon-22</styleUrl>
        <Point><coordinates>11.238471,58.791687,0</coordinates></Point>
      </Placemark>
      <Placemark>
        <name><![CDATA[Hamnbageriet]]></name>
        <description>Hamnbageriet, Kungshamn</description>
        <styleUrl>#icon-22</styleUrl>
        <Point><coordinates>11.24928,58.361746,0</coordinates></Point>
      </Placemark>
      <Placemark>
        <name><![CDATA[Hamngrillen]]></name>
        <description>Hamngrillen, Grebbestad</description>
        <styleUrl>#icon-22</styleUrl>
        <Point><coordinates>11.25733,58.689132,0</coordinates></Point>
      </Placemark>
      <Placemark>
        <name><![CDATA[La Boulangerie Bröd & Hav]]></name>
        <description>La Boulangerie Bröd & Hav, Grebbestad</description>
        <styleUrl>#icon-22</styleUrl>
        <Point><coordinates>11.258478,58.684197,0</coordinates></Point>
      </Placemark>
      <Placemark>
        <name><![CDATA[Tobaksvagnen]]></name>
        <description>Tobaksvagnen, Stömstad</description>
        <styleUrl>#icon-22</styleUrl>
        <Point><coordinates>11.265903,59.089363,0</coordinates></Point>
      </Placemark>
      <Placemark>
        <name><![CDATA[Lyckans Jordgubbscafé]]></name>
        <description>Lyckans Jordgubbscafé, Hunnebostrand</description>
        <styleUrl>#icon-22</styleUrl>
        <Point><coordinates>11.38348,58.417973,0</coordinates></Point>
      </Placemark>
      <Placemark>
        <name><![CDATA[Gullholmsbaden]]></name>
        <description>Gullholmsbaden, Gullholmen</description>
        <styleUrl>#icon-22</styleUrl>
        <Point><coordinates>11.401645,58.175036,0</coordinates></Point>
      </Placemark>
      <Placemark>
        <name><![CDATA[Stockens Camping]]></name>
        <description>Stockens Camping, Ellös</description>
        <styleUrl>#icon-22</styleUrl>
        <Point><coordinates>11.421541,58.147438,0</coordinates></Point>
      </Placemark>
      <Placemark>
        <name><![CDATA[Hamncafét Lysekil]]></name>
        <description>Hamncafét Lysekil, Lysekil</description>
        <styleUrl>#icon-22</styleUrl>
        <Point><coordinates>11.425499,58.275984,0</coordinates></Point>
      </Placemark>
      <Placemark>
        <name><![CDATA[Verandan Havets Hus]]></name>
        <description>Verandan Havets Hus, Lysekil</description>
        <styleUrl>#icon-22</styleUrl>
        <Point><coordinates>11.431944,58.268978,0</coordinates></Point>
      </Placemark>
      <Placemark>
        <name><![CDATA[Café Kungsgatan]]></name>
        <description>Café Kungsgatan, Lysekil</description>
        <styleUrl>#icon-22</styleUrl>
        <Point><coordinates>11.433759,58.274447,0</coordinates></Point>
      </Placemark>
      <Placemark>
        <name><![CDATA[Pizzeria Milano]]></name>
        <description>Pizzeria Milano, Lysekil</description>
        <styleUrl>#icon-22</styleUrl>
        <Point><coordinates>11.433839,58.26925,0</coordinates></Point>
      </Placemark>
      <Placemark>
        <name><![CDATA[Pizzeria Lysekil]]></name>
        <description>Pizzeria Lysekil, Lysekil</description>
        <styleUrl>#icon-22</styleUrl>
        <Point><coordinates>11.435586,58.274236,0</coordinates></Point>
      </Placemark>
      <Placemark>
        <name><![CDATA[Röe Gård]]></name>
        <description>Röe Gård, Brastad</description>
        <styleUrl>#icon-22</styleUrl>
        <Point><coordinates>11.437477,58.41624,0</coordinates></Point>
      </Placemark>
      <Placemark>
        <name><![CDATA[Artans Restaurang]]></name>
        <description>Artans Restaurang, Lysekil</description>
        <styleUrl>#icon-22</styleUrl>
        <Point><coordinates>11.437823,58.273312,0</coordinates></Point>
      </Placemark>
      <Placemark>
        <name><![CDATA[Gullmarsstrand Hotell & Konferens]]></name>
        <description>Gullmarsstrand Hotell & Konferens, Fiskebäckskil</description>
        <styleUrl>#icon-22</styleUrl>
        <Point><coordinates>11.45722,58.248848,0</coordinates></Point>
      </Placemark>
      <Placemark>
        <name><![CDATA[Glasscaféet I Mollösund]]></name>
        <description>Glasscaféet I Mollösund, Mollösund</description>
        <styleUrl>#icon-22</styleUrl>
        <Point><coordinates>11.470632,58.072399,0</coordinates></Point>
      </Placemark>
      <Placemark>
        <name><![CDATA[Orust Golfrestaurang]]></name>
        <description>Orust Golfrestaurang, Ellös</description>
        <styleUrl>#icon-22</styleUrl>
        <Point><coordinates>11.503306,58.194958,0</coordinates></Point>
      </Placemark>
      <Placemark>
        <name><![CDATA[Sommardröm]]></name>
        <description>Sommardröm, Skärhamn</description>
        <styleUrl>#icon-22</styleUrl>
        <Point><coordinates>11.545376,57.987099,0</coordinates></Point>
      </Placemark>
      <Placemark>
        <name><![CDATA[5 Knop]]></name>
        <description>5 Knop, Skärhamn</description>
        <styleUrl>#icon-22</styleUrl>
        <Point><coordinates>11.546678,57.989807,0</coordinates></Point>
      </Placemark>
      <Placemark>
        <name><![CDATA[Fossen Camping]]></name>
        <description>Fossen Camping, Uddevalla</description>
        <styleUrl>#icon-22</styleUrl>
        <Point><coordinates>11.565039,58.317325,0</coordinates></Point>
      </Placemark>
      <Placemark>
        <name><![CDATA[Bokenäset Hotell & Konferens]]></name>
        <description>Bokenäset Hotell & Konferens, Uddevalla</description>
        <styleUrl>#icon-22</styleUrl>
        <Point><coordinates>11.598042,58.261263,0</coordinates></Point>
      </Placemark>
      <Placemark>
        <name><![CDATA[Marstrand Familjecamping]]></name>
        <description>Marstrand Familjecamping, Långedalsvägen 16</description>
        <styleUrl>#icon-22</styleUrl>
        <Point><coordinates>11.604811,57.893835,0</coordinates></Point>
      </Placemark>
      <Placemark>
        <name><![CDATA[Linas Brygga]]></name>
        <description>Linas Brygga, Dyrön</description>
        <styleUrl>#icon-22</styleUrl>
        <Point><coordinates>11.608883,57.926397,0</coordinates></Point>
      </Placemark>
      <Placemark>
        <name><![CDATA[Strandverket Café & Butik]]></name>
        <description>Strandverket Café & Butik, Marstrand</description>
        <styleUrl>#icon-22</styleUrl>
        <Point><coordinates>11.612963,57.926719,0</coordinates></Point>
      </Placemark>
      <Placemark>
        <name><![CDATA[Aleks Bageri]]></name>
        <description>Aleks Bageri, Hönö</description>
        <styleUrl>#icon-22</styleUrl>
        <Point><coordinates>11.644557,57.680666,0</coordinates></Point>
      </Placemark>
      <Placemark>
        <name><![CDATA[Hotell Trubaduren Hönö]]></name>
        <description>Hotell Trubaduren Hönö, Hönö</description>
        <styleUrl>#icon-22</styleUrl>
        <Point><coordinates>11.644756,57.680459,0</coordinates></Point>
      </Placemark>
      <Placemark>
        <name><![CDATA[Den Glade Knoden]]></name>
        <description>Den Glade Knoden, Källö-Knippla</description>
        <styleUrl>#icon-22</styleUrl>
        <Point><coordinates>11.651572,57.749594,0</coordinates></Point>
      </Placemark>
      <Placemark>
        <name><![CDATA[Nimbusgården]]></name>
        <description>Nimbusgården, Öckerö</description>
        <styleUrl>#icon-22</styleUrl>
        <Point><coordinates>11.660761,57.709807,0</coordinates></Point>
      </Placemark>
      <Placemark>
        <name><![CDATA[Sundsby Gårdscafé Restaurang & Butik]]></name>
        <description>Sundsby Gårdscafé Restaurang & Butik, Hjälteby</description>
        <styleUrl>#icon-22</styleUrl>
        <Point><coordinates>11.689113,58.07045,0</coordinates></Point>
      </Placemark>
      <Placemark>
        <name><![CDATA[Stallgården Krog & Kafé]]></name>
        <description>Stallgården Krog & Kafé, Uddevalla</description>
        <styleUrl>#icon-22</styleUrl>
        <Point><coordinates>11.70188,58.343857,0</coordinates></Point>
      </Placemark>
      <Placemark>
        <name><![CDATA[Saltkällans Badkiosk]]></name>
        <description>Saltkällans Badkiosk, Munkedal</description>
        <styleUrl>#icon-22</styleUrl>
        <Point><coordinates>11.703668,58.431197,0</coordinates></Point>
      </Placemark>
      <Placemark>
        <name><![CDATA[Bergholtz Trädgård & Hantverk]]></name>
        <description>Bergholtz Trädgård & Hantverk, Henån</description>
        <styleUrl>#icon-22</styleUrl>
        <Point><coordinates>11.720725,58.248064,0</coordinates></Point>
      </Placemark>
      <Placemark>
        <name><![CDATA[Bistro Go Mat]]></name>
        <description>Bistro Go Mat, Uddevalla</description>
        <styleUrl>#icon-22</styleUrl>
        <Point><coordinates>11.769498,58.368225,0</coordinates></Point>
      </Placemark>
      <Placemark>
        <name><![CDATA[Uddevalla GK]]></name>
        <description>Uddevalla GK, Uddevalla</description>
        <styleUrl>#icon-22</styleUrl>
        <Point><coordinates>11.769498,58.368225,0</coordinates></Point>
      </Placemark>
      <Placemark>
        <name><![CDATA[Södra Skärgårdens Café Göteborg]]></name>
        <description>Södra Skärgårdens Café Göteborg, Vrångö</description>
        <styleUrl>#icon-22</styleUrl>
        <Point><coordinates>11.790562,57.568663,0</coordinates></Point>
      </Placemark>
      <Placemark>
        <name><![CDATA[Gotteposten Kärna]]></name>
        <description>Gotteposten Kärna, Kärna</description>
        <styleUrl>#icon-22</styleUrl>
        <Point><coordinates>11.791342,57.844802,0</coordinates></Point>
      </Placemark>
      <Placemark>
        <name><![CDATA[Grandmas House]]></name>
        <description>Grandmas House, Torslanda</description>
        <styleUrl>#icon-22</styleUrl>
        <Point><coordinates>11.794202,57.730606,0</coordinates></Point>
      </Placemark>
      <Placemark>
        <name><![CDATA[Affären På Asperö]]></name>
        <description>Affären På Asperö, Asperö</description>
        <styleUrl>#icon-22</styleUrl>
        <Point><coordinates>11.795141,57.649107,0</coordinates></Point>
      </Placemark>
      <Placemark>
        <name><![CDATA[Stenungsöns Kök & Bar]]></name>
        <description>Stenungsöns Kök & Bar, Stenungsund</description>
        <styleUrl>#icon-22</styleUrl>
        <Point><coordinates>11.802322,58.072481,0</coordinates></Point>
      </Placemark>
      <Placemark>
        <name><![CDATA[Waynes Coffee Torp Köpcentrum]]></name>
        <description>Waynes Coffee Torp Köpcentrum, Uddevalla</description>
        <styleUrl>#icon-22</styleUrl>
        <Point><coordinates>11.809136,58.352344,0</coordinates></Point>
      </Placemark>
      <Placemark>
        <name><![CDATA[Volvomuseet]]></name>
        <description>Volvomuseet, Göteborg</description>
        <styleUrl>#icon-22</styleUrl>
        <Point><coordinates>11.816139,57.694607,0</coordinates></Point>
      </Placemark>
      <Placemark>
        <name><![CDATA[Bröbacken Café]]></name>
        <description>Bröbacken Café, Svanesund</description>
        <styleUrl>#icon-22</styleUrl>
        <Point><coordinates>11.820203,58.142591,0</coordinates></Point>
      </Placemark>
      <Placemark>
        <name><![CDATA[Unda Livs]]></name>
        <description>Unda Livs, Uddevalla</description>
        <styleUrl>#icon-22</styleUrl>
        <Point><coordinates>11.82421,58.330176,0</coordinates></Point>
      </Placemark>
      <Placemark>
        <name><![CDATA[Ulkeröds Gård]]></name>
        <description>Ulkeröds Gård, Hedekas</description>
        <styleUrl>#icon-22</styleUrl>
        <Point><coordinates>11.849094,58.661982,0</coordinates></Point>
      </Placemark>
      <Placemark>
        <name><![CDATA[Cafe Utsikten Ödsmålsbron]]></name>
        <description>Cafe Utsikten Ödsmålsbron, Ödsmål</description>
        <styleUrl>#icon-22</styleUrl>
        <Point><coordinates>11.880425,58.113048,0</coordinates></Point>
      </Placemark>
      <Placemark>
        <name><![CDATA[Restaurang Reveljen]]></name>
        <description>Restaurang Reveljen, Västra Frölunda</description>
        <styleUrl>#icon-22</styleUrl>
        <Point><coordinates>11.891972,57.68518,0</coordinates></Point>
      </Placemark>
      <Placemark>
        <name><![CDATA[Dockyard Hotel]]></name>
        <description>Dockyard Hotel, Västra Frölunda</description>
        <styleUrl>#icon-22</styleUrl>
        <Point><coordinates>11.89368,57.685822,0</coordinates></Point>
      </Placemark>
      <Placemark>
        <name><![CDATA[Viking Yachting]]></name>
        <description>Viking Yachting, Västra Frölunda</description>
        <styleUrl>#icon-22</styleUrl>
        <Point><coordinates>11.895615,57.662111,0</coordinates></Point>
      </Placemark>
      <Placemark>
        <name><![CDATA[Solsidan Åkered]]></name>
        <description>Solsidan Åkered, Västra Frölunda</description>
        <styleUrl>#icon-22</styleUrl>
        <Point><coordinates>11.896272,57.635296,0</coordinates></Point>
      </Placemark>
      <Placemark>
        <name><![CDATA[Stora Holms Säteri Butik]]></name>
        <description>Stora Holms Säteri Butik, Göteborg</description>
        <styleUrl>#icon-22</styleUrl>
        <Point><coordinates>11.90685,57.772948,0</coordinates></Point>
      </Placemark>
      <Placemark>
        <name><![CDATA[Frölunda Kulturhus]]></name>
        <description>Frölunda Kulturhus, Västra Frölunda</description>
        <styleUrl>#icon-22</styleUrl>
        <Point><coordinates>11.909528,57.653891,0</coordinates></Point>
      </Placemark>
      <Placemark>
        <name><![CDATA[Allt I Godis Eriksberg]]></name>
        <description>Allt I Godis Eriksberg, Göteborg</description>
        <styleUrl>#icon-22</styleUrl>
        <Point><coordinates>11.913565,57.700248,0</coordinates></Point>
      </Placemark>
      <Placemark>
        <name><![CDATA[Eriksbergs Gastronomia]]></name>
        <description>Eriksbergs Gastronomia, Göteborg</description>
        <styleUrl>#icon-22</styleUrl>
        <Point><coordinates>11.913676,57.701632,0</coordinates></Point>
      </Placemark>
      <Placemark>
        <name><![CDATA[Majornas Sweets]]></name>
        <description>Majornas Sweets, Göteborg</description>
        <styleUrl>#icon-22</styleUrl>
        <Point><coordinates>11.915235,57.68805,0</coordinates></Point>
      </Placemark>
      <Placemark>
        <name><![CDATA[Fiskhuset Svana]]></name>
        <description>Fiskhuset Svana, Göteborg</description>
        <styleUrl>#icon-22</styleUrl>
        <Point><coordinates>11.91653,57.701243,0</coordinates></Point>
      </Placemark>
      <Placemark>
        <name><![CDATA[Laxbutiken Ljungskile]]></name>
        <description>Laxbutiken Ljungskile, Ljungskile</description>
        <styleUrl>#icon-22</styleUrl>
        <Point><coordinates>11.916634,58.222485,0</coordinates></Point>
      </Placemark>
      <Placemark>
        <name><![CDATA[Lerkilsbaren]]></name>
        <description>Lerkilsbaren, Vallda</description>
        <styleUrl>#icon-22</styleUrl>
        <Point><coordinates>11.916856,57.455573,0</coordinates></Point>
      </Placemark>
      <Placemark>
        <name><![CDATA[Askimbadet Glasscafe O Bangolf]]></name>
        <description>Askimbadet Glasscafe O Bangolf, Askim</description>
        <styleUrl>#icon-22</styleUrl>
        <Point><coordinates>11.929336,57.625294,0</coordinates></Point>
      </Placemark>
      <Placemark>
        <name><![CDATA[Wards Konditori]]></name>
        <description>Wards Konditori, Uddevalla</description>
        <styleUrl>#icon-22</styleUrl>
        <Point><coordinates>11.93472,58.350099,0</coordinates></Point>
      </Placemark>
      <Placemark>
        <name><![CDATA[Hisingen Sweet House]]></name>
        <description>Hisingen Sweet House, Göteborg</description>
        <styleUrl>#icon-22</styleUrl>
        <Point><coordinates>11.93506,57.727252,0</coordinates></Point>
      </Placemark>
      <Placemark>
        <name><![CDATA[Fit Food Fun]]></name>
        <description>Fit Food Fun, Särö</description>
        <styleUrl>#icon-22</styleUrl>
        <Point><coordinates>11.940231,57.505499,0</coordinates></Point>
      </Placemark>
      <Placemark>
        <name><![CDATA[Paradise Corner]]></name>
        <description>Paradise Corner, Göteborg</description>
        <styleUrl>#icon-22</styleUrl>
        <Point><coordinates>11.941592,57.695599,0</coordinates></Point>
      </Placemark>
      <Placemark>
        <name><![CDATA[Café Kullafik]]></name>
        <description>Café Kullafik, Kullavik</description>
        <styleUrl>#icon-22</styleUrl>
        <Point><coordinates>11.946671,57.546431,0</coordinates></Point>
      </Placemark>
      <Placemark>
        <name><![CDATA[Aloha Poke]]></name>
        <description>Aloha Poke, Kullavik</description>
        <styleUrl>#icon-22</styleUrl>
        <Point><coordinates>11.946671,57.546431,0</coordinates></Point>
      </Placemark>
      <Placemark>
        <name><![CDATA[Göteborgs Naturhistoriska Museum]]></name>
        <description>Göteborgs Naturhistoriska Museum, Göteborg</description>
        <styleUrl>#icon-22</styleUrl>
        <Point><coordinates>11.949011,57.689177,0</coordinates></Point>
      </Placemark>
      <Placemark>
        <name><![CDATA[Gött & Borg]]></name>
        <description>Gött & Borg, Göteborg</description>
        <styleUrl>#icon-22</styleUrl>
        <Point><coordinates>11.952092,57.693627,0</coordinates></Point>
      </Placemark>
      <Placemark>
        <name><![CDATA[7 O Clock]]></name>
        <description>7 O Clock, Göteborg</description>
        <styleUrl>#icon-22</styleUrl>
        <Point><coordinates>11.952445,57.690202,0</coordinates></Point>
      </Placemark>
      <Placemark>
        <name><![CDATA[Cafe Lille Prinsen]]></name>
        <description>Cafe Lille Prinsen, Göteborg</description>
        <styleUrl>#icon-22</styleUrl>
        <Point><coordinates>11.95297,57.693055,0</coordinates></Point>
      </Placemark>
      <Placemark>
        <name><![CDATA[Creperie & Logi Göteborg]]></name>
        <description>Creperie & Logi Göteborg, Göteborg</description>
        <styleUrl>#icon-22</styleUrl>
        <Point><coordinates>11.957457,57.694596,0</coordinates></Point>
      </Placemark>
      <Placemark>
        <name><![CDATA[Maritiman]]></name>
        <description>Maritiman, Göteborg</description>
        <styleUrl>#icon-22</styleUrl>
        <Point><coordinates>11.960662,57.708714,0</coordinates></Point>
      </Placemark>
      <Placemark>
        <name><![CDATA[Tanjas Food And Talk]]></name>
        <description>Tanjas Food And Talk, Uddevalla</description>
        <styleUrl>#icon-22</styleUrl>
        <Point><coordinates>11.962952,58.355434,0</coordinates></Point>
      </Placemark>
      <Placemark>
        <name><![CDATA[Göteborgs Choklad & Karamellfabrik]]></name>
        <description>Göteborgs Choklad & Karamellfabrik, Göteborg</description>
        <styleUrl>#icon-22</styleUrl>
        <Point><coordinates>11.963275,57.707598,0</coordinates></Point>
      </Placemark>
      <Placemark>
        <name><![CDATA[Glassbåten MS Eire]]></name>
        <description>Glassbåten MS Eire, Göteborg</description>
        <styleUrl>#icon-22</styleUrl>
        <Point><coordinates>11.96667,57.70694,0</coordinates></Point>
      </Placemark>
      <Placemark>
        <name><![CDATA[Cafe Estelle]]></name>
        <description>Cafe Estelle, Göteborg</description>
        <styleUrl>#icon-22</styleUrl>
        <Point><coordinates>11.972405,57.68403,0</coordinates></Point>
      </Placemark>
      <Placemark>
        <name><![CDATA[Skrotfrag]]></name>
        <description>Skrotfrag, Uddevalla</description>
        <styleUrl>#icon-22</styleUrl>
        <Point><coordinates>11.977062,58.366749,0</coordinates></Point>
      </Placemark>
      <Placemark>
        <name><![CDATA[Gaffelkonst Restaurang]]></name>
        <description>Gaffelkonst Restaurang, Göteborg</description>
        <styleUrl>#icon-22</styleUrl>
        <Point><coordinates>11.978933,57.705049,0</coordinates></Point>
      </Placemark>
      <Placemark>
        <name><![CDATA[Johannebergs Matbutik]]></name>
        <description>Johannebergs Matbutik, Göteborg</description>
        <styleUrl>#icon-22</styleUrl>
        <Point><coordinates>11.980112,57.692576,0</coordinates></Point>
      </Placemark>
      <Placemark>
        <name><![CDATA[Mona Livs]]></name>
        <description>Mona Livs, Göteborg</description>
        <styleUrl>#icon-22</styleUrl>
        <Point><coordinates>11.982513,57.686795,0</coordinates></Point>
      </Placemark>
      <Placemark>
        <name><![CDATA[Berzelii Café]]></name>
        <description>Berzelii Café, Göteborg</description>
        <styleUrl>#icon-22</styleUrl>
        <Point><coordinates>11.982748,57.699187,0</coordinates></Point>
      </Placemark>
      <Placemark>
        <name><![CDATA[Bubbles & Fries]]></name>
        <description>Bubbles & Fries, Göteborg</description>
        <styleUrl>#icon-22</styleUrl>
        <Point><coordinates>11.983894,57.701842,0</coordinates></Point>
      </Placemark>
      <Placemark>
        <name><![CDATA[Cozy Café]]></name>
        <description>Cozy Café, Kungälv</description>
        <styleUrl>#icon-22</styleUrl>
        <Point><coordinates>11.984114,57.869351,0</coordinates></Point>
      </Placemark>
      <Placemark>
        <name><![CDATA[Domi Cafe]]></name>
        <description>Domi Cafe, Göteborg</description>
        <styleUrl>#icon-22</styleUrl>
        <Point><coordinates>11.987117,57.694064,0</coordinates></Point>
      </Placemark>
      <Placemark>
        <name><![CDATA[Universeum]]></name>
        <description>Universeum, Göteborg</description>
        <styleUrl>#icon-22</styleUrl>
        <Point><coordinates>11.988343,57.69585,0</coordinates></Point>
      </Placemark>
      <Placemark>
        <name><![CDATA[Heta Bönan Café]]></name>
        <description>Heta Bönan Café, Färgelanda</description>
        <styleUrl>#icon-22</styleUrl>
        <Point><coordinates>11.995925,58.568292,0</coordinates></Point>
      </Placemark>
      <Placemark>
        <name><![CDATA[Limon Café]]></name>
        <description>Limon Café, Göteborg</description>
        <styleUrl>#icon-22</styleUrl>
        <Point><coordinates>12.002036,57.678087,0</coordinates></Point>
      </Placemark>
      <Placemark>
        <name><![CDATA[Salladshörnan]]></name>
        <description>Salladshörnan, Göteborg</description>
        <styleUrl>#icon-22</styleUrl>
        <Point><coordinates>12.002321,57.680186,0</coordinates></Point>
      </Placemark>
      <Placemark>
        <name><![CDATA[Åby Hotel]]></name>
        <description>Åby Hotel, Mölndal</description>
        <styleUrl>#icon-22</styleUrl>
        <Point><coordinates>12.003241,57.649148,0</coordinates></Point>
      </Placemark>
      <Placemark>
        <name><![CDATA[Åbytravet]]></name>
        <description>Åbytravet, Mölndal</description>
        <styleUrl>#icon-22</styleUrl>
        <Point><coordinates>12.004757,57.650874,0</coordinates></Point>
      </Placemark>
      <Placemark>
        <name><![CDATA[Göteborgs Pepparkaksbageri]]></name>
        <description>Göteborgs Pepparkaksbageri, Göteborg</description>
        <styleUrl>#icon-22</styleUrl>
        <Point><coordinates>12.005471,57.690537,0</coordinates></Point>
      </Placemark>
      <Placemark>
        <name><![CDATA[Al Basha Gbg]]></name>
        <description>Al Basha Gbg, Göteborg</description>
        <styleUrl>#icon-22</styleUrl>
        <Point><coordinates>12.00834,57.742643,0</coordinates></Point>
      </Placemark>
      <Placemark>
        <name><![CDATA[Träffpunktens Sommarcafé]]></name>
        <description>Träffpunktens Sommarcafé, Mölndal</description>
        <styleUrl>#icon-22</styleUrl>
        <Point><coordinates>12.012571,57.657222,0</coordinates></Point>
      </Placemark>
      <Placemark>
        <name><![CDATA[Hanis Café & Konditori]]></name>
        <description>Hanis Café & Konditori, Mölndal</description>
        <styleUrl>#icon-22</styleUrl>
        <Point><coordinates>12.014795,57.655721,0</coordinates></Point>
      </Placemark>
      <Placemark>
        <name><![CDATA[Chokoglad Bellevue]]></name>
        <description>Chokoglad Bellevue, Göteborg</description>
        <styleUrl>#icon-22</styleUrl>
        <Point><coordinates>12.024176,57.731958,0</coordinates></Point>
      </Placemark>
      <Placemark>
        <name><![CDATA[Noas Ark Onsala]]></name>
        <description>Noas Ark Onsala, Onsala</description>
        <styleUrl>#icon-22</styleUrl>
        <Point><coordinates>12.028231,57.414881,0</coordinates></Point>
      </Placemark>
      <Placemark>
        <name><![CDATA[Forscaféet]]></name>
        <description>Forscaféet, Mölndal</description>
        <styleUrl>#icon-22</styleUrl>
        <Point><coordinates>12.032086,57.657719,0</coordinates></Point>
      </Placemark>
      <Placemark>
        <name><![CDATA[Barista Café]]></name>
        <description>Barista Café, Göteborg</description>
        <styleUrl>#icon-22</styleUrl>
        <Point><coordinates>12.032174,57.751536,0</coordinates></Point>
      </Placemark>
      <Placemark>
        <name><![CDATA[Erikshjälpen]]></name>
        <description>Erikshjälpen, Göteborg</description>
        <styleUrl>#icon-22</styleUrl>
        <Point><coordinates>12.033386,57.753569,0</coordinates></Point>
      </Placemark>
      <Placemark>
        <name><![CDATA[Björkekärrshus Äldreboende]]></name>
        <description>Björkekärrshus Äldreboende, Göteborg</description>
        <styleUrl>#icon-22</styleUrl>
        <Point><coordinates>12.044746,57.713922,0</coordinates></Point>
      </Placemark>
      <Placemark>
        <name><![CDATA[Kandy Z Kållered]]></name>
        <description>Kandy Z Kållered, Kållered</description>
        <styleUrl>#icon-22</styleUrl>
        <Point><coordinates>12.046652,57.610767,0</coordinates></Point>
      </Placemark>
      <Placemark>
        <name><![CDATA[Utbynäs SK]]></name>
        <description>Utbynäs SK, Göteborg</description>
        <styleUrl>#icon-22</styleUrl>
        <Point><coordinates>12.053618,57.734991,0</coordinates></Point>
      </Placemark>
      <Placemark>
        <name><![CDATA[Lilla Laxen Drive In & Restaurang]]></name>
        <description>Lilla Laxen Drive In & Restaurang, Kungsbacka</description>
        <styleUrl>#icon-22</styleUrl>
        <Point><coordinates>12.059253,57.474318,0</coordinates></Point>
      </Placemark>
      <Placemark>
        <name><![CDATA[Örtgården]]></name>
        <description>Örtgården, Uddevalla</description>
        <styleUrl>#icon-22</styleUrl>
        <Point><coordinates>12.059422,58.394551,0</coordinates></Point>
      </Placemark>
      <Placemark>
        <name><![CDATA[Total Harmoni]]></name>
        <description>Total Harmoni, Kållered</description>
        <styleUrl>#icon-22</styleUrl>
        <Point><coordinates>12.063293,57.610409,0</coordinates></Point>
      </Placemark>
      <Placemark>
        <name><![CDATA[Landet Ingenstans]]></name>
        <description>Landet Ingenstans, Kungsbacka</description>
        <styleUrl>#icon-22</styleUrl>
        <Point><coordinates>12.073957,57.486626,0</coordinates></Point>
      </Placemark>
      <Placemark>
        <name><![CDATA[Lindas Tips & Trav]]></name>
        <description>Lindas Tips & Trav, Kungsbacka</description>
        <styleUrl>#icon-22</styleUrl>
        <Point><coordinates>12.075988,57.487269,0</coordinates></Point>
      </Placemark>
      <Placemark>
        <name><![CDATA[Erikshjälpen Second Hand Kungsbacka]]></name>
        <description>Erikshjälpen Second Hand Kungsbacka, Kungsbacka</description>
        <styleUrl>#icon-22</styleUrl>
        <Point><coordinates>12.077257,57.503128,0</coordinates></Point>
      </Placemark>
      <Placemark>
        <name><![CDATA[Glassboden I Parken]]></name>
        <description>Glassboden I Parken, Kungsbacka</description>
        <styleUrl>#icon-22</styleUrl>
        <Point><coordinates>12.077763,57.489129,0</coordinates></Point>
      </Placemark>
      <Placemark>
        <name><![CDATA[Signehus ÄBO]]></name>
        <description>Signehus ÄBO, Kungsbacka</description>
        <styleUrl>#icon-22</styleUrl>
        <Point><coordinates>12.077927,57.497775,0</coordinates></Point>
      </Placemark>
      <Placemark>
        <name><![CDATA[Café Röda Stugan]]></name>
        <description>Café Röda Stugan, Kungsbacka</description>
        <styleUrl>#icon-22</styleUrl>
        <Point><coordinates>12.077959,57.487427,0</coordinates></Point>
      </Placemark>
      <Placemark>
        <name><![CDATA[Lindome Järn Bygg Foder]]></name>
        <description>Lindome Järn Bygg Foder, Lindome</description>
        <styleUrl>#icon-22</styleUrl>
        <Point><coordinates>12.081135,57.574605,0</coordinates></Point>
      </Placemark>
      <Placemark>
        <name><![CDATA[Lasses Glassvagn]]></name>
        <description>Lasses Glassvagn, Åsa</description>
        <styleUrl>#icon-22</styleUrl>
        <Point><coordinates>12.083541,57.342933,0</coordinates></Point>
      </Placemark>
      <Placemark>
        <name><![CDATA[Tjolöholms Slott]]></name>
        <description>Tjolöholms Slott, Fjärås</description>
        <styleUrl>#icon-22</styleUrl>
        <Point><coordinates>12.102977,57.398633,0</coordinates></Point>
      </Placemark>
      <Placemark>
        <name><![CDATA[Lerbergs Lunch & Gårdscafe]]></name>
        <description>Lerbergs Lunch & Gårdscafe, Kungsbacka</description>
        <styleUrl>#icon-22</styleUrl>
        <Point><coordinates>12.109131,57.533778,0</coordinates></Point>
      </Placemark>
      <Placemark>
        <name><![CDATA[Rodins Bistro]]></name>
        <description>Rodins Bistro, Storlien</description>
        <styleUrl>#icon-22</styleUrl>
        <Point><coordinates>12.110102,63.309409,0</coordinates></Point>
      </Placemark>
      <Placemark>
        <name><![CDATA[Kock Malin]]></name>
        <description>Kock Malin, Älvängen</description>
        <styleUrl>#icon-22</styleUrl>
        <Point><coordinates>12.120868,57.958112,0</coordinates></Point>
      </Placemark>
      <Placemark>
        <name><![CDATA[Åsa Glasscafé]]></name>
        <description>Åsa Glasscafé, Åsa</description>
        <styleUrl>#icon-22</styleUrl>
        <Point><coordinates>12.123006,57.349309,0</coordinates></Point>
      </Placemark>
      <Placemark>
        <name><![CDATA[Löftadelens Folkehögskola]]></name>
        <description>Löftadelens Folkehögskola, Åsa</description>
        <styleUrl>#icon-22</styleUrl>
        <Point><coordinates>12.125083,57.344012,0</coordinates></Point>
      </Placemark>
      <Placemark>
        <name><![CDATA[Elviras Glass]]></name>
        <description>Elviras Glass, Gustavsfors</description>
        <styleUrl>#icon-22</styleUrl>
        <Point><coordinates>12.126131,59.204737,0</coordinates></Point>
      </Placemark>
      <Placemark>
        <name><![CDATA[Broms Café]]></name>
        <description>Broms Café, Årjäng</description>
        <styleUrl>#icon-22</styleUrl>
        <Point><coordinates>12.132649,59.392108,0</coordinates></Point>
      </Placemark>
      <Placemark>
        <name><![CDATA[Moa's Garden]]></name>
        <description>Moa's Garden, Årjäng</description>
        <styleUrl>#icon-22</styleUrl>
        <Point><coordinates>12.138978,59.395314,0</coordinates></Point>
      </Placemark>
      <Placemark>
        <name><![CDATA[Jammy Restaurang]]></name>
        <description>Jammy Restaurang, Fjärås</description>
        <styleUrl>#icon-22</styleUrl>
        <Point><coordinates>12.15542,57.433346,0</coordinates></Point>
      </Placemark>
      <Placemark>
        <name><![CDATA[Kitekalle Göteborg]]></name>
        <description>Kitekalle Göteborg, Frillesås</description>
        <styleUrl>#icon-22</styleUrl>
        <Point><coordinates>12.158166,57.331022,0</coordinates></Point>
      </Placemark>
      <Placemark>
        <name><![CDATA[Vallersviks Camping]]></name>
        <description>Vallersviks Camping, Frillesås</description>
        <styleUrl>#icon-22</styleUrl>
        <Point><coordinates>12.15896,57.320706,0</coordinates></Point>
      </Placemark>
      <Placemark>
        <name><![CDATA[Café Maneten]]></name>
        <description>Café Maneten, Frillesås</description>
        <styleUrl>#icon-22</styleUrl>
        <Point><coordinates>12.15896,57.320706,0</coordinates></Point>
      </Placemark>
      <Placemark>
        <name><![CDATA[Bergums Skola Göteborg]]></name>
        <description>Bergums Skola Göteborg, Olofstorp</description>
        <styleUrl>#icon-22</styleUrl>
        <Point><coordinates>12.169332,57.805055,0</coordinates></Point>
      </Placemark>
      <Placemark>
        <name><![CDATA[Gött Häng]]></name>
        <description>Gött Häng, Frillesås</description>
        <styleUrl>#icon-22</styleUrl>
        <Point><coordinates>12.175288,57.318541,0</coordinates></Point>
      </Placemark>
      <Placemark>
        <name><![CDATA[Fridas Restaurang]]></name>
        <description>Fridas Restaurang, Varberg</description>
        <styleUrl>#icon-22</styleUrl>
        <Point><coordinates>12.214231,57.185141,0</coordinates></Point>
      </Placemark>
      <Placemark>
        <name><![CDATA[Varbergs Flygcafé]]></name>
        <description>Varbergs Flygcafé, Varberg</description>
        <styleUrl>#icon-22</styleUrl>
        <Point><coordinates>12.214416,57.115105,0</coordinates></Point>
      </Placemark>
      <Placemark>
        <name><![CDATA[Jippies Veranda]]></name>
        <description>Jippies Veranda, Varberg</description>
        <styleUrl>#icon-22</styleUrl>
        <Point><coordinates>12.216528,57.185164,0</coordinates></Point>
      </Placemark>
      <Placemark>
        <name><![CDATA[Köpenhamnsgården]]></name>
        <description>Köpenhamnsgården, Varberg</description>
        <styleUrl>#icon-22</styleUrl>
        <Point><coordinates>12.220618,57.191318,0</coordinates></Point>
      </Placemark>
      <Placemark>
        <name><![CDATA[Din X]]></name>
        <description>Din X, Bengtsfors</description>
        <styleUrl>#icon-22</styleUrl>
        <Point><coordinates>12.221312,59.031867,0</coordinates></Point>
      </Placemark>
      <Placemark>
        <name><![CDATA[Lilla Damaskus]]></name>
        <description>Lilla Damaskus, Bengtsfors</description>
        <styleUrl>#icon-22</styleUrl>
        <Point><coordinates>12.224199,59.02972,0</coordinates></Point>
      </Placemark>
      <Placemark>
        <name><![CDATA[Bengtsforsgrillen]]></name>
        <description>Bengtsforsgrillen, Bengtsfors</description>
        <styleUrl>#icon-22</styleUrl>
        <Point><coordinates>12.227146,59.029042,0</coordinates></Point>
      </Placemark>
      <Placemark>
        <name><![CDATA[Kafé Längan]]></name>
        <description>Kafé Längan, Varberg</description>
        <styleUrl>#icon-22</styleUrl>
        <Point><coordinates>12.239679,57.105273,0</coordinates></Point>
      </Placemark>
      <Placemark>
        <name><![CDATA[Rolands Café]]></name>
        <description>Rolands Café, Varberg</description>
        <styleUrl>#icon-22</styleUrl>
        <Point><coordinates>12.24434,57.102236,0</coordinates></Point>
      </Placemark>
      <Placemark>
        <name><![CDATA[Glasskärran]]></name>
        <description>Glasskärran, Varberg</description>
        <styleUrl>#icon-22</styleUrl>
        <Point><coordinates>12.252528,57.1044,0</coordinates></Point>
      </Placemark>
      <Placemark>
        <name><![CDATA[Bryggan 30]]></name>
        <description>Bryggan 30, Varberg</description>
        <styleUrl>#icon-22</styleUrl>
        <Point><coordinates>12.253101,57.106613,0</coordinates></Point>
      </Placemark>
      <Placemark>
        <name><![CDATA[Godis & Snuspalatset]]></name>
        <description>Godis & Snuspalatset, Varberg</description>
        <styleUrl>#icon-22</styleUrl>
        <Point><coordinates>12.253612,57.105483,0</coordinates></Point>
      </Placemark>
      <Placemark>
        <name><![CDATA[Båbergs Nöje]]></name>
        <description>Båbergs Nöje, Trollhättan</description>
        <styleUrl>#icon-22</styleUrl>
        <Point><coordinates>12.265887,58.330267,0</coordinates></Point>
      </Placemark>
      <Placemark>
        <name><![CDATA[Slusscaféet Skoftebyns If]]></name>
        <description>Slusscaféet Skoftebyns If, Trollhättan</description>
        <styleUrl>#icon-22</styleUrl>
        <Point><coordinates>12.268166,58.263685,0</coordinates></Point>
      </Placemark>
      <Placemark>
        <name><![CDATA[Peder Skrivares Skola]]></name>
        <description>Peder Skrivares Skola, Varberg</description>
        <styleUrl>#icon-22</styleUrl>
        <Point><coordinates>12.271019,57.105101,0</coordinates></Point>
      </Placemark>
      <Placemark>
        <name><![CDATA[Tre Toppar Glasscafé]]></name>
        <description>Tre Toppar Glasscafé, Träslövsläge</description>
        <styleUrl>#icon-22</styleUrl>
        <Point><coordinates>12.273238,57.057893,0</coordinates></Point>
      </Placemark>
      <Placemark>
        <name><![CDATA[Societetsparkens Minigolf]]></name>
        <description>Societetsparkens Minigolf, Varberg</description>
        <styleUrl>#icon-22</styleUrl>
        <Point><coordinates>12.274538,57.103173,0</coordinates></Point>
      </Placemark>
      <Placemark>
        <name><![CDATA[Warbergs Tomat]]></name>
        <description>Warbergs Tomat, Varberg</description>
        <styleUrl>#icon-22</styleUrl>
        <Point><coordinates>12.276986,57.169638,0</coordinates></Point>
      </Placemark>
      <Placemark>
        <name><![CDATA[E75 Tobak O Snuslagret]]></name>
        <description>E75 Tobak O Snuslagret, Frändefors</description>
        <styleUrl>#icon-22</styleUrl>
        <Point><coordinates>12.281308,58.500176,0</coordinates></Point>
      </Placemark>
      <Placemark>
        <name><![CDATA[Vovking]]></name>
        <description>Vovking, Träslölvsläge</description>
        <styleUrl>#icon-22</styleUrl>
        <Point><coordinates>12.286285,57.054029,0</coordinates></Point>
      </Placemark>
      <Placemark>
        <name><![CDATA[Glasscafet Tre Luckor]]></name>
        <description>Glasscafet Tre Luckor, Trollhättan</description>
        <styleUrl>#icon-22</styleUrl>
        <Point><coordinates>12.286949,58.2837,0</coordinates></Point>
      </Placemark>
      <Placemark>
        <name><![CDATA[Lillegårdens Kött & Chark]]></name>
        <description>Lillegårdens Kött & Chark, Varberg</description>
        <styleUrl>#icon-22</styleUrl>
        <Point><coordinates>12.287499,57.140954,0</coordinates></Point>
      </Placemark>
      <Placemark>
        <name><![CDATA[Träslövsläge IF]]></name>
        <description>Träslövsläge IF, Träslövsläge</description>
        <styleUrl>#icon-22</styleUrl>
        <Point><coordinates>12.288798,57.05775,0</coordinates></Point>
      </Placemark>
      <Placemark>
        <name><![CDATA[Glassboden Drottningtorget]]></name>
        <description>Glassboden Drottningtorget, Trollhättan</description>
        <styleUrl>#icon-22</styleUrl>
        <Point><coordinates>12.28972,58.283814,0</coordinates></Point>
      </Placemark>
      <Placemark>
        <name><![CDATA[Cactuz]]></name>
        <description>Cactuz, Trollhättan</description>
        <styleUrl>#icon-22</styleUrl>
        <Point><coordinates>12.28972,58.283814,0</coordinates></Point>
      </Placemark>
      <Placemark>
        <name><![CDATA[Kiosken Charlottenberg Shoppingcenter]]></name>
        <description>Kiosken Charlottenberg Shoppingcenter, Charlottenberg</description>
        <styleUrl>#icon-22</styleUrl>
        <Point><coordinates>12.289806,59.881886,0</coordinates></Point>
      </Placemark>
      <Placemark>
        <name><![CDATA[Ursand Camping, Blåbärsstället]]></name>
        <description>Ursand Camping, Blåbärsstället, Vänersborg</description>
        <styleUrl>#icon-22</styleUrl>
        <Point><coordinates>12.290472,58.393671,0</coordinates></Point>
      </Placemark>
      <Placemark>
        <name><![CDATA[Årjängs Golfkrog]]></name>
        <description>Årjängs Golfkrog, Årjäng</description>
        <styleUrl>#icon-22</styleUrl>
        <Point><coordinates>12.291423,59.341561,0</coordinates></Point>
      </Placemark>
      <Placemark>
        <name><![CDATA[Gården Vid Bron]]></name>
        <description>Gården Vid Bron, Veddige</description>
        <styleUrl>#icon-22</styleUrl>
        <Point><coordinates>12.308421,57.239012,0</coordinates></Point>
      </Placemark>
      <Placemark>
        <name><![CDATA[Erikshjälpen Pingstkyrkan Vänersborg]]></name>
        <description>Erikshjälpen Pingstkyrkan Vänersborg, Vänersborg</description>
        <styleUrl>#icon-22</styleUrl>
        <Point><coordinates>12.3124,58.381295,0</coordinates></Point>
      </Placemark>
      <Placemark>
        <name><![CDATA[Jecko & Jessies Lekland]]></name>
        <description>Jecko & Jessies Lekland, Trollhättan</description>
        <styleUrl>#icon-22</styleUrl>
        <Point><coordinates>12.313252,58.315709,0</coordinates></Point>
      </Placemark>
      <Placemark>
        <name><![CDATA[Baldersnäs Herrgård]]></name>
        <description>Baldersnäs Herrgård, Dals Långed</description>
        <styleUrl>#icon-22</styleUrl>
        <Point><coordinates>12.31667,58.91667,0</coordinates></Point>
      </Placemark>
      <Placemark>
        <name><![CDATA[Renbiten Ab]]></name>
        <description>Renbiten Ab, Idre</description>
        <styleUrl>#icon-22</styleUrl>
        <Point><coordinates>12.318524,62.062601,0</coordinates></Point>
      </Placemark>
      <Placemark>
        <name><![CDATA[Nolato]]></name>
        <description>Nolato, Trollhättan</description>
        <styleUrl>#icon-22</styleUrl>
        <Point><coordinates>12.321696,58.274841,0</coordinates></Point>
      </Placemark>
      <Placemark>
        <name><![CDATA[Veddige Simhall]]></name>
        <description>Veddige Simhall, Veddige</description>
        <styleUrl>#icon-22</styleUrl>
        <Point><coordinates>12.32493,57.264485,0</coordinates></Point>
      </Placemark>
      <Placemark>
        <name><![CDATA[Skräcklestugan]]></name>
        <description>Skräcklestugan, Vänersborg</description>
        <styleUrl>#icon-22</styleUrl>
        <Point><coordinates>12.329102,58.385148,0</coordinates></Point>
      </Placemark>
      <Placemark>
        <name><![CDATA[Elinors Fjällservice AB]]></name>
        <description>Elinors Fjällservice AB, Duved</description>
        <styleUrl>#icon-22</styleUrl>
        <Point><coordinates>12.331219,63.284584,0</coordinates></Point>
      </Placemark>
      <Placemark>
        <name><![CDATA[Café Commerce]]></name>
        <description>Café Commerce, Brålanda</description>
        <styleUrl>#icon-22</styleUrl>
        <Point><coordinates>12.350059,58.561823,0</coordinates></Point>
      </Placemark>
      <Placemark>
        <name><![CDATA[Grövelsjö Alpacka Cafe]]></name>
        <description>Grövelsjö Alpacka Cafe, Idre</description>
        <styleUrl>#icon-22</styleUrl>
        <Point><coordinates>12.350729,62.004506,0</coordinates></Point>
      </Placemark>
      <Placemark>
        <name><![CDATA[Kiosken På Västra Banan]]></name>
        <description>Kiosken På Västra Banan, Tvååker</description>
        <styleUrl>#icon-22</styleUrl>
        <Point><coordinates>12.352146,57.05551,0</coordinates></Point>
      </Placemark>
      <Placemark>
        <name><![CDATA[Varbergs Tropikarium]]></name>
        <description>Varbergs Tropikarium, Tvååker</description>
        <styleUrl>#icon-22</styleUrl>
        <Point><coordinates>12.354919,57.01206,0</coordinates></Point>
      </Placemark>
      <Placemark>
        <name><![CDATA[Ellas Mat & Prylar]]></name>
        <description>Ellas Mat & Prylar, Glommen</description>
        <styleUrl>#icon-22</styleUrl>
        <Point><coordinates>12.361479,56.957089,0</coordinates></Point>
      </Placemark>
      <Placemark>
        <name><![CDATA[Glommens Pizzeria]]></name>
        <description>Glommens Pizzeria, Glommen</description>
        <styleUrl>#icon-22</styleUrl>
        <Point><coordinates>12.364194,56.930511,0</coordinates></Point>
      </Placemark>
      <Placemark>
        <name><![CDATA[Bergströms Tehandel]]></name>
        <description>Bergströms Tehandel, Varberg</description>
        <styleUrl>#icon-22</styleUrl>
        <Point><coordinates>12.377395,57.094624,0</coordinates></Point>
      </Placemark>
      <Placemark>
        <name><![CDATA[Caravan Club]]></name>
        <description>Caravan Club, Falkenberg</description>
        <styleUrl>#icon-22</styleUrl>
        <Point><coordinates>12.396089,56.922906,0</coordinates></Point>
      </Placemark>
      <Placemark>
        <name><![CDATA[Gööks Bageri]]></name>
        <description>Gööks Bageri, Tvååker</description>
        <styleUrl>#icon-22</styleUrl>
        <Point><coordinates>12.398822,57.040563,0</coordinates></Point>
      </Placemark>
      <Placemark>
        <name><![CDATA[Hallevibadet]]></name>
        <description>Hallevibadet, Vargön</description>
        <styleUrl>#icon-22</styleUrl>
        <Point><coordinates>12.400358,58.366718,0</coordinates></Point>
      </Placemark>
      <Placemark>
        <name><![CDATA[Olofsbos Islandshästar]]></name>
        <description>Olofsbos Islandshästar, Falkenberg</description>
        <styleUrl>#icon-22</styleUrl>
        <Point><coordinates>12.400427,56.930965,0</coordinates></Point>
      </Placemark>
      <Placemark>
        <name><![CDATA[Elma's Gårdskafe & Hantverksbod]]></name>
        <description>Elma's Gårdskafe & Hantverksbod, Brålanda</description>
        <styleUrl>#icon-22</styleUrl>
        <Point><coordinates>12.410931,58.508567,0</coordinates></Point>
      </Placemark>
      <Placemark>
        <name><![CDATA[Dalslands Kanal]]></name>
        <description>Dalslands Kanal, Håverud</description>
        <styleUrl>#icon-22</styleUrl>
        <Point><coordinates>12.412196,58.821265,0</coordinates></Point>
      </Placemark>
      <Placemark>
        <name><![CDATA[Strömma Farmlodge]]></name>
        <description>Strömma Farmlodge, Tvååker</description>
        <styleUrl>#icon-22</styleUrl>
        <Point><coordinates>12.425222,57.057095,0</coordinates></Point>
      </Placemark>
      <Placemark>
        <name><![CDATA[Spiskupan]]></name>
        <description>Spiskupan, Vargön</description>
        <styleUrl>#icon-22</styleUrl>
        <Point><coordinates>12.430418,58.346846,0</coordinates></Point>
      </Placemark>
      <Placemark>
        <name><![CDATA[Hanriis Café]]></name>
        <description>Hanriis Café, Duved</description>
        <styleUrl>#icon-22</styleUrl>
        <Point><coordinates>12.450625,63.252282,0</coordinates></Point>
      </Placemark>
      <Placemark>
        <name><![CDATA[Kullens Fyr]]></name>
        <description>Kullens Fyr, Mölle</description>
        <styleUrl>#icon-22</styleUrl>
        <Point><coordinates>12.452027,56.301275,0</coordinates></Point>
      </Placemark>
      <Placemark>
        <name><![CDATA[Sunnanå Restaurang]]></name>
        <description>Sunnanå Restaurang, Mellerud</description>
        <styleUrl>#icon-22</styleUrl>
        <Point><coordinates>12.484884,58.705106,0</coordinates></Point>
      </Placemark>
      <Placemark>
        <name><![CDATA[SIA Glass Café]]></name>
        <description>SIA Glass Café, Falkenberg</description>
        <styleUrl>#icon-22</styleUrl>
        <Point><coordinates>12.490949,56.904832,0</coordinates></Point>
      </Placemark>
      <Placemark>
        <name><![CDATA[Glasshuset Skrea]]></name>
        <description>Glasshuset Skrea, Falkenberg</description>
        <styleUrl>#icon-22</styleUrl>
        <Point><coordinates>12.49167,56.90278,0</coordinates></Point>
      </Placemark>
      <Placemark>
        <name><![CDATA[Waynes]]></name>
        <description>Waynes, Falkenberg</description>
        <styleUrl>#icon-22</styleUrl>
        <Point><coordinates>12.49219,56.903152,0</coordinates></Point>
      </Placemark>
      <Placemark>
        <name><![CDATA[Waynes Coffe]]></name>
        <description>Waynes Coffe, Falkenberg</description>
        <styleUrl>#icon-22</styleUrl>
        <Point><coordinates>12.492397,56.903731,0</coordinates></Point>
      </Placemark>
      <Placemark>
        <name><![CDATA[Gööks Bageri]]></name>
        <description>Gööks Bageri, Falkenberg</description>
        <styleUrl>#icon-22</styleUrl>
        <Point><coordinates>12.49282,56.905259,0</coordinates></Point>
      </Placemark>
      <Placemark>
        <name><![CDATA[La Playa]]></name>
        <description>La Playa, Falkenberg</description>
        <styleUrl>#icon-22</styleUrl>
        <Point><coordinates>12.496118,56.888006,0</coordinates></Point>
      </Placemark>
      <Placemark>
        <name><![CDATA[Mijons]]></name>
        <description>Mijons, Falkenberg</description>
        <styleUrl>#icon-22</styleUrl>
        <Point><coordinates>12.498604,56.888806,0</coordinates></Point>
      </Placemark>
      <Placemark>
        <name><![CDATA[Standen]]></name>
        <description>Standen, Falkenberg</description>
        <styleUrl>#icon-22</styleUrl>
        <Point><coordinates>12.50399,56.884345,0</coordinates></Point>
      </Placemark>
      <Placemark>
        <name><![CDATA[Campino Falkenberg]]></name>
        <description>Campino Falkenberg, Falkenberg</description>
        <styleUrl>#icon-22</styleUrl>
        <Point><coordinates>12.506229,56.9079,0</coordinates></Point>
      </Placemark>
      <Placemark>
        <name><![CDATA[Tallhyddan]]></name>
        <description>Tallhyddan, Alingsås</description>
        <styleUrl>#icon-22</styleUrl>
        <Point><coordinates>12.508793,57.934698,0</coordinates></Point>
      </Placemark>
      <Placemark>
        <name><![CDATA[Ica Supermarket Skrea Strand]]></name>
        <description>Ica Supermarket Skrea Strand, Falkenberg</description>
        <styleUrl>#icon-22</styleUrl>
        <Point><coordinates>12.510971,56.887221,0</coordinates></Point>
      </Placemark>
      <Placemark>
        <name><![CDATA[Funäsgrillen]]></name>
        <description>Funäsgrillen, Funäsdalen</description>
        <styleUrl>#icon-22</styleUrl>
        <Point><coordinates>12.522924,62.549419,0</coordinates></Point>
      </Placemark>
      <Placemark>
        <name><![CDATA[Knafves Café & Diverse]]></name>
        <description>Knafves Café & Diverse, Mölle</description>
        <styleUrl>#icon-22</styleUrl>
        <Point><coordinates>12.529423,56.280862,0</coordinates></Point>
      </Placemark>
      <Placemark>
        <name><![CDATA[Bubblerian Mölle]]></name>
        <description>Bubblerian Mölle, Mölle</description>
        <styleUrl>#icon-22</styleUrl>
        <Point><coordinates>12.531434,56.270936,0</coordinates></Point>
      </Placemark>
      <Placemark>
        <name><![CDATA[A-Kembar]]></name>
        <description>A-Kembar, Falkenberg</description>
        <styleUrl>#icon-22</styleUrl>
        <Point><coordinates>12.533532,56.899913,0</coordinates></Point>
      </Placemark>
      <Placemark>
        <name><![CDATA[Kaffekoppen I Sollebrunn]]></name>
        <description>Kaffekoppen I Sollebrunn, Sollebrunn</description>
        <styleUrl>#icon-22</styleUrl>
        <Point><coordinates>12.533715,58.118853,0</coordinates></Point>
      </Placemark>
      <Placemark>
        <name><![CDATA[Larssons Gårdsbutik]]></name>
        <description>Larssons Gårdsbutik, Ånimskog</description>
        <styleUrl>#icon-22</styleUrl>
        <Point><coordinates>12.541565,58.90892,0</coordinates></Point>
      </Placemark>
      <Placemark>
        <name><![CDATA[Himmelstorps Hembygdsgård]]></name>
        <description>Himmelstorps Hembygdsgård, Mölle</description>
        <styleUrl>#icon-22</styleUrl>
        <Point><coordinates>12.549078,56.276057,0</coordinates></Point>
      </Placemark>
      <Placemark>
        <name><![CDATA[Pannkaksladan]]></name>
        <description>Pannkaksladan, Höganäs</description>
        <styleUrl>#icon-22</styleUrl>
        <Point><coordinates>12.563489,56.215193,0</coordinates></Point>
      </Placemark>
      <Placemark>
        <name><![CDATA[Nordvästra Skånes Flygklubb]]></name>
        <description>Nordvästra Skånes Flygklubb, Höganäs</description>
        <styleUrl>#icon-22</styleUrl>
        <Point><coordinates>12.580316,56.184261,0</coordinates></Point>
      </Placemark>
      <Placemark>
        <name><![CDATA[Högvalta Handelsträdgård]]></name>
        <description>Högvalta Handelsträdgård, Arvika</description>
        <styleUrl>#icon-22</styleUrl>
        <Point><coordinates>12.582909,59.68642,0</coordinates></Point>
      </Placemark>
      <Placemark>
        <name><![CDATA[Arvika Idrottscenter]]></name>
        <description>Arvika Idrottscenter, Arvika</description>
        <styleUrl>#icon-22</styleUrl>
        <Point><coordinates>12.591813,59.652625,0</coordinates></Point>
      </Placemark>
      <Placemark>
        <name><![CDATA[Nordells Konditori]]></name>
        <description>Nordells Konditori, Arvika</description>
        <styleUrl>#icon-22</styleUrl>
        <Point><coordinates>12.592361,59.654193,0</coordinates></Point>
      </Placemark>
      <Placemark>
        <name><![CDATA[Cafe Arvika Kommun]]></name>
        <description>Cafe Arvika Kommun, Arvika</description>
        <styleUrl>#icon-22</styleUrl>
        <Point><coordinates>12.59618,59.653913,0</coordinates></Point>
      </Placemark>
      <Placemark>
        <name><![CDATA[Nya Strandstugan]]></name>
        <description>Nya Strandstugan, Heberg</description>
        <styleUrl>#icon-22</styleUrl>
        <Point><coordinates>12.6,56.835864,0</coordinates></Point>
      </Placemark>
      <Placemark>
        <name><![CDATA[Laxbutiken]]></name>
        <description>Laxbutiken, Heberg</description>
        <styleUrl>#icon-22</styleUrl>
        <Point><coordinates>12.600969,56.886258,0</coordinates></Point>
      </Placemark>
      <Placemark>
        <name><![CDATA[Ugglarps Camping]]></name>
        <description>Ugglarps Camping, Ugglarp</description>
        <styleUrl>#icon-22</styleUrl>
        <Point><coordinates>12.609378,56.823318,0</coordinates></Point>
      </Placemark>
      <Placemark>
        <name><![CDATA[Tössestugan]]></name>
        <description>Tössestugan, Tösse</description>
        <styleUrl>#icon-22</styleUrl>
        <Point><coordinates>12.614847,58.966485,0</coordinates></Point>
      </Placemark>
      <Placemark>
        <name><![CDATA[Kilagård]]></name>
        <description>Kilagård, Heberg</description>
        <styleUrl>#icon-22</styleUrl>
        <Point><coordinates>12.617082,56.852183,0</coordinates></Point>
      </Placemark>
      <Placemark>
        <name><![CDATA[Tvällen Värdshuset]]></name>
        <description>Tvällen Värdshuset, Gunnarskog</description>
        <styleUrl>#icon-22</styleUrl>
        <Point><coordinates>12.621063,60.021122,0</coordinates></Point>
      </Placemark>
      <Placemark>
        <name><![CDATA[Arvika Fotboll]]></name>
        <description>Arvika Fotboll, Arvika</description>
        <styleUrl>#icon-22</styleUrl>
        <Point><coordinates>12.621831,59.651717,0</coordinates></Point>
      </Placemark>
      <Placemark>
        <name><![CDATA[Torekovs Hamnkiosk & Pizzeria]]></name>
        <description>Torekovs Hamnkiosk & Pizzeria, Torekov</description>
        <styleUrl>#icon-22</styleUrl>
        <Point><coordinates>12.629769,56.423325,0</coordinates></Point>
      </Placemark>
      <Placemark>
        <name><![CDATA[Katrinebergs Folkhögskola]]></name>
        <description>Katrinebergs Folkhögskola, Vessigebro</description>
        <styleUrl>#icon-22</styleUrl>
        <Point><coordinates>12.6397,56.97352,0</coordinates></Point>
      </Placemark>
      <Placemark>
        <name><![CDATA[Hilles Loppis]]></name>
        <description>Hilles Loppis, Ullared</description>
        <styleUrl>#icon-22</styleUrl>
        <Point><coordinates>12.642091,57.058875,0</coordinates></Point>
      </Placemark>
      <Placemark>
        <name><![CDATA[Skene Star]]></name>
        <description>Skene Star, Skene</description>
        <styleUrl>#icon-22</styleUrl>
        <Point><coordinates>12.646944,57.486629,0</coordinates></Point>
      </Placemark>
      <Placemark>
        <name><![CDATA[Bread On Wine]]></name>
        <description>Bread On Wine, Sankt Ibb</description>
        <styleUrl>#icon-22</styleUrl>
        <Point><coordinates>12.674259,55.910387,0</coordinates></Point>
      </Placemark>
      <Placemark>
        <name><![CDATA[Henke Kiosken, Pålsjöbaden]]></name>
        <description>Henke Kiosken, Pålsjöbaden, Helsingborg</description>
        <styleUrl>#icon-22</styleUrl>
        <Point><coordinates>12.678287,56.0644,0</coordinates></Point>
      </Placemark>
      <Placemark>
        <name><![CDATA[Sofiero Förvaltning]]></name>
        <description>Sofiero Förvaltning, Helsingborg</description>
        <styleUrl>#icon-22</styleUrl>
        <Point><coordinates>12.678287,56.0644,0</coordinates></Point>
      </Placemark>
      <Placemark>
        <name><![CDATA[SIA Glass butik och glassbar]]></name>
        <description>SIA Glass butik och glassbar, Slöinge</description>
        <styleUrl>#icon-22</styleUrl>
        <Point><coordinates>12.682715,56.85574,0</coordinates></Point>
      </Placemark>
      <Placemark>
        <name><![CDATA[Härjebygg]]></name>
        <description>Härjebygg, Tännäs</description>
        <styleUrl>#icon-22</styleUrl>
        <Point><coordinates>12.685331,62.441164,0</coordinates></Point>
      </Placemark>
      <Placemark>
        <name><![CDATA[Tågaglass Ab]]></name>
        <description>Tågaglass Ab, Helsingborg</description>
        <styleUrl>#icon-22</styleUrl>
        <Point><coordinates>12.686154,56.05199,0</coordinates></Point>
      </Placemark>
      <Placemark>
        <name><![CDATA[Lunnevibadet]]></name>
        <description>Lunnevibadet, Grästorp</description>
        <styleUrl>#icon-22</styleUrl>
        <Point><coordinates>12.686451,58.32926,0</coordinates></Point>
      </Placemark>
      <Placemark>
        <name><![CDATA[Kebabkungen Norra Hamnen]]></name>
        <description>Kebabkungen Norra Hamnen, Helsingborg</description>
        <styleUrl>#icon-22</styleUrl>
        <Point><coordinates>12.687038,56.049189,0</coordinates></Point>
      </Placemark>
      <Placemark>
        <name><![CDATA[Thores Bageri]]></name>
        <description>Thores Bageri, Helsingborg</description>
        <styleUrl>#icon-22</styleUrl>
        <Point><coordinates>12.690677,56.046501,0</coordinates></Point>
      </Placemark>
      <Placemark>
        <name><![CDATA[Tågaglass]]></name>
        <description>Tågaglass, Helsingborg</description>
        <styleUrl>#icon-22</styleUrl>
        <Point><coordinates>12.691179,56.047538,0</coordinates></Point>
      </Placemark>
      <Placemark>
        <name><![CDATA[Johans Kiosk]]></name>
        <description>Johans Kiosk, Kinna</description>
        <styleUrl>#icon-22</styleUrl>
        <Point><coordinates>12.692229,57.507375,0</coordinates></Point>
      </Placemark>
      <Placemark>
        <name><![CDATA[Trattoria Bonasera]]></name>
        <description>Trattoria Bonasera, Helsingborg</description>
        <styleUrl>#icon-22</styleUrl>
        <Point><coordinates>12.692453,56.064903,0</coordinates></Point>
      </Placemark>
      <Placemark>
        <name><![CDATA[Regio I Helsingborg]]></name>
        <description>Regio I Helsingborg, Helsingborg</description>
        <styleUrl>#icon-22</styleUrl>
        <Point><coordinates>12.692453,56.064903,0</coordinates></Point>
      </Placemark>
      <Placemark>
        <name><![CDATA[Waynes Coffee Rådhustorget Helsingborg]]></name>
        <description>Waynes Coffee Rådhustorget Helsingborg, Helsingborg</description>
        <styleUrl>#icon-22</styleUrl>
        <Point><coordinates>12.692492,56.047282,0</coordinates></Point>
      </Placemark>
      <Placemark>
        <name><![CDATA[Rydals Herrgård]]></name>
        <description>Rydals Herrgård, Rydal</description>
        <styleUrl>#icon-22</styleUrl>
        <Point><coordinates>12.69488,57.554671,0</coordinates></Point>
      </Placemark>
      <Placemark>
        <name><![CDATA[Rehamco International AB]]></name>
        <description>Rehamco International AB, Helsingborg</description>
        <styleUrl>#icon-22</styleUrl>
        <Point><coordinates>12.695158,56.046329,0</coordinates></Point>
      </Placemark>
      <Placemark>
        <name><![CDATA[Vilshärads Camping]]></name>
        <description>Vilshärads Camping, Vilshärad</description>
        <styleUrl>#icon-22</styleUrl>
        <Point><coordinates>12.696088,56.694705,0</coordinates></Point>
      </Placemark>
      <Placemark>
        <name><![CDATA[Vilshärads Camping]]></name>
        <description>Vilshärads Camping, Vilshärad</description>
        <styleUrl>#icon-22</styleUrl>
        <Point><coordinates>12.696088,56.694705,0</coordinates></Point>
      </Placemark>
      <Placemark>
        <name><![CDATA[Tåga Glass Kärnan]]></name>
        <description>Tåga Glass Kärnan, Helsingborg</description>
        <styleUrl>#icon-22</styleUrl>
        <Point><coordinates>12.696456,56.04745,0</coordinates></Point>
      </Placemark>
      <Placemark>
        <name><![CDATA[Kebabkungen Söder]]></name>
        <description>Kebabkungen Söder, Helsingborg</description>
        <styleUrl>#icon-22</styleUrl>
        <Point><coordinates>12.698341,56.04172,0</coordinates></Point>
      </Placemark>
      <Placemark>
        <name><![CDATA[Choco Venue]]></name>
        <description>Choco Venue, Helsingborg</description>
        <styleUrl>#icon-22</styleUrl>
        <Point><coordinates>12.69996,56.04472,0</coordinates></Point>
      </Placemark>
      <Placemark>
        <name><![CDATA[Apoteket Hjärtat Helsingborgs Lasarett]]></name>
        <description>Apoteket Hjärtat Helsingborgs Lasarett, Helsingborg</description>
        <styleUrl>#icon-22</styleUrl>
        <Point><coordinates>12.7,56.05,0</coordinates></Point>
      </Placemark>
      <Placemark>
        <name><![CDATA[Petter's Grill O Bar]]></name>
        <description>Petter's Grill O Bar, Helsingborg</description>
        <styleUrl>#icon-22</styleUrl>
        <Point><coordinates>12.7,56.05,0</coordinates></Point>
      </Placemark>
      <Placemark>
        <name><![CDATA[Svea Cater MR Matbiten]]></name>
        <description>Svea Cater MR Matbiten, Såtenäs</description>
        <styleUrl>#icon-22</styleUrl>
        <Point><coordinates>12.70026,58.4425,0</coordinates></Point>
      </Placemark>
      <Placemark>
        <name><![CDATA[Två Systrar Conditori]]></name>
        <description>Två Systrar Conditori, Helsingborg</description>
        <styleUrl>#icon-22</styleUrl>
        <Point><coordinates>12.700477,56.050655,0</coordinates></Point>
      </Placemark>
      <Placemark>
        <name><![CDATA[The Driftwood]]></name>
        <description>The Driftwood, Vilshärad</description>
        <styleUrl>#icon-22</styleUrl>
        <Point><coordinates>12.700791,56.697866,0</coordinates></Point>
      </Placemark>
      <Placemark>
        <name><![CDATA[GSM Service i Hbg]]></name>
        <description>GSM Service i Hbg, Helsingborg</description>
        <styleUrl>#icon-22</styleUrl>
        <Point><coordinates>12.701393,56.038634,0</coordinates></Point>
      </Placemark>
      <Placemark>
        <name><![CDATA[Mackans Grill]]></name>
        <description>Mackans Grill, Åmål</description>
        <styleUrl>#icon-22</styleUrl>
        <Point><coordinates>12.702602,59.052329,0</coordinates></Point>
      </Placemark>
      <Placemark>
        <name><![CDATA[Annas Direkten]]></name>
        <description>Annas Direkten, Helsingborg</description>
        <styleUrl>#icon-22</styleUrl>
        <Point><coordinates>12.708205,56.027022,0</coordinates></Point>
      </Placemark>
      <Placemark>
        <name><![CDATA[Blå Krog]]></name>
        <description>Blå Krog, Åmål</description>
        <styleUrl>#icon-22</styleUrl>
        <Point><coordinates>12.709545,59.053719,0</coordinates></Point>
      </Placemark>
      <Placemark>
        <name><![CDATA[Kandyz Helsingborg]]></name>
        <description>Kandyz Helsingborg, Helsingborg</description>
        <styleUrl>#icon-22</styleUrl>
        <Point><coordinates>12.709736,56.060702,0</coordinates></Point>
      </Placemark>
      <Placemark>
        <name><![CDATA[Strandgården]]></name>
        <description>Strandgården, Gullbrandstor</description>
        <styleUrl>#icon-22</styleUrl>
        <Point><coordinates>12.711124,56.701769,0</coordinates></Point>
      </Placemark>
      <Placemark>
        <name><![CDATA[NP Nilsson Trävaru AB]]></name>
        <description>NP Nilsson Trävaru AB, Helsingborg</description>
        <styleUrl>#icon-22</styleUrl>
        <Point><coordinates>12.713792,56.073478,0</coordinates></Point>
      </Placemark>
      <Placemark>
        <name><![CDATA[Sportladan]]></name>
        <description>Sportladan, Tännäs</description>
        <styleUrl>#icon-22</styleUrl>
        <Point><coordinates>12.714729,62.440265,0</coordinates></Point>
      </Placemark>
      <Placemark>
        <name><![CDATA[Gekås]]></name>
        <description>Gekås, Ullared</description>
        <styleUrl>#icon-22</styleUrl>
        <Point><coordinates>12.71528,57.13611,0</coordinates></Point>
      </Placemark>
      <Placemark>
        <name><![CDATA[Valla Golfkrog]]></name>
        <description>Valla Golfkrog, Kinna</description>
        <styleUrl>#icon-22</styleUrl>
        <Point><coordinates>12.71715,57.501835,0</coordinates></Point>
      </Placemark>
      <Placemark>
        <name><![CDATA[Din-X Ullared]]></name>
        <description>Din-X Ullared, Ullared</description>
        <styleUrl>#icon-22</styleUrl>
        <Point><coordinates>12.718464,57.135762,0</coordinates></Point>
      </Placemark>
      <Placemark>
        <name><![CDATA[Örebrokiosken]]></name>
        <description>Örebrokiosken, Helsingborg</description>
        <styleUrl>#icon-22</styleUrl>
        <Point><coordinates>12.721241,56.044619,0</coordinates></Point>
      </Placemark>
      <Placemark>
        <name><![CDATA[Gunnars Konditori]]></name>
        <description>Gunnars Konditori, Helsingborg</description>
        <styleUrl>#icon-22</styleUrl>
        <Point><coordinates>12.722906,56.017141,0</coordinates></Point>
      </Placemark>
      <Placemark>
        <name><![CDATA[Tjuvahålans Kiosk]]></name>
        <description>Tjuvahålans Kiosk, Halmstad</description>
        <styleUrl>#icon-22</styleUrl>
        <Point><coordinates>12.73227,56.642254,0</coordinates></Point>
      </Placemark>
      <Placemark>
        <name><![CDATA[Sandras Kiosk]]></name>
        <description>Sandras Kiosk, Halmstad</description>
        <styleUrl>#icon-22</styleUrl>
        <Point><coordinates>12.732271,56.642253,0</coordinates></Point>
      </Placemark>
      <Placemark>
        <name><![CDATA[Sandras Kiosk]]></name>
        <description>Sandras Kiosk, Halmstad</description>
        <styleUrl>#icon-22</styleUrl>
        <Point><coordinates>12.732271,56.642253,0</coordinates></Point>
      </Placemark>
      <Placemark>
        <name><![CDATA[Hygge]]></name>
        <description>Hygge, Halmstad</description>
        <styleUrl>#icon-22</styleUrl>
        <Point><coordinates>12.73357,56.647014,0</coordinates></Point>
      </Placemark>
      <Placemark>
        <name><![CDATA[Punsch Glassbar]]></name>
        <description>Punsch Glassbar, Halmstad</description>
        <styleUrl>#icon-22</styleUrl>
        <Point><coordinates>12.734069,56.645838,0</coordinates></Point>
      </Placemark>
      <Placemark>
        <name><![CDATA[Namnam Tylösand]]></name>
        <description>Namnam Tylösand, Halmstad</description>
        <styleUrl>#icon-22</styleUrl>
        <Point><coordinates>12.736972,56.670106,0</coordinates></Point>
      </Placemark>
      <Placemark>
        <name><![CDATA[Tännforsen]]></name>
        <description>Tännforsen, Duved</description>
        <styleUrl>#icon-22</styleUrl>
        <Point><coordinates>12.740759,63.443133,0</coordinates></Point>
      </Placemark>
      <Placemark>
        <name><![CDATA[Geting Restaurang O Pizzeria]]></name>
        <description>Geting Restaurang O Pizzeria, Getinge</description>
        <styleUrl>#icon-22</styleUrl>
        <Point><coordinates>12.740767,56.821573,0</coordinates></Point>
      </Placemark>
      <Placemark>
        <name><![CDATA[Kajgatan 1 Restaurang]]></name>
        <description>Kajgatan 1 Restaurang, Råå</description>
        <styleUrl>#icon-22</styleUrl>
        <Point><coordinates>12.742766,55.994166,0</coordinates></Point>
      </Placemark>
      <Placemark>
        <name><![CDATA[Restaurang Vänner]]></name>
        <description>Restaurang Vänner, Helsingborg</description>
        <styleUrl>#icon-22</styleUrl>
        <Point><coordinates>12.744461,56.038914,0</coordinates></Point>
      </Placemark>
      <Placemark>
        <name><![CDATA[Erikshjälpen Second Hand Hbg]]></name>
        <description>Erikshjälpen Second Hand Hbg, Helsingborg</description>
        <styleUrl>#icon-22</styleUrl>
        <Point><coordinates>12.755438,56.040843,0</coordinates></Point>
      </Placemark>
      <Placemark>
        <name><![CDATA[Tuvan Kök & Bar]]></name>
        <description>Tuvan Kök & Bar, Ljungdalen</description>
        <styleUrl>#icon-22</styleUrl>
        <Point><coordinates>12.767137,62.856662,0</coordinates></Point>
      </Placemark>
      <Placemark>
        <name><![CDATA[Halmstads Wakeboardförening]]></name>
        <description>Halmstads Wakeboardförening, Halmstad</description>
        <styleUrl>#icon-22</styleUrl>
        <Point><coordinates>12.778438,56.641698,0</coordinates></Point>
      </Placemark>
      <Placemark>
        <name><![CDATA[Rozzo Design]]></name>
        <description>Rozzo Design, Halmstad</description>
        <styleUrl>#icon-22</styleUrl>
        <Point><coordinates>12.779457,56.687611,0</coordinates></Point>
      </Placemark>
      <Placemark>
        <name><![CDATA[Zibeda Chocolate]]></name>
        <description>Zibeda Chocolate, Fritsla</description>
        <styleUrl>#icon-22</styleUrl>
        <Point><coordinates>12.785381,57.556783,0</coordinates></Point>
      </Placemark>
      <Placemark>
        <name><![CDATA[Vasatorps Golfkrog]]></name>
        <description>Vasatorps Golfkrog, Mörarp</description>
        <styleUrl>#icon-22</styleUrl>
        <Point><coordinates>12.788521,56.059959,0</coordinates></Point>
      </Placemark>
      <Placemark>
        <name><![CDATA[Sandareds Innebandy Förening]]></name>
        <description>Sandareds Innebandy Förening, Sandared</description>
        <styleUrl>#icon-22</styleUrl>
        <Point><coordinates>12.788965,57.707585,0</coordinates></Point>
      </Placemark>
      <Placemark>
        <name><![CDATA[Restaurangen I Ljungdalens]]></name>
        <description>Restaurangen I Ljungdalens, Ljungdalen</description>
        <styleUrl>#icon-22</styleUrl>
        <Point><coordinates>12.79029,62.852643,0</coordinates></Point>
      </Placemark>
      <Placemark>
        <name><![CDATA[Kullinghemmets Kök]]></name>
        <description>Kullinghemmets Kök, Vårgårda</description>
        <styleUrl>#icon-22</styleUrl>
        <Point><coordinates>12.797994,58.021093,0</coordinates></Point>
      </Placemark>
      <Placemark>
        <name><![CDATA[Kandyz]]></name>
        <description>Kandyz, Halmstad</description>
        <styleUrl>#icon-22</styleUrl>
        <Point><coordinates>12.811561,56.662462,0</coordinates></Point>
      </Placemark>
      <Placemark>
        <name><![CDATA[Lock Stock & Barrel Events AB]]></name>
        <description>Lock Stock & Barrel Events AB, Landskrona</description>
        <styleUrl>#icon-22</styleUrl>
        <Point><coordinates>12.819302,55.871491,0</coordinates></Point>
      </Placemark>
      <Placemark>
        <name><![CDATA[Falsterbo Golfklubb]]></name>
        <description>Falsterbo Golfklubb, Falsterbo</description>
        <styleUrl>#icon-22</styleUrl>
        <Point><coordinates>12.820874,55.382387,0</coordinates></Point>
      </Placemark>
      <Placemark>
        <name><![CDATA[Flommens GK]]></name>
        <description>Flommens GK, Falsterbo</description>
        <styleUrl>#icon-22</styleUrl>
        <Point><coordinates>12.828866,55.393231,0</coordinates></Point>
      </Placemark>
      <Placemark>
        <name><![CDATA[Amins Glassbil]]></name>
        <description>Amins Glassbil, Halmstad</description>
        <styleUrl>#icon-22</styleUrl>
        <Point><coordinates>12.829765,56.67185,0</coordinates></Point>
      </Placemark>
      <Placemark>
        <name><![CDATA[Olivers Hamburgeri]]></name>
        <description>Olivers Hamburgeri, Landskrona</description>
        <styleUrl>#icon-22</styleUrl>
        <Point><coordinates>12.829834,55.87128,0</coordinates></Point>
      </Placemark>
      <Placemark>
        <name><![CDATA[Cenririon Solution]]></name>
        <description>Cenririon Solution, Borås</description>
        <styleUrl>#icon-22</styleUrl>
        <Point><coordinates>12.830003,57.698396,0</coordinates></Point>
      </Placemark>
      <Placemark>
        <name><![CDATA[Ya Poh Empanadas]]></name>
        <description>Ya Poh Empanadas, Ullared</description>
        <styleUrl>#icon-22</styleUrl>
        <Point><coordinates>12.831055,57.094745,0</coordinates></Point>
      </Placemark>
      <Placemark>
        <name><![CDATA[Torsby Camping]]></name>
        <description>Torsby Camping, Torsby</description>
        <styleUrl>#icon-22</styleUrl>
        <Point><coordinates>12.831551,60.140762,0</coordinates></Point>
      </Placemark>
      <Placemark>
        <name><![CDATA[Tempo Kvibille]]></name>
        <description>Tempo Kvibille, Kvibille</description>
        <styleUrl>#icon-22</styleUrl>
        <Point><coordinates>12.832521,56.782105,0</coordinates></Point>
      </Placemark>
      <Placemark>
        <name><![CDATA[Sands Bakficka]]></name>
        <description>Sands Bakficka, Båstad</description>
        <styleUrl>#icon-22</styleUrl>
        <Point><coordinates>12.83333,56.43333,0</coordinates></Point>
      </Placemark>
      <Placemark>
        <name><![CDATA[Kust Café Och Catering I Falsterbo]]></name>
        <description>Kust Café Och Catering I Falsterbo, Falsterbo</description>
        <styleUrl>#icon-22</styleUrl>
        <Point><coordinates>12.834401,55.391936,0</coordinates></Point>
      </Placemark>
      <Placemark>
        <name><![CDATA[Nya Ladan]]></name>
        <description>Nya Ladan, Sjömarken</description>
        <styleUrl>#icon-22</styleUrl>
        <Point><coordinates>12.834682,57.715651,0</coordinates></Point>
      </Placemark>
      <Placemark>
        <name><![CDATA[Wapnö Butik]]></name>
        <description>Wapnö Butik, Halmstad</description>
        <styleUrl>#icon-22</styleUrl>
        <Point><coordinates>12.840761,56.712979,0</coordinates></Point>
      </Placemark>
      <Placemark>
        <name><![CDATA[Kapten Kajs Brygga]]></name>
        <description>Kapten Kajs Brygga, Ängelholm</description>
        <styleUrl>#icon-22</styleUrl>
        <Point><coordinates>12.842129,56.268858,0</coordinates></Point>
      </Placemark>
      <Placemark>
        <name><![CDATA[Verandan I Båstad]]></name>
        <description>Verandan I Båstad, Båstad</description>
        <styleUrl>#icon-22</styleUrl>
        <Point><coordinates>12.847637,56.43014,0</coordinates></Point>
      </Placemark>
      <Placemark>
        <name><![CDATA[Glassvagnen Torget]]></name>
        <description>Glassvagnen Torget, Halmstad</description>
        <styleUrl>#icon-22</styleUrl>
        <Point><coordinates>12.85,56.66667,0</coordinates></Point>
      </Placemark>
      <Placemark>
        <name><![CDATA[Bistro Perspektiv]]></name>
        <description>Bistro Perspektiv, Falsterbo</description>
        <styleUrl>#icon-22</styleUrl>
        <Point><coordinates>12.850346,55.392882,0</coordinates></Point>
      </Placemark>
      <Placemark>
        <name><![CDATA[Papa's Restaurang]]></name>
        <description>Papa's Restaurang, Halmstad</description>
        <styleUrl>#icon-22</styleUrl>
        <Point><coordinates>12.853764,56.674573,0</coordinates></Point>
      </Placemark>
      <Placemark>
        <name><![CDATA[Brooktorpsgården Café]]></name>
        <description>Brooktorpsgården Café, Halmstad</description>
        <styleUrl>#icon-22</styleUrl>
        <Point><coordinates>12.855377,56.673804,0</coordinates></Point>
      </Placemark>
      <Placemark>
        <name><![CDATA[Brooktorpsgården]]></name>
        <description>Brooktorpsgården, Halmstad</description>
        <styleUrl>#icon-22</styleUrl>
        <Point><coordinates>12.855377,56.673804,0</coordinates></Point>
      </Placemark>
      <Placemark>
        <name><![CDATA[Krav & Kram Rådhuset]]></name>
        <description>Krav & Kram Rådhuset, Halmstad</description>
        <styleUrl>#icon-22</styleUrl>
        <Point><coordinates>12.856932,56.67275,0</coordinates></Point>
      </Placemark>
      <Placemark>
        <name><![CDATA[Godisbutiken Tutti Frutti]]></name>
        <description>Godisbutiken Tutti Frutti, Halmstad</description>
        <styleUrl>#icon-22</styleUrl>
        <Point><coordinates>12.858218,56.674657,0</coordinates></Point>
      </Placemark>
      <Placemark>
        <name><![CDATA[Waynes Coffe]]></name>
        <description>Waynes Coffe, Halmstad</description>
        <styleUrl>#icon-22</styleUrl>
        <Point><coordinates>12.858371,56.675093,0</coordinates></Point>
      </Placemark>
      <Placemark>
        <name><![CDATA[Bulls Pub]]></name>
        <description>Bulls Pub, Halmstad</description>
        <styleUrl>#icon-22</styleUrl>
        <Point><coordinates>12.858428,56.6766,0</coordinates></Point>
      </Placemark>
      <Placemark>
        <name><![CDATA[Maxi Hyllinge]]></name>
        <description>Maxi Hyllinge, Hyllinge</description>
        <styleUrl>#icon-22</styleUrl>
        <Point><coordinates>12.86098,56.100091,0</coordinates></Point>
      </Placemark>
      <Placemark>
        <name><![CDATA[Hotell Continental]]></name>
        <description>Hotell Continental, Halmstad</description>
        <styleUrl>#icon-22</styleUrl>
        <Point><coordinates>12.862053,56.670619,0</coordinates></Point>
      </Placemark>
      <Placemark>
        <name><![CDATA[Hallands Konstmuseum]]></name>
        <description>Hallands Konstmuseum, Halmstad</description>
        <styleUrl>#icon-22</styleUrl>
        <Point><coordinates>12.862103,56.680703,0</coordinates></Point>
      </Placemark>
      <Placemark>
        <name><![CDATA[Asian Ten Express]]></name>
        <description>Asian Ten Express, Ängelholm</description>
        <styleUrl>#icon-22</styleUrl>
        <Point><coordinates>12.862337,56.245089,0</coordinates></Point>
      </Placemark>
      <Placemark>
        <name><![CDATA[Brasserie Loire]]></name>
        <description>Brasserie Loire, Halmstad</description>
        <styleUrl>#icon-22</styleUrl>
        <Point><coordinates>12.862369,56.677433,0</coordinates></Point>
      </Placemark>
      <Placemark>
        <name><![CDATA[Hallands Konstmuseum]]></name>
        <description>Hallands Konstmuseum, Halmstad</description>
        <styleUrl>#icon-22</styleUrl>
        <Point><coordinates>12.86267,56.681523,0</coordinates></Point>
      </Placemark>
      <Placemark>
        <name><![CDATA[24 Food Service]]></name>
        <description>24 Food Service, Halmstad</description>
        <styleUrl>#icon-22</styleUrl>
        <Point><coordinates>12.864128,56.673297,0</coordinates></Point>
      </Placemark>
      <Placemark>
        <name><![CDATA[Direkten]]></name>
        <description>Direkten, Göteborg</description>
        <styleUrl>#icon-22</styleUrl>
        <Point><coordinates>12.865959,56.702091,0</coordinates></Point>
      </Placemark>
      <Placemark>
        <name><![CDATA[Kärlekens Livs]]></name>
        <description>Kärlekens Livs, Halmstad</description>
        <styleUrl>#icon-22</styleUrl>
        <Point><coordinates>12.866843,56.698524,0</coordinates></Point>
      </Placemark>
      <Placemark>
        <name><![CDATA[Lumberjack Sysselebäck]]></name>
        <description>Lumberjack Sysselebäck, Sysslebäck</description>
        <styleUrl>#icon-22</styleUrl>
        <Point><coordinates>12.871902,60.729691,0</coordinates></Point>
      </Placemark>
      <Placemark>
        <name><![CDATA[Allmans]]></name>
        <description>Allmans, Borås</description>
        <styleUrl>#icon-22</styleUrl>
        <Point><coordinates>12.874104,57.721313,0</coordinates></Point>
      </Placemark>
      <Placemark>
        <name><![CDATA[Millesgården Eco Lodge]]></name>
        <description>Millesgården Eco Lodge, Duved</description>
        <styleUrl>#icon-22</styleUrl>
        <Point><coordinates>12.874462,63.392482,0</coordinates></Point>
      </Placemark>
      <Placemark>
        <name><![CDATA[Nyhems Servicehus]]></name>
        <description>Nyhems Servicehus, Halmstad</description>
        <styleUrl>#icon-22</styleUrl>
        <Point><coordinates>12.877602,56.667393,0</coordinates></Point>
      </Placemark>
      <Placemark>
        <name><![CDATA[ICA Maxi Högskolan Halmstad]]></name>
        <description>ICA Maxi Högskolan Halmstad, Halmstad</description>
        <styleUrl>#icon-22</styleUrl>
        <Point><coordinates>12.877917,56.664822,0</coordinates></Point>
      </Placemark>
      <Placemark>
        <name><![CDATA[Långbergets Sporthotell]]></name>
        <description>Långbergets Sporthotell, Sysslebäck</description>
        <styleUrl>#icon-22</styleUrl>
        <Point><coordinates>12.879991,60.818234,0</coordinates></Point>
      </Placemark>
      <Placemark>
        <name><![CDATA[Strandsnäckan]]></name>
        <description>Strandsnäckan, Halmstad</description>
        <styleUrl>#icon-22</styleUrl>
        <Point><coordinates>12.881902,56.650879,0</coordinates></Point>
      </Placemark>
      <Placemark>
        <name><![CDATA[Strand Cafet]]></name>
        <description>Strand Cafet, Halmstad</description>
        <styleUrl>#icon-22</styleUrl>
        <Point><coordinates>12.883837,56.649359,0</coordinates></Point>
      </Placemark>
      <Placemark>
        <name><![CDATA[Östras Kiosk Och Bangolf]]></name>
        <description>Östras Kiosk Och Bangolf, Halmstad</description>
        <styleUrl>#icon-22</styleUrl>
        <Point><coordinates>12.884307,56.649222,0</coordinates></Point>
      </Placemark>
      <Placemark>
        <name><![CDATA[Laxen Sk]]></name>
        <description>Laxen Sk, Halmstad</description>
        <styleUrl>#icon-22</styleUrl>
        <Point><coordinates>12.888316,56.674542,0</coordinates></Point>
      </Placemark>
      <Placemark>
        <name><![CDATA[Halmstad Hammers]]></name>
        <description>Halmstad Hammers, Halmstad</description>
        <styleUrl>#icon-22</styleUrl>
        <Point><coordinates>12.889354,56.674358,0</coordinates></Point>
      </Placemark>
      <Placemark>
        <name><![CDATA[Erikshjälpen Second Hand Halmstad]]></name>
        <description>Erikshjälpen Second Hand Halmstad, Halmstad</description>
        <styleUrl>#icon-22</styleUrl>
        <Point><coordinates>12.900807,56.652565,0</coordinates></Point>
      </Placemark>
      <Placemark>
        <name><![CDATA[Barsebäcks Hamnkrog]]></name>
        <description>Barsebäcks Hamnkrog, Barsebäck</description>
        <styleUrl>#icon-22</styleUrl>
        <Point><coordinates>12.905017,55.755818,0</coordinates></Point>
      </Placemark>
      <Placemark>
        <name><![CDATA[Erikshjälpen Second Hand Säffle]]></name>
        <description>Erikshjälpen Second Hand Säffle, Säffle</description>
        <styleUrl>#icon-22</styleUrl>
        <Point><coordinates>12.905878,59.123232,0</coordinates></Point>
      </Placemark>
      <Placemark>
        <name><![CDATA[Vallås Livs]]></name>
        <description>Vallås Livs, Halmstad</description>
        <styleUrl>#icon-22</styleUrl>
        <Point><coordinates>12.908082,56.676466,0</coordinates></Point>
      </Placemark>
      <Placemark>
        <name><![CDATA[Goldcity Gränegård]]></name>
        <description>Goldcity Gränegård, Holsjunga</description>
        <styleUrl>#icon-22</styleUrl>
        <Point><coordinates>12.911614,57.377313,0</coordinates></Point>
      </Placemark>
      <Placemark>
        <name><![CDATA[Värmskogs Servicepunkt]]></name>
        <description>Värmskogs Servicepunkt, Värmskog</description>
        <styleUrl>#icon-22</styleUrl>
        <Point><coordinates>12.911668,59.452011,0</coordinates></Point>
      </Placemark>
      <Placemark>
        <name><![CDATA[Ladugården Hantverk & Interiör]]></name>
        <description>Ladugården Hantverk & Interiör, Gräsmark</description>
        <styleUrl>#icon-22</styleUrl>
        <Point><coordinates>12.912008,59.94621,0</coordinates></Point>
      </Placemark>
      <Placemark>
        <name><![CDATA[Snöstorps Pizzeria]]></name>
        <description>Snöstorps Pizzeria, Halmstad</description>
        <styleUrl>#icon-22</styleUrl>
        <Point><coordinates>12.912027,56.6709,0</coordinates></Point>
      </Placemark>
      <Placemark>
        <name><![CDATA[Skummeslövsbadet]]></name>
        <description>Skummeslövsbadet, Skummeslövsstrand</description>
        <styleUrl>#icon-22</styleUrl>
        <Point><coordinates>12.914128,56.4514,0</coordinates></Point>
      </Placemark>
      <Placemark>
        <name><![CDATA[Skistarshop Åre Centrallager - Holiday club Åre]]></name>
        <description>Skistarshop Åre Centrallager - Holiday club Åre, Duved</description>
        <styleUrl>#icon-22</styleUrl>
        <Point><coordinates>12.914707,63.390732,0</coordinates></Point>
      </Placemark>
      <Placemark>
        <name><![CDATA[Skistarshop Åre Centrallager - Skistar Åre Björnen]]></name>
        <description>Skistarshop Åre Centrallager - Skistar Åre Björnen, Duved</description>
        <styleUrl>#icon-22</styleUrl>
        <Point><coordinates>12.914707,63.390732,0</coordinates></Point>
      </Placemark>
      <Placemark>
        <name><![CDATA[Skistarshop Åre Centrallager - Åre Torg]]></name>
        <description>Skistarshop Åre Centrallager - Åre Torg, Duved</description>
        <styleUrl>#icon-22</styleUrl>
        <Point><coordinates>12.914707,63.390732,0</coordinates></Point>
      </Placemark>
      <Placemark>
        <name><![CDATA[Skistarshop Åre Centrallager - Duved]]></name>
        <description>Skistarshop Åre Centrallager - Duved, Duved</description>
        <styleUrl>#icon-22</styleUrl>
        <Point><coordinates>12.914707,63.390732,0</coordinates></Point>
      </Placemark>
      <Placemark>
        <name><![CDATA[Js Beach Club]]></name>
        <description>Js Beach Club, Skummeslövsstrand</description>
        <styleUrl>#icon-22</styleUrl>
        <Point><coordinates>12.919385,56.461853,0</coordinates></Point>
      </Placemark>
      <Placemark>
        <name><![CDATA[Skummeslövs Tennisklubb]]></name>
        <description>Skummeslövs Tennisklubb, Skummeslövstrand</description>
        <styleUrl>#icon-22</styleUrl>
        <Point><coordinates>12.92296,56.462631,0</coordinates></Point>
      </Placemark>
      <Placemark>
        <name><![CDATA[Göta Kiosken]]></name>
        <description>Göta Kiosken, Borås</description>
        <styleUrl>#icon-22</styleUrl>
        <Point><coordinates>12.925937,57.712004,0</coordinates></Point>
      </Placemark>
      <Placemark>
        <name><![CDATA[Barsebäck Badhotell]]></name>
        <description>Barsebäck Badhotell, Barsebäck</description>
        <styleUrl>#icon-22</styleUrl>
        <Point><coordinates>12.927355,55.770189,0</coordinates></Point>
      </Placemark>
      <Placemark>
        <name><![CDATA[Copydax]]></name>
        <description>Copydax, Halmstad</description>
        <styleUrl>#icon-22</styleUrl>
        <Point><coordinates>12.929211,56.595456,0</coordinates></Point>
      </Placemark>
      <Placemark>
        <name><![CDATA[Ifk Klagshamn]]></name>
        <description>Ifk Klagshamn, Klagshamn</description>
        <styleUrl>#icon-22</styleUrl>
        <Point><coordinates>12.929339,55.521298,0</coordinates></Point>
      </Placemark>
      <Placemark>
        <name><![CDATA[Lagunen]]></name>
        <description>Lagunen, Limhamn</description>
        <styleUrl>#icon-22</styleUrl>
        <Point><coordinates>12.93334,55.595951,0</coordinates></Point>
      </Placemark>
      <Placemark>
        <name><![CDATA[Pågagrillen]]></name>
        <description>Pågagrillen, Landskrona</description>
        <styleUrl>#icon-22</styleUrl>
        <Point><coordinates>12.933838,55.907863,0</coordinates></Point>
      </Placemark>
      <Placemark>
        <name><![CDATA[Mr Glass I Höllviken]]></name>
        <description>Mr Glass I Höllviken, Höllviken</description>
        <styleUrl>#icon-22</styleUrl>
        <Point><coordinates>12.936118,55.409945,0</coordinates></Point>
      </Placemark>
      <Placemark>
        <name><![CDATA[Strömma Turism & Sjöfart]]></name>
        <description>Strömma Turism & Sjöfart, Malmö</description>
        <styleUrl>#icon-22</styleUrl>
        <Point><coordinates>12.938191,59.1362,0</coordinates></Point>
      </Placemark>
      <Placemark>
        <name><![CDATA[Almenäs Café & Kök]]></name>
        <description>Almenäs Café & Kök, Borås</description>
        <styleUrl>#icon-22</styleUrl>
        <Point><coordinates>12.939111,57.761478,0</coordinates></Point>
      </Placemark>
      <Placemark>
        <name><![CDATA[Soltorgets Shop]]></name>
        <description>Soltorgets Shop, Sysslebäck</description>
        <styleUrl>#icon-22</styleUrl>
        <Point><coordinates>12.940874,60.648624,0</coordinates></Point>
      </Placemark>
      <Placemark>
        <name><![CDATA[Glada Hönan]]></name>
        <description>Glada Hönan, Ullarp</description>
        <styleUrl>#icon-22</styleUrl>
        <Point><coordinates>12.941427,56.450606,0</coordinates></Point>
      </Placemark>
      <Placemark>
        <name><![CDATA[My Sweet]]></name>
        <description>My Sweet, Borås</description>
        <styleUrl>#icon-22</styleUrl>
        <Point><coordinates>12.941863,57.721604,0</coordinates></Point>
      </Placemark>
      <Placemark>
        <name><![CDATA[Burkens Livs]]></name>
        <description>Burkens Livs, Borås</description>
        <styleUrl>#icon-22</styleUrl>
        <Point><coordinates>12.942402,57.706897,0</coordinates></Point>
      </Placemark>
      <Placemark>
        <name><![CDATA[Borgviks Hamncafé]]></name>
        <description>Borgviks Hamncafé, Borgvik</description>
        <styleUrl>#icon-22</styleUrl>
        <Point><coordinates>12.942471,59.3474,0</coordinates></Point>
      </Placemark>
      <Placemark>
        <name><![CDATA[Falsterbo Kursgård]]></name>
        <description>Falsterbo Kursgård, Höllviken</description>
        <styleUrl>#icon-22</styleUrl>
        <Point><coordinates>12.942964,55.412717,0</coordinates></Point>
      </Placemark>
      <Placemark>
        <name><![CDATA[Gullbrannagården]]></name>
        <description>Gullbrannagården, Eldsberga</description>
        <styleUrl>#icon-22</styleUrl>
        <Point><coordinates>12.943336,56.59099,0</coordinates></Point>
      </Placemark>
      <Placemark>
        <name><![CDATA[Delfinen]]></name>
        <description>Delfinen, Mellbystrand</description>
        <styleUrl>#icon-22</styleUrl>
        <Point><coordinates>12.944514,56.500794,0</coordinates></Point>
      </Placemark>
      <Placemark>
        <name><![CDATA[Ätrans loppis]]></name>
        <description>Ätrans loppis, Ätran</description>
        <styleUrl>#icon-22</styleUrl>
        <Point><coordinates>12.944895,57.120362,0</coordinates></Point>
      </Placemark>
      <Placemark>
        <name><![CDATA[Sjöhästen Restaurang]]></name>
        <description>Sjöhästen Restaurang, Mellbystrand</description>
        <styleUrl>#icon-22</styleUrl>
        <Point><coordinates>12.94722,56.50417,0</coordinates></Point>
      </Placemark>
      <Placemark>
        <name><![CDATA[Rosenberg Hotell & Restaurang]]></name>
        <description>Rosenberg Hotell & Restaurang, Åstorp</description>
        <styleUrl>#icon-22</styleUrl>
        <Point><coordinates>12.947734,56.134984,0</coordinates></Point>
      </Placemark>
      <Placemark>
        <name><![CDATA[Vålådalens Fjällstation]]></name>
        <description>Vålådalens Fjällstation, Vålådalen</description>
        <styleUrl>#icon-22</styleUrl>
        <Point><coordinates>12.949178,63.099188,0</coordinates></Point>
      </Placemark>
      <Placemark>
        <name><![CDATA[Lyckoslottet]]></name>
        <description>Lyckoslottet, Mellbystrand</description>
        <styleUrl>#icon-22</styleUrl>
        <Point><coordinates>12.950515,56.514528,0</coordinates></Point>
      </Placemark>
      <Placemark>
        <name><![CDATA[Cafe Kypegården]]></name>
        <description>Cafe Kypegården, Borås</description>
        <styleUrl>#icon-22</styleUrl>
        <Point><coordinates>12.952252,57.739261,0</coordinates></Point>
      </Placemark>
      <Placemark>
        <name><![CDATA[Hedvigsborgs Butik]]></name>
        <description>Hedvigsborgs Butik, Borås</description>
        <styleUrl>#icon-22</styleUrl>
        <Point><coordinates>12.953496,57.702583,0</coordinates></Point>
      </Placemark>
      <Placemark>
        <name><![CDATA[Ribban Green Golf]]></name>
        <description>Ribban Green Golf, Malmö</description>
        <styleUrl>#icon-22</styleUrl>
        <Point><coordinates>12.959319,55.598039,0</coordinates></Point>
      </Placemark>
      <Placemark>
        <name><![CDATA[Holsljunga Camping & Café]]></name>
        <description>Holsljunga Camping & Café, Holsljunga</description>
        <styleUrl>#icon-22</styleUrl>
        <Point><coordinates>12.960745,57.417295,0</coordinates></Point>
      </Placemark>
      <Placemark>
        <name><![CDATA[Taverna Borås]]></name>
        <description>Taverna Borås, Borås</description>
        <styleUrl>#icon-22</styleUrl>
        <Point><coordinates>12.961726,57.670218,0</coordinates></Point>
      </Placemark>
      <Placemark>
        <name><![CDATA[Rånö Livs]]></name>
        <description>Rånö Livs, Utö</description>
        <styleUrl>#icon-22</styleUrl>
        <Point><coordinates>12.962416,55.602886,0</coordinates></Point>
      </Placemark>
      <Placemark>
        <name><![CDATA[Petruskajak Vid Sommaren]]></name>
        <description>Petruskajak Vid Sommaren, Tranås</description>
        <styleUrl>#icon-22</styleUrl>
        <Point><coordinates>12.964468,55.406703,0</coordinates></Point>
      </Placemark>
      <Placemark>
        <name><![CDATA[Branäs Fritidscenter]]></name>
        <description>Branäs Fritidscenter, Sysslebäck</description>
        <styleUrl>#icon-22</styleUrl>
        <Point><coordinates>12.965298,60.659621,0</coordinates></Point>
      </Placemark>
      <Placemark>
        <name><![CDATA[Time Hofterup]]></name>
        <description>Time Hofterup, Löddeköpinge</description>
        <styleUrl>#icon-22</styleUrl>
        <Point><coordinates>12.966942,55.792227,0</coordinates></Point>
      </Placemark>
      <Placemark>
        <name><![CDATA[Kämpinge Glasskiosk]]></name>
        <description>Kämpinge Glasskiosk, Höllviken</description>
        <styleUrl>#icon-22</styleUrl>
        <Point><coordinates>12.969263,55.406348,0</coordinates></Point>
      </Placemark>
      <Placemark>
        <name><![CDATA[Blomsterdesign Trädgård]]></name>
        <description>Blomsterdesign Trädgård, Laholm</description>
        <styleUrl>#icon-22</styleUrl>
        <Point><coordinates>12.972938,56.50983,0</coordinates></Point>
      </Placemark>
      <Placemark>
        <name><![CDATA[Chocolicious]]></name>
        <description>Chocolicious, Malmö</description>
        <styleUrl>#icon-22</styleUrl>
        <Point><coordinates>12.974654,55.563613,0</coordinates></Point>
      </Placemark>