<?xml version="1.0" encoding="UTF-8"?>
<kml xmlns="http://www.opengis.net/kml/2.2">
  <Document>
    <name>Tanka</name>
    <description/>
    <Style id="icon-22-normal">
      <IconStyle>
        <scale>1.1</scale>
        <Icon>
          <href>https://www.gstatic.com/mapspro/images/stock/22-blue-dot.png</href>
        </Icon>
        <hotSpot x="16" xunits="pixels" y="32" yunits="insetPixels"/>
      </IconStyle>
      <LabelStyle>
        <scale>0</scale>
      </LabelStyle>
    </Style>
    <Style id="icon-22-highlight">
      <IconStyle>
        <scale>1.1</scale>
        <Icon>
          <href>https://www.gstatic.com/mapspro/images/stock/22-blue-dot.png</href>
        </Icon>
        <hotSpot x="16" xunits="pixels" y="32" yunits="insetPixels"/>
      </IconStyle>
      <LabelStyle>
        <scale>1.1</scale>
      </LabelStyle>
    </Style>
    <StyleMap id="icon-22">
      <Pair>
        <key>normal</key>
        <styleUrl>#icon-22-normal</styleUrl>
      </Pair>
      <Pair>
        <key>highlight</key>
        <styleUrl>#icon-22-highlight</styleUrl>
      </Pair>
    </StyleMap>
    <Folder>
      <name><![CDATA[Tanka]]></name>
      <Placemark>
        <name><![CDATA[Tanka Strömstad]]></name>
        <description>Tanka Strömstad, Strömstad, Sverige</description>
        <styleUrl>#icon-22</styleUrl>
        <Point><coordinates>11.195685,58.948,0</coordinates></Point>
      </Placemark>
      <Placemark>
        <name><![CDATA[Tanka Hunnebostrand]]></name>
        <description>Tanka Hunnebostrand, Hunnebostrand, Sverige</description>
        <styleUrl>#icon-22</styleUrl>
        <Point><coordinates>11.315633,58.45217,0</coordinates></Point>
      </Placemark>
      <Placemark>
        <name><![CDATA[Tanka Tanumshede]]></name>
        <description>Tanka Tanumshede, Tanumshede, Sverige</description>
        <styleUrl>#icon-22</styleUrl>
        <Point><coordinates>11.327904,58.721066,0</coordinates></Point>
      </Placemark>
      <Placemark>
        <name><![CDATA[Tanka Lysekil]]></name>
        <description>Tanka Lysekil, Lysekil, Sverige</description>
        <styleUrl>#icon-22</styleUrl>
        <Point><coordinates>11.462104,58.285904,0</coordinates></Point>
      </Placemark>
      <Placemark>
        <name><![CDATA[Tanka Dingle]]></name>
        <description>Tanka Dingle, Dingle, Sverige</description>
        <styleUrl>#icon-22</styleUrl>
        <Point><coordinates>11.574648,58.526806,0</coordinates></Point>
      </Placemark>
      <Placemark>
        <name><![CDATA[Tanka Stenungsund]]></name>
        <description>Tanka Stenungsund, Stenungsund, Sverige</description>
        <styleUrl>#icon-22</styleUrl>
        <Point><coordinates>11.839823,58.074314,0</coordinates></Point>
      </Placemark>
      <Placemark>
        <name><![CDATA[Tanka & Tvätta Torslanda]]></name>
        <description>Tanka & Tvätta Torslanda, Göteborg, Sverige</description>
        <styleUrl>#icon-22</styleUrl>
        <Point><coordinates>11.84227,57.713253,0</coordinates></Point>
      </Placemark>
      <Placemark>
        <name><![CDATA[Tanka & Tvätta Kärranäsvägen]]></name>
        <description>Tanka & Tvätta Kärranäsvägen, Uddevalla, Sverige</description>
        <styleUrl>#icon-22</styleUrl>
        <Point><coordinates>11.869193,58.349594,0</coordinates></Point>
      </Placemark>
      <Placemark>
        <name><![CDATA[Tanka & Tvätta Tuve]]></name>
        <description>Tanka & Tvätta Tuve, Göteborg, Sverige</description>
        <styleUrl>#icon-22</styleUrl>
        <Point><coordinates>11.879675,57.75505,0</coordinates></Point>
      </Placemark>
      <Placemark>
        <name><![CDATA[Tanka & Tvätta Lundby]]></name>
        <description>Tanka & Tvätta Lundby, Göteborg, Sverige</description>
        <styleUrl>#icon-22</styleUrl>
        <Point><coordinates>11.922609,57.716053,0</coordinates></Point>
      </Placemark>
      <Placemark>
        <name><![CDATA[Tanka Uddevalla Göteborgsvägen]]></name>
        <description>Tanka Uddevalla Göteborgsvägen, Uddevalla, Sverige</description>
        <styleUrl>#icon-22</styleUrl>
        <Point><coordinates>11.930291,58.346176,0</coordinates></Point>
      </Placemark>
      <Placemark>
        <name><![CDATA[Tanka Lundbyled]]></name>
        <description>Tanka Lundbyled, Göteborg, Sverige</description>
        <styleUrl>#icon-22</styleUrl>
        <Point><coordinates>11.931367,57.712315,0</coordinates></Point>
      </Placemark>
      <Placemark>
        <name><![CDATA[Tanka & Tvätta Kungälv]]></name>
        <description>Tanka & Tvätta Kungälv, Kungälv, Sverige</description>
        <styleUrl>#icon-22</styleUrl>
        <Point><coordinates>11.948524,57.880817,0</coordinates></Point>
      </Placemark>
      <Placemark>
        <name><![CDATA[Tanka Ed]]></name>
        <description>Tanka Ed, Ed, Sverige</description>
        <styleUrl>#icon-22</styleUrl>
        <Point><coordinates>11.954932,58.900173,0</coordinates></Point>
      </Placemark>
      <Placemark>
        <name><![CDATA[Tanka & Tvätta Sisjön]]></name>
        <description>Tanka & Tvätta Sisjön, Västra Frölunda, Sverige</description>
        <styleUrl>#icon-22</styleUrl>
        <Point><coordinates>11.955198,57.649536,0</coordinates></Point>
      </Placemark>
      <Placemark>
        <name><![CDATA[Tanka Stig Center]]></name>
        <description>Tanka Stig Center, Hisings Backa, Sverige</description>
        <styleUrl>#icon-22</styleUrl>
        <Point><coordinates>11.993911,57.747337,0</coordinates></Point>
      </Placemark>
      <Placemark>
        <name><![CDATA[Tanka Åbro]]></name>
        <description>Tanka Åbro, Mölndal, Sverige</description>
        <styleUrl>#icon-22</styleUrl>
        <Point><coordinates>12.007867,57.64176,0</coordinates></Point>
      </Placemark>
      <Placemark>
        <name><![CDATA[Tanka Sävedalen]]></name>
        <description>Tanka Sävedalen, Sävedalen, Sverige</description>
        <styleUrl>#icon-22</styleUrl>
        <Point><coordinates>12.063269,57.731476,0</coordinates></Point>
      </Placemark>
      <Placemark>
        <name><![CDATA[Tanka Vänersborg Trestad]]></name>
        <description>Tanka Vänersborg Trestad, Vänersborg, Sverige</description>
        <styleUrl>#icon-22</styleUrl>
        <Point><coordinates>12.239936,58.339424,0</coordinates></Point>
      </Placemark>
      <Placemark>
        <name><![CDATA[Tanka & Tvätta Varberg]]></name>
        <description>Tanka & Tvätta Varberg, Varberg, Sverige</description>
        <styleUrl>#icon-22</styleUrl>
        <Point><coordinates>12.27744,57.122932,0</coordinates></Point>
      </Placemark>
      <Placemark>
        <name><![CDATA[Tanka & Tvätta Tunhemsvägen]]></name>
        <description>Tanka & Tvätta Tunhemsvägen, Trollhättan, Sverige</description>
        <styleUrl>#icon-22</styleUrl>
        <Point><coordinates>12.299588,58.28951,0</coordinates></Point>
      </Placemark>
      <Placemark>
        <name><![CDATA[Tanka Vänersborg]]></name>
        <description>Tanka Vänersborg, Vänersborg, Sverige</description>
        <styleUrl>#icon-22</styleUrl>
        <Point><coordinates>12.315411,58.35549,0</coordinates></Point>
      </Placemark>
      <Placemark>
        <name><![CDATA[Tanka Stallbacka]]></name>
        <description>Tanka Stallbacka, Trollhättan, Sverige</description>
        <styleUrl>#icon-22</styleUrl>
        <Point><coordinates>12.322114,58.309376,0</coordinates></Point>
      </Placemark>
      <Placemark>
        <name><![CDATA[Tanka & Tvätta Mellerud]]></name>
        <description>Tanka & Tvätta Mellerud, Mellerud, Sverige</description>
        <styleUrl>#icon-22</styleUrl>
        <Point><coordinates>12.448491,58.69916,0</coordinates></Point>
      </Placemark>
      <Placemark>
        <name><![CDATA[Tanka & Tvätta Falkenberg]]></name>
        <description>Tanka & Tvätta Falkenberg, Falkenberg, Sverige</description>
        <styleUrl>#icon-22</styleUrl>
        <Point><coordinates>12.503772,56.91468,0</coordinates></Point>
      </Placemark>
      <Placemark>
        <name><![CDATA[Tanka Alingsås]]></name>
        <description>Tanka Alingsås, Alingsås, Sverige</description>
        <styleUrl>#icon-22</styleUrl>
        <Point><coordinates>12.530497,57.92528,0</coordinates></Point>
      </Placemark>
      <Placemark>
        <name><![CDATA[Tanka Arvika]]></name>
        <description>Tanka Arvika, Arvika, Sverige</description>
        <styleUrl>#icon-22</styleUrl>
        <Point><coordinates>12.61337,59.66089,0</coordinates></Point>
      </Placemark>
      <Placemark>
        <name><![CDATA[Tanka Kinna]]></name>
        <description>Tanka Kinna, Kinna, Sverige</description>
        <styleUrl>#icon-22</styleUrl>
        <Point><coordinates>12.710378,57.5145,0</coordinates></Point>
      </Placemark>
      <Placemark>
        <name><![CDATA[Tanka & Tvätta Helsingborg]]></name>
        <description>Tanka & Tvätta Helsingborg, Helsingborg, Sverige</description>
        <styleUrl>#icon-22</styleUrl>
        <Point><coordinates>12.719208,56.070415,0</coordinates></Point>
      </Placemark>
      <Placemark>
        <name><![CDATA[Tanka & Tvätta Landskrona]]></name>
        <description>Tanka & Tvätta Landskrona, Landskrona, Sverige</description>
        <styleUrl>#icon-22</styleUrl>
        <Point><coordinates>12.831545,55.886475,0</coordinates></Point>
      </Placemark>
      <Placemark>
        <name><![CDATA[Tanka & Tvätta Halmstad]]></name>
        <description>Tanka & Tvätta Halmstad, Halmstad, Sverige</description>
        <styleUrl>#icon-22</styleUrl>
        <Point><coordinates>12.880099,56.677628,0</coordinates></Point>
      </Placemark>
      <Placemark>
        <name><![CDATA[Tanka & Tvätta Ängelholm]]></name>
        <description>Tanka & Tvätta Ängelholm, Ängelholm, Sverige</description>
        <styleUrl>#icon-22</styleUrl>
        <Point><coordinates>12.895581,56.246796,0</coordinates></Point>
      </Placemark>
      <Placemark>
        <name><![CDATA[Tanka Säffle]]></name>
        <description>Tanka Säffle, Säffle, Sverige</description>
        <styleUrl>#icon-22</styleUrl>
        <Point><coordinates>12.943485,59.1411,0</coordinates></Point>
      </Placemark>
      <Placemark>
        <name><![CDATA[Tanka & Tvätta Vara]]></name>
        <description>Tanka & Tvätta Vara, Vara, Sverige</description>
        <styleUrl>#icon-22</styleUrl>
        <Point><coordinates>12.963961,58.256763,0</coordinates></Point>
      </Placemark>
      <Placemark>
        <name><![CDATA[Tanka & Tvätta Borås]]></name>
        <description>Tanka & Tvätta Borås, Borås, Sverige</description>
        <styleUrl>#icon-22</styleUrl>
        <Point><coordinates>12.989875,57.722446,0</coordinates></Point>
      </Placemark>
      <Placemark>
        <name><![CDATA[Tanka Torsby]]></name>
        <description>Tanka Torsby, Torsby, Sverige</description>
        <styleUrl>#icon-22</styleUrl>
        <Point><coordinates>12.994222,60.130836,0</coordinates></Point>
      </Placemark>
      <Placemark>
        <name><![CDATA[Tanka & Tvätta Laholm]]></name>
        <description>Tanka & Tvätta Laholm, Laholm, Sverige</description>
        <styleUrl>#icon-22</styleUrl>
        <Point><coordinates>13.0291,56.5012,0</coordinates></Point>
      </Placemark>
      <Placemark>
        <name><![CDATA[Tanka Jägersro]]></name>
        <description>Tanka Jägersro, Malmö, Sverige</description>
        <styleUrl>#icon-22</styleUrl>
        <Point><coordinates>13.054612,55.570347,0</coordinates></Point>
      </Placemark>
      <Placemark>
        <name><![CDATA[Tanka Torup]]></name>
        <description>Tanka Torup, Torup, Sverige</description>
        <styleUrl>#icon-22</styleUrl>
        <Point><coordinates>13.089529,56.9577,0</coordinates></Point>
      </Placemark>
      <Placemark>
        <name><![CDATA[Tanka Klippan]]></name>
        <description>Tanka Klippan, Klippan, Sverige</description>
        <styleUrl>#icon-22</styleUrl>
        <Point><coordinates>13.126804,56.136738,0</coordinates></Point>
      </Placemark>
      <Placemark>
        <name><![CDATA[Tanka & Tvätta Sunne]]></name>
        <description>Tanka & Tvätta Sunne, Sunne, Sverige</description>
        <styleUrl>#icon-22</styleUrl>
        <Point><coordinates>13.127047,59.838238,0</coordinates></Point>
      </Placemark>
      <Placemark>
        <name><![CDATA[Tanka Lidköping]]></name>
        <description>Tanka Lidköping, Lidköping, Sverige</description>
        <styleUrl>#icon-22</styleUrl>
        <Point><coordinates>13.149158,58.496525,0</coordinates></Point>
      </Placemark>
      <Placemark>
        <name><![CDATA[Tanka Trelleborg]]></name>
        <description>Tanka Trelleborg, Trelleborg, Sverige</description>
        <styleUrl>#icon-22</styleUrl>
        <Point><coordinates>13.149771,55.381508,0</coordinates></Point>
      </Placemark>
      <Placemark>
        <name><![CDATA[Tanka Lund]]></name>
        <description>Tanka Lund, Lund, Sverige</description>
        <styleUrl>#icon-22</styleUrl>
        <Point><coordinates>13.223405,55.695988,0</coordinates></Point>
      </Placemark>
      <Placemark>
        <name><![CDATA[Tanka & Tvätta Eslöv]]></name>
        <description>Tanka & Tvätta Eslöv, Eslöv, Sverige</description>
        <styleUrl>#icon-22</styleUrl>
        <Point><coordinates>13.326861,55.841026,0</coordinates></Point>
      </Placemark>
      <Placemark>
        <name><![CDATA[Tanka Tranemo]]></name>
        <description>Tanka Tranemo, Tranemo, Sverige</description>
        <styleUrl>#icon-22</styleUrl>
        <Point><coordinates>13.340181,57.492275,0</coordinates></Point>
      </Placemark>
      <Placemark>
        <name><![CDATA[Tanka Smålandsstenar]]></name>
        <description>Tanka Smålandsstenar, Smålandsstenar, Sverige</description>
        <styleUrl>#icon-22</styleUrl>
        <Point><coordinates>13.407228,57.156948,0</coordinates></Point>
      </Placemark>
      <Placemark>
        <name><![CDATA[Tanka Skara]]></name>
        <description>Tanka Skara, Skara, Sverige</description>
        <styleUrl>#icon-22</styleUrl>
        <Point><coordinates>13.418513,58.378204,0</coordinates></Point>
      </Placemark>
      <Placemark>
        <name><![CDATA[Tanka & Tvätta Ulricehamn]]></name>
        <description>Tanka & Tvätta Ulricehamn, Ulricehamn, Sverige</description>
        <styleUrl>#icon-22</styleUrl>
        <Point><coordinates>13.42187,57.80668,0</coordinates></Point>
      </Placemark>
      <Placemark>
        <name><![CDATA[Tanka Karlstad]]></name>
        <description>Tanka Karlstad, Karlstad, Sverige</description>
        <styleUrl>#icon-22</styleUrl>
        <Point><coordinates>13.504558,59.3743,0</coordinates></Point>
      </Placemark>
      <Placemark>
        <name><![CDATA[Tanka Gislaved]]></name>
        <description>Tanka Gislaved, Gislaved, Sverige</description>
        <styleUrl>#icon-22</styleUrl>
        <Point><coordinates>13.568124,57.297955,0</coordinates></Point>
      </Placemark>
      <Placemark>
        <name><![CDATA[Tanka Falköping]]></name>
        <description>Tanka Falköping, Falköping, Sverige</description>
        <styleUrl>#icon-22</styleUrl>
        <Point><coordinates>13.579999,58.168858,0</coordinates></Point>
      </Placemark>
      <Placemark>
        <name><![CDATA[Tanka & Tvätta Markaryd]]></name>
        <description>Tanka & Tvätta Markaryd, Markaryd, Sverige</description>
        <styleUrl>#icon-22</styleUrl>
        <Point><coordinates>13.594218,56.455276,0</coordinates></Point>
      </Placemark>
      <Placemark>
        <name><![CDATA[Tanka & Tvätta Hörby]]></name>
        <description>Tanka & Tvätta Hörby, Hörby, Sverige</description>
        <styleUrl>#icon-22</styleUrl>
        <Point><coordinates>13.662741,55.8646,0</coordinates></Point>
      </Placemark>
      <Placemark>
        <name><![CDATA[Tanka & Tvätta Sjöbo]]></name>
        <description>Tanka & Tvätta Sjöbo, Sjöbo, Sverige</description>
        <styleUrl>#icon-22</styleUrl>
        <Point><coordinates>13.68363,55.63532,0</coordinates></Point>
      </Placemark>
      <Placemark>
        <name><![CDATA[Tanka & Tvätta Malung]]></name>
        <description>Tanka & Tvätta Malung, Malung, Sverige</description>
        <styleUrl>#icon-22</styleUrl>
        <Point><coordinates>13.720033,60.687614,0</coordinates></Point>
      </Placemark>
      <Placemark>
        <name><![CDATA[OKQ8 Strömsnäsbruk]]></name>
        <description>OKQ8 Strömsnäsbruk, Strömsnäsbruk, Sverige</description>
        <styleUrl>#icon-22</styleUrl>
        <Point><coordinates>13.722335,56.56005,0</coordinates></Point>
      </Placemark>
      <Placemark>
        <name><![CDATA[Tanka & Tvätta Hässleholm]]></name>
        <description>Tanka & Tvätta Hässleholm, Hässleholm, Sverige</description>
        <styleUrl>#icon-22</styleUrl>
        <Point><coordinates>13.758408,56.169746,0</coordinates></Point>
      </Placemark>
      <Placemark>
        <name><![CDATA[Tanka Mariestad]]></name>
        <description>Tanka Mariestad, Mariestad, Sverige</description>
        <styleUrl>#icon-22</styleUrl>
        <Point><coordinates>13.820914,58.67771,0</coordinates></Point>
      </Placemark>
      <Placemark>
        <name><![CDATA[Tanka & Tvätta Ystad]]></name>
        <description>Tanka & Tvätta Ystad, Ystad, Sverige</description>
        <styleUrl>#icon-22</styleUrl>
        <Point><coordinates>13.839516,55.445198,0</coordinates></Point>
      </Placemark>
      <Placemark>
        <name><![CDATA[Tanka Skövde]]></name>
        <description>Tanka Skövde, Skövde, Sverige</description>
        <styleUrl>#icon-22</styleUrl>
        <Point><coordinates>13.870283,58.419086,0</coordinates></Point>
      </Placemark>
      <Placemark>
        <name><![CDATA[Tanka & Tvätta Ljungby]]></name>
        <description>Tanka & Tvätta Ljungby, Ljungby, Sverige</description>
        <styleUrl>#icon-22</styleUrl>
        <Point><coordinates>13.9094,56.8122,0</coordinates></Point>
      </Placemark>
      <Placemark>
        <name><![CDATA[Tanka Tomelilla]]></name>
        <description>Tanka Tomelilla, Tomelilla, Sverige</description>
        <styleUrl>#icon-22</styleUrl>
        <Point><coordinates>13.946783,55.546806,0</coordinates></Point>
      </Placemark>
      <Placemark>
        <name><![CDATA[Tanka & Tvätta Osby]]></name>
        <description>Tanka & Tvätta Osby, Osby, Sverige</description>
        <styleUrl>#icon-22</styleUrl>
        <Point><coordinates>13.992749,56.377773,0</coordinates></Point>
      </Placemark>
      <Placemark>
        <name><![CDATA[Tanka Värnamo]]></name>
        <description>Tanka Värnamo, Värnamo, Sverige</description>
        <styleUrl>#icon-22</styleUrl>
        <Point><coordinates>14.064587,57.19182,0</coordinates></Point>
      </Placemark>
      <Placemark>
        <name><![CDATA[Tanka Kristinehamn]]></name>
        <description>Tanka Kristinehamn, Kristinehamn, Sverige</description>
        <styleUrl>#icon-22</styleUrl>
        <Point><coordinates>14.120272,59.29862,0</coordinates></Point>
      </Placemark>
      <Placemark>
        <name><![CDATA[Tanka & Tvätta Älmhult]]></name>
        <description>Tanka & Tvätta Älmhult, Älmhult, Sverige</description>
        <styleUrl>#icon-22</styleUrl>
        <Point><coordinates>14.143591,56.555035,0</coordinates></Point>
      </Placemark>
      <Placemark>
        <name><![CDATA[Tanka Filipstad]]></name>
        <description>Tanka Filipstad, Filipstad, Sverige</description>
        <styleUrl>#icon-22</styleUrl>
        <Point><coordinates>14.174933,59.714603,0</coordinates></Point>
      </Placemark>
      <Placemark>
        <name><![CDATA[Nybergs Bil Jönköping]]></name>
        <description>Nybergs Bil Jönköping, Jönköping, Sverige</description>
        <styleUrl>#icon-22</styleUrl>
        <Point><coordinates>14.184303,57.778313,0</coordinates></Point>
      </Placemark>
      <Placemark>
        <name><![CDATA[Tanka Kristianstad]]></name>
        <description>Tanka Kristianstad, Kristianstad, Sverige</description>
        <styleUrl>#icon-22</styleUrl>
        <Point><coordinates>14.210113,56.028416,0</coordinates></Point>
      </Placemark>
      <Placemark>
        <name><![CDATA[Tanka & Tvätta Simrishamn]]></name>
        <description>Tanka & Tvätta Simrishamn, Simrishamn, Sverige</description>
        <styleUrl>#icon-22</styleUrl>
        <Point><coordinates>14.33464,55.54558,0</coordinates></Point>
      </Placemark>
      <Placemark>
        <name><![CDATA[Tanka & Tvätta Karlskoga]]></name>
        <description>Tanka & Tvätta Karlskoga, Karlskoga, Sverige</description>
        <styleUrl>#icon-22</styleUrl>
        <Point><coordinates>14.491333,59.299976,0</coordinates></Point>
      </Placemark>
      <Placemark>
        <name><![CDATA[Tanka & Tvätta Olofström]]></name>
        <description>Tanka & Tvätta Olofström, Olofström, Sverige</description>
        <styleUrl>#icon-22</styleUrl>
        <Point><coordinates>14.542374,56.275898,0</coordinates></Point>
      </Placemark>
      <Placemark>
        <name><![CDATA[Tanka & Tvätta Mora]]></name>
        <description>Tanka & Tvätta Mora, Mora, Sverige</description>
        <styleUrl>#icon-22</styleUrl>
        <Point><coordinates>14.56374,61.01008,0</coordinates></Point>
      </Placemark>
      <Placemark>
        <name><![CDATA[Tanka Sölvesborg]]></name>
        <description>Tanka Sölvesborg, Sölvesborg, Sverige</description>
        <styleUrl>#icon-22</styleUrl>
        <Point><coordinates>14.566369,56.05576,0</coordinates></Point>
      </Placemark>
      <Placemark>
        <name><![CDATA[Tanka Östersund]]></name>
        <description>Tanka Östersund, Östersund, Sverige</description>
        <styleUrl>#icon-22</styleUrl>
        <Point><coordinates>14.678641,63.1703,0</coordinates></Point>
      </Placemark>
      <Placemark>
        <name><![CDATA[Tanka Nässjö]]></name>
        <description>Tanka Nässjö, Nässjö, Sverige</description>
        <styleUrl>#icon-22</styleUrl>
        <Point><coordinates>14.730571,57.647373,0</coordinates></Point>
      </Placemark>
      <Placemark>
        <name><![CDATA[Tanka & Tvätta Växjö]]></name>
        <description>Tanka & Tvätta Växjö, Växjö, Sverige</description>
        <styleUrl>#icon-22</styleUrl>
        <Point><coordinates>14.771494,56.884907,0</coordinates></Point>
      </Placemark>
      <Placemark>
        <name><![CDATA[Tanka Asarum]]></name>
        <description>Tanka Asarum, Asarum, Sverige</description>
        <styleUrl>#icon-22</styleUrl>
        <Point><coordinates>14.8439,56.193787,0</coordinates></Point>
      </Placemark>
      <Placemark>
        <name><![CDATA[Tanka Askersund]]></name>
        <description>Tanka Askersund, Askersund, Sverige</description>
        <styleUrl>#icon-22</styleUrl>
        <Point><coordinates>14.897427,58.890255,0</coordinates></Point>
      </Placemark>
      <Placemark>
        <name><![CDATA[Tanka Tranås]]></name>
        <description>Tanka Tranås, Tranås, Sverige</description>
        <styleUrl>#icon-22</styleUrl>
        <Point><coordinates>14.978176,58.03541,0</coordinates></Point>
      </Placemark>
      <Placemark>
        <name><![CDATA[Tanka Tingsryd]]></name>
        <description>Tanka Tingsryd, Tingsryd, Sverige</description>
        <styleUrl>#icon-22</styleUrl>
        <Point><coordinates>14.985709,56.519073,0</coordinates></Point>
      </Placemark>
      <Placemark>
        <name><![CDATA[Tanka & Tvätta Leksand]]></name>
        <description>Tanka & Tvätta Leksand, Leksand, Sverige</description>
        <styleUrl>#icon-22</styleUrl>
        <Point><coordinates>15.005306,60.73773,0</coordinates></Point>
      </Placemark>
      <Placemark>
        <name><![CDATA[Tanka Motala]]></name>
        <description>Tanka Motala, Motala, Sverige</description>
        <styleUrl>#icon-22</styleUrl>
        <Point><coordinates>15.016001,58.535976,0</coordinates></Point>
      </Placemark>
      <Placemark>
        <name><![CDATA[Tanka & Tvätta Kolvägen]]></name>
        <description>Tanka & Tvätta Kolvägen, Vetlanda, Sverige</description>
        <styleUrl>#icon-22</styleUrl>
        <Point><coordinates>15.065186,57.44523,0</coordinates></Point>
      </Placemark>
      <Placemark>
        <name><![CDATA[Tanka & Tvätta Mjölby]]></name>
        <description>Tanka & Tvätta Mjölby, Mjölby, Sverige</description>
        <styleUrl>#icon-22</styleUrl>
        <Point><coordinates>15.149674,58.331654,0</coordinates></Point>
      </Placemark>
      <Placemark>
        <name><![CDATA[Tanka & Tvätta Ludvika]]></name>
        <description>Tanka & Tvätta Ludvika, Ludvika, Sverige</description>
        <styleUrl>#icon-22</styleUrl>
        <Point><coordinates>15.179722,60.14426,0</coordinates></Point>
      </Placemark>
      <Placemark>
        <name><![CDATA[Tanka & Tvätta Lindesberg]]></name>
        <description>Tanka & Tvätta Lindesberg, Lindesberg, Sverige</description>
        <styleUrl>#icon-22</styleUrl>
        <Point><coordinates>15.207782,59.60319,0</coordinates></Point>
      </Placemark>
      <Placemark>
        <name><![CDATA[Tanka & Tvätta Örebro]]></name>
        <description>Tanka & Tvätta Örebro, Örebro, Sverige</description>
        <styleUrl>#icon-22</styleUrl>
        <Point><coordinates>15.229571,59.297604,0</coordinates></Point>
      </Placemark>
      <Placemark>
        <name><![CDATA[Tanka & Tvätta Borlänge]]></name>
        <description>Tanka & Tvätta Borlänge, Borlänge, Sverige</description>
        <styleUrl>#icon-22</styleUrl>
        <Point><coordinates>15.488271,60.44842,0</coordinates></Point>
      </Placemark>
      <Placemark>
        <name><![CDATA[Tanka Strömsund]]></name>
        <description>Tanka Strömsund, Strömsund, Sverige</description>
        <styleUrl>#icon-22</styleUrl>
        <Point><coordinates>15.560944,63.855137,0</coordinates></Point>
      </Placemark>
      <Placemark>
        <name><![CDATA[Tage Rejmes i Linköping AB]]></name>
        <description>Tage Rejmes i Linköping AB, Linköping, Sverige</description>
        <styleUrl>#icon-22</styleUrl>
        <Point><coordinates>15.591895,58.429558,0</coordinates></Point>
      </Placemark>
      <Placemark>
        <name><![CDATA[Tanka Karlskrona]]></name>
        <description>Tanka Karlskrona, Karlskrona, Sverige</description>
        <styleUrl>#icon-22</styleUrl>
        <Point><coordinates>15.635476,56.2026,0</coordinates></Point>
      </Placemark>
      <Placemark>
        <name><![CDATA[Tanka Kisa]]></name>
        <description>Tanka Kisa, Kisa, Sverige</description>
        <styleUrl>#icon-22</styleUrl>
        <Point><coordinates>15.637854,57.98223,0</coordinates></Point>
      </Placemark>
      <Placemark>
        <name><![CDATA[Tanka & Tvätta Linköping]]></name>
        <description>Tanka & Tvätta Linköping, Linköping, Sverige</description>
        <styleUrl>#icon-22</styleUrl>
        <Point><coordinates>15.638593,58.4169,0</coordinates></Point>
      </Placemark>
      <Placemark>
        <name><![CDATA[Tanka & Tvätta Kolonv Falun]]></name>
        <description>Tanka & Tvätta Kolonv Falun, Falun, Sverige</description>
        <styleUrl>#icon-22</styleUrl>
        <Point><coordinates>15.66319,60.60771,0</coordinates></Point>
      </Placemark>
      <Placemark>
        <name><![CDATA[Tanka & Tvätta Finspång]]></name>
        <description>Tanka & Tvätta Finspång, Finspång, Sverige</description>
        <styleUrl>#icon-22</styleUrl>
        <Point><coordinates>15.794308,58.703724,0</coordinates></Point>
      </Placemark>
      <Placemark>
        <name><![CDATA[Bilkompaniet Fagersta]]></name>
        <description>Bilkompaniet Fagersta, Fagersta, Sverige</description>
        <styleUrl>#icon-22</styleUrl>
        <Point><coordinates>15.808657,59.98203,0</coordinates></Point>
      </Placemark>
      <Placemark>
        <name><![CDATA[Tanka & Tvätta Vimmerby]]></name>
        <description>Tanka & Tvätta Vimmerby, Vimmerby, Sverige</description>
        <styleUrl>#icon-22</styleUrl>
        <Point><coordinates>15.850099,57.661255,0</coordinates></Point>
      </Placemark>
      <Placemark>
        <name><![CDATA[Tanka & Tvätta Nybro]]></name>
        <description>Tanka & Tvätta Nybro, Nybro, Sverige</description>
        <styleUrl>#icon-22</styleUrl>
        <Point><coordinates>15.893687,56.74327,0</coordinates></Point>
      </Placemark>
      <Placemark>
        <name><![CDATA[Tanka Köping]]></name>
        <description>Tanka Köping, Köping, Sverige</description>
        <styleUrl>#icon-22</styleUrl>
        <Point><coordinates>15.972877,59.519917,0</coordinates></Point>
      </Placemark>
      <Placemark>
        <name><![CDATA[Tanka Hedemora]]></name>
        <description>Tanka Hedemora, Hedemora, Sverige</description>
        <styleUrl>#icon-22</styleUrl>
        <Point><coordinates>15.991695,60.283165,0</coordinates></Point>
      </Placemark>
      <Placemark>
        <name><![CDATA[Tanka & Tvätta Åtvidaberg]]></name>
        <description>Tanka & Tvätta Åtvidaberg, Åtvidaberg, Sverige</description>
        <styleUrl>#icon-22</styleUrl>
        <Point><coordinates>15.999894,58.203533,0</coordinates></Point>
      </Placemark>
      <Placemark>
        <name><![CDATA[Tanka Avesta]]></name>
        <description>Tanka Avesta, Avesta, Sverige</description>
        <styleUrl>#icon-22</styleUrl>
        <Point><coordinates>16.194542,60.141876,0</coordinates></Point>
      </Placemark>
      <Placemark>
        <name><![CDATA[Tanka & Tvätta Norrköping]]></name>
        <description>Tanka & Tvätta Norrköping, Norrköping, Sverige</description>
        <styleUrl>#icon-22</styleUrl>
        <Point><coordinates>16.217945,58.587826,0</coordinates></Point>
      </Placemark>
      <Placemark>
        <name><![CDATA[Tanka Katrineholm]]></name>
        <description>Tanka Katrineholm, Katrineholm, Sverige</description>
        <styleUrl>#icon-22</styleUrl>
        <Point><coordinates>16.223257,59.00119,0</coordinates></Point>
      </Placemark>
      <Placemark>
        <name><![CDATA[Tanka & Tvätta Kalmar]]></name>
        <description>Tanka & Tvätta Kalmar, Kalmar, Sverige</description>
        <styleUrl>#icon-22</styleUrl>
        <Point><coordinates>16.314375,56.688747,0</coordinates></Point>
      </Placemark>
      <Placemark>
        <name><![CDATA[Tanka & Tvätta Kalmar]]></name>
        <description>Tanka & Tvätta Kalmar, Kalmar, Sverige</description>
        <styleUrl>#icon-22</styleUrl>
        <Point><coordinates>16.314428,56.689323,0</coordinates></Point>
      </Placemark>
      <Placemark>
        <name><![CDATA[Tanka Bollnäs]]></name>
        <description>Tanka Bollnäs, Bollnäs, Sverige</description>
        <styleUrl>#icon-22</styleUrl>
        <Point><coordinates>16.38057,61.34375,0</coordinates></Point>
      </Placemark>
      <Placemark>
        <name><![CDATA[Tanka Oskarshamn]]></name>
        <description>Tanka Oskarshamn, Oskarshamn, Sverige</description>
        <styleUrl>#icon-22</styleUrl>
        <Point><coordinates>16.44435,57.251305,0</coordinates></Point>
      </Placemark>
      <Placemark>
        <name><![CDATA[Tanka Eskilstuna]]></name>
        <description>Tanka Eskilstuna, Eskilstuna, Sverige</description>
        <styleUrl>#icon-22</styleUrl>
        <Point><coordinates>16.468376,59.38864,0</coordinates></Point>
      </Placemark>
      <Placemark>
        <name><![CDATA[Tanka Västerås]]></name>
        <description>Tanka Västerås, Västerås, Sverige</description>
        <styleUrl>#icon-22</styleUrl>
        <Point><coordinates>16.565891,59.64168,0</coordinates></Point>
      </Placemark>
      <Placemark>
        <name><![CDATA[Tanka Västerås]]></name>
        <description>Tanka Västerås, Västerås, Sverige</description>
        <styleUrl>#icon-22</styleUrl>
        <Point><coordinates>16.573435,59.608047,0</coordinates></Point>
      </Placemark>
      <Placemark>
        <name><![CDATA[Tanka Valdemarsvik]]></name>
        <description>Tanka Valdemarsvik, Valdemarsvik, Sverige</description>
        <styleUrl>#icon-22</styleUrl>
        <Point><coordinates>16.58248,58.211933,0</coordinates></Point>
      </Placemark>
      <Placemark>
        <name><![CDATA[Tanka Sala]]></name>
        <description>Tanka Sala, Sala, Sverige</description>
        <styleUrl>#icon-22</styleUrl>
        <Point><coordinates>16.587677,59.922993,0</coordinates></Point>
      </Placemark>
      <Placemark>
        <name><![CDATA[Tanka Västervik]]></name>
        <description>Tanka Västervik, Västervik, Sverige</description>
        <styleUrl>#icon-22</styleUrl>
        <Point><coordinates>16.60408,57.76786,0</coordinates></Point>
      </Placemark>
      <Placemark>
        <name><![CDATA[Tanka Borgholm]]></name>
        <description>Tanka Borgholm, Borgholm, Sverige</description>
        <styleUrl>#icon-22</styleUrl>
        <Point><coordinates>16.6637,56.877457,0</coordinates></Point>
      </Placemark>
      <Placemark>
        <name><![CDATA[Tanka & Tvätta Sandviken]]></name>
        <description>Tanka & Tvätta Sandviken, Sandviken, Sverige</description>
        <styleUrl>#icon-22</styleUrl>
        <Point><coordinates>16.768776,60.6233,0</coordinates></Point>
      </Placemark>
      <Placemark>
        <name><![CDATA[Tanka Nyköping]]></name>
        <description>Tanka Nyköping, Nyköping, Sverige</description>
        <styleUrl>#icon-22</styleUrl>
        <Point><coordinates>16.976976,58.749134,0</coordinates></Point>
      </Placemark>
      <Placemark>
        <name><![CDATA[Tanka Strängnäs]]></name>
        <description>Tanka Strängnäs, Strängnäs, Sverige</description>
        <styleUrl>#icon-22</styleUrl>
        <Point><coordinates>17.019283,59.32831,0</coordinates></Point>
      </Placemark>
      <Placemark>
        <name><![CDATA[Tanka Söderhamn]]></name>
        <description>Tanka Söderhamn, Söderhamn, Sverige</description>
        <styleUrl>#icon-22</styleUrl>
        <Point><coordinates>17.064123,61.294296,0</coordinates></Point>
      </Placemark>
      <Placemark>
        <name><![CDATA[Tanka Enköping]]></name>
        <description>Tanka Enköping, Enköping, Sverige</description>
        <styleUrl>#icon-22</styleUrl>
        <Point><coordinates>17.0771,59.65779,0</coordinates></Point>
      </Placemark>
      <Placemark>
        <name><![CDATA[Volvo Car Retail AB]]></name>
        <description>Volvo Car Retail AB, Enköping, Sverige</description>
        <styleUrl>#icon-22</styleUrl>
        <Point><coordinates>17.08221,59.65441,0</coordinates></Point>
      </Placemark>
      <Placemark>
        <name><![CDATA[Tanka Hudiksvall]]></name>
        <description>Tanka Hudiksvall, Hudiksvall, Sverige</description>
        <styleUrl>#icon-22</styleUrl>
        <Point><coordinates>17.096636,61.73388,0</coordinates></Point>
      </Placemark>
      <Placemark>
        <name><![CDATA[Tanka Gävle]]></name>
        <description>Tanka Gävle, Gävle, Sverige</description>
        <styleUrl>#icon-22</styleUrl>
        <Point><coordinates>17.157293,60.662872,0</coordinates></Point>
      </Placemark>
      <Placemark>
        <name><![CDATA[Tanka & Tvätta Bultgatan]]></name>
        <description>Tanka & Tvätta Bultgatan, Sundsvall, Sverige</description>
        <styleUrl>#icon-22</styleUrl>
        <Point><coordinates>17.277224,62.3898,0</coordinates></Point>
      </Placemark>
      <Placemark>
        <name><![CDATA[Tanka Sollefteå]]></name>
        <description>Tanka Sollefteå, Sollefteå, Sverige</description>
        <styleUrl>#icon-22</styleUrl>
        <Point><coordinates>17.305195,63.162296,0</coordinates></Point>
      </Placemark>
      <Placemark>
        <name><![CDATA[Tanka Timrå]]></name>
        <description>Tanka Timrå, Timrå, Sverige</description>
        <styleUrl>#icon-22</styleUrl>
        <Point><coordinates>17.32749,62.493908,0</coordinates></Point>
      </Placemark>
      <Placemark>
        <name><![CDATA[Tanka Sundsvall]]></name>
        <description>Tanka Sundsvall, Sundsvall, Sverige</description>
        <styleUrl>#icon-22</styleUrl>
        <Point><coordinates>17.356977,62.38054,0</coordinates></Point>
      </Placemark>
      <Placemark>
        <name><![CDATA[Volvo Car Retail AB]]></name>
        <description>Volvo Car Retail AB, Bålsta, Sverige</description>
        <styleUrl>#icon-22</styleUrl>
        <Point><coordinates>17.552736,59.560402,0</coordinates></Point>
      </Placemark>
      <Placemark>
        <name><![CDATA[Tanka Södertälje]]></name>
        <description>Tanka Södertälje, Södertälje, Sverige</description>
        <styleUrl>#icon-22</styleUrl>
        <Point><coordinates>17.657509,59.203327,0</coordinates></Point>
      </Placemark>
      <Placemark>
        <name><![CDATA[Tanka Uppsala]]></name>
        <description>Tanka Uppsala, Uppsala, Sverige</description>
        <styleUrl>#icon-22</styleUrl>
        <Point><coordinates>17.65991,59.848797,0</coordinates></Point>
      </Placemark>
      <Placemark>
        <name><![CDATA[Tanka Tumba]]></name>
        <description>Tanka Tumba, Tumba, Sverige</description>
        <styleUrl>#icon-22</styleUrl>
        <Point><coordinates>17.828646,59.213844,0</coordinates></Point>
      </Placemark>
      <Placemark>
        <name><![CDATA[Tanka & Tvätta Jakobsberg]]></name>
        <description>Tanka & Tvätta Jakobsberg, Järfälla, Sverige</description>
        <styleUrl>#icon-22</styleUrl>
        <Point><coordinates>17.84499,59.420925,0</coordinates></Point>
      </Placemark>
      <Placemark>
        <name><![CDATA[Tanka Vällingby]]></name>
        <description>Tanka Vällingby, Vällingby, Sverige</description>
        <styleUrl>#icon-22</styleUrl>
        <Point><coordinates>17.855282,59.373524,0</coordinates></Point>
      </Placemark>
      <Placemark>
        <name><![CDATA[Tanka Arlanda]]></name>
        <description>Tanka Arlanda, Arlandastad, Sverige</description>
        <styleUrl>#icon-22</styleUrl>
        <Point><coordinates>17.87105,59.61401,0</coordinates></Point>
      </Placemark>
      <Placemark>
        <name><![CDATA[Tanka Härnösand]]></name>
        <description>Tanka Härnösand, Härnösand, Sverige</description>
        <styleUrl>#icon-22</styleUrl>
        <Point><coordinates>17.91138,62.639668,0</coordinates></Point>
      </Placemark>
      <Placemark>
        <name><![CDATA[Volvo Car Retail]]></name>
        <description>Volvo Car Retail, Sollentuna, Sverige</description>
        <styleUrl>#icon-22</styleUrl>
        <Point><coordinates>17.924286,59.421352,0</coordinates></Point>
      </Placemark>
      <Placemark>
        <name><![CDATA[Tanka & Tvätta Upplands Väsby]]></name>
        <description>Tanka & Tvätta Upplands Väsby, Upplands Väsby, Sverige</description>
        <styleUrl>#icon-22</styleUrl>
        <Point><coordinates>17.925978,59.516033,0</coordinates></Point>
      </Placemark>
      <Placemark>
        <name><![CDATA[Volvo Car Retail AB]]></name>
        <description>Volvo Car Retail AB, Kungsängen, Sverige</description>
        <styleUrl>#icon-22</styleUrl>
        <Point><coordinates>17.926346,59.515263,0</coordinates></Point>
      </Placemark>
      <Placemark>
        <name><![CDATA[Tanka Kista]]></name>
        <description>Tanka Kista, Kista, Sverige</description>
        <styleUrl>#icon-22</styleUrl>
        <Point><coordinates>17.938023,59.40623,0</coordinates></Point>
      </Placemark>
      <Placemark>
        <name><![CDATA[Tanka & Tvätta Segeltorp]]></name>
        <description>Tanka & Tvätta Segeltorp, Segeltorp, Sverige</description>
        <styleUrl>#icon-22</styleUrl>
        <Point><coordinates>17.947046,59.28493,0</coordinates></Point>
      </Placemark>
      <Placemark>
        <name><![CDATA[Tanka Bromma]]></name>
        <description>Tanka Bromma, Bromma, Sverige</description>
        <styleUrl>#icon-22</styleUrl>
        <Point><coordinates>17.969929,59.334885,0</coordinates></Point>
      </Placemark>
      <Placemark>
        <name><![CDATA[Tanka Solna]]></name>
        <description>Tanka Solna, Solna, Sverige</description>
        <styleUrl>#icon-22</styleUrl>
        <Point><coordinates>17.98651,59.35778,0</coordinates></Point>
      </Placemark>
      <Placemark>
        <name><![CDATA[Tanka Täby]]></name>
        <description>Tanka Täby, Täby, Sverige</description>
        <styleUrl>#icon-22</styleUrl>
        <Point><coordinates>18.052223,59.438717,0</coordinates></Point>
      </Placemark>
      <Placemark>
        <name><![CDATA[Tanka & Tvätta Vallentuna]]></name>
        <description>Tanka & Tvätta Vallentuna, Vallentuna, Sverige</description>
        <styleUrl>#icon-22</styleUrl>
        <Point><coordinates>18.08392,59.531406,0</coordinates></Point>
      </Placemark>
      <Placemark>
        <name><![CDATA[Volvo Car Retail]]></name>
        <description>Volvo Car Retail, Skogås, Sverige</description>
        <styleUrl>#icon-22</styleUrl>
        <Point><coordinates>18.125872,59.20228,0</coordinates></Point>
      </Placemark>
      <Placemark>
        <name><![CDATA[Tanka Handen]]></name>
        <description>Tanka Handen, Handen, Sverige</description>
        <styleUrl>#icon-22</styleUrl>
        <Point><coordinates>18.160374,59.16496,0</coordinates></Point>
      </Placemark>
      <Placemark>
        <name><![CDATA[Tanka Tyresö]]></name>
        <description>Tanka Tyresö, Tyresö, Sverige</description>
        <styleUrl>#icon-22</styleUrl>
        <Point><coordinates>18.215525,59.242813,0</coordinates></Point>
      </Placemark>
      <Placemark>
        <name><![CDATA[Tanka Åkersberga]]></name>
        <description>Tanka Åkersberga, Åkersberga, Sverige</description>
        <styleUrl>#icon-22</styleUrl>
        <Point><coordinates>18.27969,59.481285,0</coordinates></Point>
      </Placemark>
      <Placemark>
        <name><![CDATA[Bilbolaget  Östhammar]]></name>
        <description>Bilbolaget  Östhammar, Östhammar, Sverige</description>
        <styleUrl>#icon-22</styleUrl>
        <Point><coordinates>18.348093,60.25329,0</coordinates></Point>
      </Placemark>
      <Placemark>
        <name><![CDATA[Tanka Östhammar]]></name>
        <description>Tanka Östhammar, Östhammar, Sverige</description>
        <styleUrl>#icon-22</styleUrl>
        <Point><coordinates>18.349487,60.25619,0</coordinates></Point>
      </Placemark>
      <Placemark>
        <name><![CDATA[Tanka Lycksele]]></name>
        <description>Tanka Lycksele, Lycksele, Sverige</description>
        <styleUrl>#icon-22</styleUrl>
        <Point><coordinates>18.666641,64.59981,0</coordinates></Point>
      </Placemark>
      <Placemark>
        <name><![CDATA[Tanka & Tvätta Norrtälje]]></name>
        <description>Tanka & Tvätta Norrtälje, Norrtälje, Sverige</description>
        <styleUrl>#icon-22</styleUrl>
        <Point><coordinates>18.68957,59.7599,0</coordinates></Point>
      </Placemark>
      <Placemark>
        <name><![CDATA[Tanka Örnsköldsvik]]></name>
        <description>Tanka Örnsköldsvik, Örnsköldsvik, Sverige</description>
        <styleUrl>#icon-22</styleUrl>
        <Point><coordinates>18.722235,63.30322,0</coordinates></Point>
      </Placemark>
      <Placemark>
        <name><![CDATA[Tanka Bjurholm]]></name>
        <description>Tanka Bjurholm, Bjurholm, Sverige</description>
        <styleUrl>#icon-22</styleUrl>
        <Point><coordinates>19.225924,63.93252,0</coordinates></Point>
      </Placemark>
      <Placemark>
        <name><![CDATA[Tanka Umeå]]></name>
        <description>Tanka Umeå, Umeå, Sverige</description>
        <styleUrl>#icon-22</styleUrl>
        <Point><coordinates>20.247797,63.813663,0</coordinates></Point>
      </Placemark>
      <Placemark>
        <name><![CDATA[Tanka Kiruna]]></name>
        <description>Tanka Kiruna, Kiruna, Sverige</description>
        <styleUrl>#icon-22</styleUrl>
        <Point><coordinates>20.262087,67.84862,0</coordinates></Point>
      </Placemark>
      <Placemark>
        <name><![CDATA[Tanka Gällivare]]></name>
        <description>Tanka Gällivare, Gällivare, Sverige</description>
        <styleUrl>#icon-22</styleUrl>
        <Point><coordinates>20.660872,67.149826,0</coordinates></Point>
      </Placemark>
      <Placemark>
        <name><![CDATA[Tanka Skellefteå]]></name>
        <description>Tanka Skellefteå, Skellefteå, Sverige</description>
        <styleUrl>#icon-22</styleUrl>
        <Point><coordinates>20.971577,64.73117,0</coordinates></Point>
      </Placemark>
      <Placemark>
        <name><![CDATA[Tanka & Tvätta Piteå]]></name>
        <description>Tanka & Tvätta Piteå, Öjebyn, Sverige</description>
        <styleUrl>#icon-22</styleUrl>
        <Point><coordinates>21.416864,65.31967,0</coordinates></Point>
      </Placemark>
      <Placemark>
        <name><![CDATA[Tanka Boden]]></name>
        <description>Tanka Boden, Boden, Sverige</description>
        <styleUrl>#icon-22</styleUrl>
        <Point><coordinates>21.698736,65.820595,0</coordinates></Point>
      </Placemark>
      <Placemark>
        <name><![CDATA[Tanka & Tvätta Luleå]]></name>
        <description>Tanka & Tvätta Luleå, Luleå, Sverige</description>
        <styleUrl>#icon-22</styleUrl>
        <Point><coordinates>22.152424,65.59545,0</coordinates></Point>
      </Placemark>
      <Placemark>
        <name><![CDATA[Tanka Kalix]]></name>
        <description>Tanka Kalix, Kalix, Sverige</description>
        <styleUrl>#icon-22</styleUrl>
        <Point><coordinates>23.117662,65.850296,0</coordinates></Point>
      </Placemark>
    </Folder>
  </Document>
</kml>