<?xml version="1.0" encoding="UTF-8"?>
<kml xmlns="http://www.opengis.net/kml/2.2">
  <Document>
    <name><![CDATA[Telia]]></name>
    <description/>
    <Style id="icon-22-normal"><IconStyle><scale>1.1</scale><Icon><href>https://www.gstatic.com/mapspro/images/stock/22-blue-dot.png</href></Icon><hotSpot x="16" xunits="pixels" y="32" yunits="insetPixels"/></IconStyle><LabelStyle><scale>0</scale></LabelStyle></Style>
    <Style id="icon-22-highlight"><IconStyle><scale>1.1</scale><Icon><href>https://www.gstatic.com/mapspro/images/stock/22-blue-dot.png</href></Icon><hotSpot x="16" xunits="pixels" y="32" yunits="insetPixels"/></IconStyle><LabelStyle><scale>1.1</scale></LabelStyle></Style>
    <StyleMap id="icon-22"><Pair><key>normal</key><styleUrl>#icon-22-normal</styleUrl></Pair><Pair><key>highlight</key><styleUrl>#icon-22-highlight</styleUrl></Pair></StyleMap>
    <Folder>
      <name><![CDATA[Telia]]></name>
      <Placemark>
        <name><![CDATA[Telia Uddevalla, Torp Köpcentrum]]></name>
        <description><![CDATA[Telia Uddevalla, Torp Köpcentrum, Uddevalla, Sverige]]></description>
        <Point><coordinates>11.805563,58.352688,0</coordinates></Point>
        <styleUrl>#icon-22</styleUrl>
      </Placemark>
      <Placemark>
        <name><![CDATA[Telia Västra Frölunda, Frölunda Torg]]></name>
        <description><![CDATA[Telia Västra Frölunda, Frölunda Torg, Västra Frölunda, Sverige]]></description>
        <Point><coordinates>11.911188,57.652438,0</coordinates></Point>
        <styleUrl>#icon-22</styleUrl>
      </Placemark>
      <Placemark>
        <name><![CDATA[Telia Kungälv, Kongahälla]]></name>
        <description><![CDATA[Telia Kungälv, Kongahälla, Kungälv, Sverige]]></description>
        <Point><coordinates>11.967437,57.873812,0</coordinates></Point>
        <styleUrl>#icon-22</styleUrl>
      </Placemark>
      <Placemark>
        <name><![CDATA[Telia Göteborg, Nordstan]]></name>
        <description><![CDATA[Telia Göteborg, Nordstan, Göteborg, Sverige]]></description>
        <Point><coordinates>11.968937,57.708312,0</coordinates></Point>
        <styleUrl>#icon-22</styleUrl>
      </Placemark>
      <Placemark>
        <name><![CDATA[Telia Göteborg, Kungsportsplatsen]]></name>
        <description><![CDATA[Telia Göteborg, Kungsportsplatsen, Göteborg, Sverige]]></description>
        <Point><coordinates>11.970063,57.704187,0</coordinates></Point>
        <styleUrl>#icon-22</styleUrl>
      </Placemark>
      <Placemark>
        <name><![CDATA[Telia Kungsbacka, Kungsmässan]]></name>
        <description><![CDATA[Telia Kungsbacka, Kungsmässan, Kungsbacka, Sverige]]></description>
        <Point><coordinates>12.074562,57.492687,0</coordinates></Point>
        <styleUrl>#icon-22</styleUrl>
      </Placemark>
      <Placemark>
        <name><![CDATA[Telia Partille, Allum]]></name>
        <description><![CDATA[Telia Partille, Allum, Partille, Sverige]]></description>
        <Point><coordinates>12.106188,57.737313,0</coordinates></Point>
        <styleUrl>#icon-22</styleUrl>
      </Placemark>
      <Placemark>
        <name><![CDATA[Telia Varberg, Östra Långgatan]]></name>
        <description><![CDATA[Telia Varberg, Östra Långgatan, Varberg, Sverige]]></description>
        <Point><coordinates>12.254062,57.108062,0</coordinates></Point>
        <styleUrl>#icon-22</styleUrl>
      </Placemark>
      <Placemark>
        <name><![CDATA[Telia Trollhättan, Ladugårdsvägen]]></name>
        <description><![CDATA[Telia Trollhättan, Ladugårdsvägen, Trollhättan, Sverige]]></description>
        <Point><coordinates>12.306563,58.311937,0</coordinates></Point>
        <styleUrl>#icon-22</styleUrl>
      </Placemark>
      <Placemark>
        <name><![CDATA[Telia Falkenberg, Torggatan]]></name>
        <description><![CDATA[Telia Falkenberg, Torggatan, Falkenberg, Sverige]]></description>
        <Point><coordinates>12.490562,56.904312,0</coordinates></Point>
        <styleUrl>#icon-22</styleUrl>
      </Placemark>
      <Placemark>
        <name><![CDATA[Telia Ödåkra-Väla, Väla Centrum]]></name>
        <description><![CDATA[Telia Ödåkra-Väla, Väla Centrum, Ödåkra-Väla, Sverige]]></description>
        <Point><coordinates>12.759438,56.092062,0</coordinates></Point>
        <styleUrl>#icon-22</styleUrl>
      </Placemark>
      <Placemark>
        <name><![CDATA[Telia Halmstad, Hallarna]]></name>
        <description><![CDATA[Telia Halmstad, Hallarna, Halmstad, Sverige]]></description>
        <Point><coordinates>12.910187,56.655563,0</coordinates></Point>
        <styleUrl>#icon-22</styleUrl>
      </Placemark>
      <Placemark>
        <name><![CDATA[Telia Borås, Allégatan]]></name>
        <description><![CDATA[Telia Borås, Allégatan, Borås, Sverige]]></description>
        <Point><coordinates>12.942438,57.721062,0</coordinates></Point>
        <styleUrl>#icon-22</styleUrl>
      </Placemark>
      <Placemark>
        <name><![CDATA[Telia Malmö, Emporia Shoppingcenter]]></name>
        <description><![CDATA[Telia Malmö, Emporia Shoppingcenter, Malmö, Sverige]]></description>
        <Point><coordinates>12.972437,55.564563,0</coordinates></Point>
        <styleUrl>#icon-22</styleUrl>
      </Placemark>
      <Placemark>
        <name><![CDATA[Telia Malmö, Triangeln]]></name>
        <description><![CDATA[Telia Malmö, Triangeln, Malmö, Sverige]]></description>
        <Point><coordinates>13.002063,55.595687,0</coordinates></Point>
        <styleUrl>#icon-22</styleUrl>
      </Placemark>
      <Placemark>
        <name><![CDATA[Telia Malmö, Mobilia Shoppingcenter]]></name>
        <description><![CDATA[Telia Malmö, Mobilia Shoppingcenter, Malmö, Sverige]]></description>
        <Point><coordinates>13.004062,55.580687,0</coordinates></Point>
        <styleUrl>#icon-22</styleUrl>
      </Placemark>
      <Placemark>
        <name><![CDATA[Telia Lund, Knut den Stores Torg]]></name>
        <description><![CDATA[Telia Lund, Knut den Stores Torg, Lund, Sverige]]></description>
        <Point><coordinates>13.188688,55.705188,0</coordinates></Point>
        <styleUrl>#icon-22</styleUrl>
      </Placemark>
      <Placemark>
        <name><![CDATA[Telia Karlstad, Bergvik]]></name>
        <description><![CDATA[Telia Karlstad, Bergvik, Karlstad, Sverige]]></description>
        <Point><coordinates>13.426562,59.376562,0</coordinates></Point>
        <styleUrl>#icon-22</styleUrl>
      </Placemark>
      <Placemark>
        <name><![CDATA[Telia Karlstad, Järnvägsgatan 7]]></name>
        <description><![CDATA[Telia Karlstad, Järnvägsgatan 7, Karlstad, Sverige]]></description>
        <Point><coordinates>13.499063,59.379562,0</coordinates></Point>
        <styleUrl>#icon-22</styleUrl>
      </Placemark>
      <Placemark>
        <name><![CDATA[Telia Skövde, Köpmannagatan]]></name>
        <description><![CDATA[Telia Skövde, Köpmannagatan, Skövde, Sverige]]></description>
        <Point><coordinates>13.855562,58.405187,0</coordinates></Point>
        <styleUrl>#icon-22</styleUrl>
      </Placemark>
      <Placemark>
        <name><![CDATA[Telia Jönköping, Asecs]]></name>
        <description><![CDATA[Telia Jönköping, Asecs, Jönköping, Sverige]]></description>
        <Point><coordinates>14.203563,57.773812,0</coordinates></Point>
        <styleUrl>#icon-22</styleUrl>
      </Placemark>
      <Placemark>
        <name><![CDATA[Telia Kristianstad, C4]]></name>
        <description><![CDATA[Telia Kristianstad, C4, Kristianstad, Sverige]]></description>
        <Point><coordinates>14.205312,56.026937,0</coordinates></Point>
        <styleUrl>#icon-22</styleUrl>
      </Placemark>
      <Placemark>
        <name><![CDATA[Telia Östersund, Kyrkgatan]]></name>
        <description><![CDATA[Telia Östersund, Kyrkgatan, Östersund, Sverige]]></description>
        <Point><coordinates>14.638562,63.176562,0</coordinates></Point>
        <styleUrl>#icon-22</styleUrl>
      </Placemark>
      <Placemark>
        <name><![CDATA[Telia Växjö, Grand Samarkand]]></name>
        <description><![CDATA[Telia Växjö, Grand Samarkand, Växjö, Sverige]]></description>
        <Point><coordinates>14.766188,56.883813,0</coordinates></Point>
        <styleUrl>#icon-22</styleUrl>
      </Placemark>
      <Placemark>
        <name><![CDATA[Telia Örebro, Marieberg Galleria]]></name>
        <description><![CDATA[Telia Örebro, Marieberg Galleria, Örebro, Sverige]]></description>
        <Point><coordinates>15.137313,59.217188,0</coordinates></Point>
        <styleUrl>#icon-22</styleUrl>
      </Placemark>
      <Placemark>
        <name><![CDATA[Telia Örebro, Drottninggatan]]></name>
        <description><![CDATA[Telia Örebro, Drottninggatan, Örebro, Sverige]]></description>
        <Point><coordinates>15.210938,59.271563,0</coordinates></Point>
        <styleUrl>#icon-22</styleUrl>
      </Placemark>
      <Placemark>
        <name><![CDATA[Telia Borlänge, Kupolen]]></name>
        <description><![CDATA[Telia Borlänge, Kupolen, Borlänge, Sverige]]></description>
        <Point><coordinates>15.418563,60.484063,0</coordinates></Point>
        <styleUrl>#icon-22</styleUrl>
      </Placemark>
      <Placemark>
        <name><![CDATA[Telia Linköping, I-Huset]]></name>
        <description><![CDATA[Telia Linköping, I-Huset, Linköping, Sverige]]></description>
        <Point><coordinates>15.585438,58.433437,0</coordinates></Point>
        <styleUrl>#icon-22</styleUrl>
      </Placemark>
      <Placemark>
        <name><![CDATA[Telia Falun, Gallerian]]></name>
        <description><![CDATA[Telia Falun, Gallerian, Falun, Sverige]]></description>
        <Point><coordinates>15.629563,60.606687,0</coordinates></Point>
        <styleUrl>#icon-22</styleUrl>
      </Placemark>
      <Placemark>
        <name><![CDATA[Telia Norrköping, Repslagaregatan]]></name>
        <description><![CDATA[Telia Norrköping, Repslagaregatan, Norrköping, Sverige]]></description>
        <Point><coordinates>16.188688,58.588563,0</coordinates></Point>
        <styleUrl>#icon-22</styleUrl>
      </Placemark>
      <Placemark>
        <name><![CDATA[Telia Kalmar, Kaggensgatan]]></name>
        <description><![CDATA[Telia Kalmar, Kaggensgatan, Kalmar, Sverige]]></description>
        <Point><coordinates>16.361688,56.664313,0</coordinates></Point>
        <styleUrl>#icon-22</styleUrl>
      </Placemark>
      <Placemark>
        <name><![CDATA[Telia Västerås, Erikslund]]></name>
        <description><![CDATA[Telia Västerås, Erikslund, Västerås, Sverige]]></description>
        <Point><coordinates>16.453063,59.609562,0</coordinates></Point>
        <styleUrl>#icon-22</styleUrl>
      </Placemark>
      <Placemark>
        <name><![CDATA[Telia Eskilstuna, Tuna Park]]></name>
        <description><![CDATA[Telia Eskilstuna, Tuna Park, Eskilstuna, Sverige]]></description>
        <Point><coordinates>16.470188,59.371063,0</coordinates></Point>
        <styleUrl>#icon-22</styleUrl>
      </Placemark>
      <Placemark>
        <name><![CDATA[Telia Valbo, Valbo Köpcentrum]]></name>
        <description><![CDATA[Telia Valbo, Valbo Köpcentrum, Valbo, Sverige]]></description>
        <Point><coordinates>16.993938,60.632813,0</coordinates></Point>
        <styleUrl>#icon-22</styleUrl>
      </Placemark>
      <Placemark>
        <name><![CDATA[Telia Nyköping, Galleria Axet]]></name>
        <description><![CDATA[Telia Nyköping, Galleria Axet, Nyköping, Sverige]]></description>
        <Point><coordinates>17.003687,58.751937,0</coordinates></Point>
        <styleUrl>#icon-22</styleUrl>
      </Placemark>
      <Placemark>
        <name><![CDATA[Telia Hudiksvall, Guldsmeden]]></name>
        <description><![CDATA[Telia Hudiksvall, Guldsmeden, Hudiksvall, Sverige]]></description>
        <Point><coordinates>17.104813,61.728313,0</coordinates></Point>
        <styleUrl>#icon-22</styleUrl>
      </Placemark>
      <Placemark>
        <name><![CDATA[Telia Gävle, Drottninggatan 12]]></name>
        <description><![CDATA[Telia Gävle, Drottninggatan 12, Gävle, Sverige]]></description>
        <Point><coordinates>17.141813,60.674062,0</coordinates></Point>
        <styleUrl>#icon-22</styleUrl>
      </Placemark>
      <Placemark>
        <name><![CDATA[Telia Sundsvall, Birsta City]]></name>
        <description><![CDATA[Telia Sundsvall, Birsta City, Sundsvall, Sverige]]></description>
        <Point><coordinates>17.337438,62.446938,0</coordinates></Point>
        <styleUrl>#icon-22</styleUrl>
      </Placemark>
      <Placemark>
        <name><![CDATA[Telia Uppsala, Bredgränd]]></name>
        <description><![CDATA[Telia Uppsala, Bredgränd, Uppsala, Sverige]]></description>
        <Point><coordinates>17.641562,59.857687,0</coordinates></Point>
        <styleUrl>#icon-22</styleUrl>
      </Placemark>
      <Placemark>
        <name><![CDATA[Telia Uppsala, Gränby Centrum]]></name>
        <description><![CDATA[Telia Uppsala, Gränby Centrum, Uppsala, Sverige]]></description>
        <Point><coordinates>17.672812,59.877063,0</coordinates></Point>
        <styleUrl>#icon-22</styleUrl>
      </Placemark>
      <Placemark>
        <name><![CDATA[Telia Vällingby, Vällingby Torg]]></name>
        <description><![CDATA[Telia Vällingby, Vällingby Torg, Vällingby, Sverige]]></description>
        <Point><coordinates>17.872687,59.362188,0</coordinates></Point>
        <styleUrl>#icon-22</styleUrl>
      </Placemark>
      <Placemark>
        <name><![CDATA[Telia Skärholmen, Skärholmen Centrum]]></name>
        <description><![CDATA[Telia Skärholmen, Skärholmen Centrum, Skärholmen, Sverige]]></description>
        <Point><coordinates>17.906937,59.275437,0</coordinates></Point>
        <styleUrl>#icon-22</styleUrl>
      </Placemark>
      <Placemark>
        <name><![CDATA[Telia Sollentuna, Sollentuna Centrum]]></name>
        <description><![CDATA[Telia Sollentuna, Sollentuna Centrum, Sollentuna, Sverige]]></description>
        <Point><coordinates>17.951062,59.428313,0</coordinates></Point>
        <styleUrl>#icon-22</styleUrl>
      </Placemark>
      <Placemark>
        <name><![CDATA[Telia Solna, Mall of Scandinavia]]></name>
        <description><![CDATA[Telia Solna, Mall of Scandinavia, Solna, Sverige]]></description>
        <Point><coordinates>18.005688,59.369062,0</coordinates></Point>
        <styleUrl>#icon-22</styleUrl>
      </Placemark>
      <Placemark>
        <name><![CDATA[Telia Stockholm, Västermalmsgallerian]]></name>
        <description><![CDATA[Telia Stockholm, Västermalmsgallerian, Stockholm, Sverige]]></description>
        <Point><coordinates>18.032312,59.334688,0</coordinates></Point>
        <styleUrl>#icon-22</styleUrl>
      </Placemark>
      <Placemark>
        <name><![CDATA[Telia Stockholm, Drottninggatan]]></name>
        <description><![CDATA[Telia Stockholm, Drottninggatan, Stockholm, Sverige]]></description>
        <Point><coordinates>18.060437,59.334937,0</coordinates></Point>
        <styleUrl>#icon-22</styleUrl>
      </Placemark>
      <Placemark>
        <name><![CDATA[Telia Stockholm, Åhlens City]]></name>
        <description><![CDATA[Telia Stockholm, Åhlens City, Stockholm, Sverige]]></description>
        <Point><coordinates>18.061687,59.332313,0</coordinates></Point>
        <styleUrl>#icon-22</styleUrl>
      </Placemark>
      <Placemark>
        <name><![CDATA[Telia Stockholm, Kungsgatan]]></name>
        <description><![CDATA[Telia Stockholm, Kungsgatan, Stockholm, Sverige]]></description>
        <Point><coordinates>18.064188,59.335812,0</coordinates></Point>
        <styleUrl>#icon-22</styleUrl>
      </Placemark>
      <Placemark>
        <name><![CDATA[Telia Täby, Marknadsvägen]]></name>
        <description><![CDATA[Telia Täby, Marknadsvägen, Täby, Sverige]]></description>
        <Point><coordinates>18.071937,59.444187,0</coordinates></Point>
        <styleUrl>#icon-22</styleUrl>
      </Placemark>
      <Placemark>
        <name><![CDATA[Telia Stockholm, Ringen]]></name>
        <description><![CDATA[Telia Stockholm, Ringen, Stockholm, Sverige]]></description>
        <Point><coordinates>18.075313,59.307812,0</coordinates></Point>
        <styleUrl>#icon-22</styleUrl>
      </Placemark>
      <Placemark>
        <name><![CDATA[Telia Stockholm, Fältöversten]]></name>
        <description><![CDATA[Telia Stockholm, Fältöversten, Stockholm, Sverige]]></description>
        <Point><coordinates>18.091437,59.338938,0</coordinates></Point>
        <styleUrl>#icon-22</styleUrl>
      </Placemark>
      <Placemark>
        <name><![CDATA[Telia Farsta, Farsta Centrum]]></name>
        <description><![CDATA[Telia Farsta, Farsta Centrum, Farsta, Sverige]]></description>
        <Point><coordinates>18.091563,59.242937,0</coordinates></Point>
        <styleUrl>#icon-22</styleUrl>
      </Placemark>
      <Placemark>
        <name><![CDATA[Telia Haninge, Haninge Centrum]]></name>
        <description><![CDATA[Telia Haninge, Haninge Centrum, Handen, Sverige]]></description>
        <Point><coordinates>18.140313,59.170187,0</coordinates></Point>
        <styleUrl>#icon-22</styleUrl>
      </Placemark>
      <Placemark>
        <name><![CDATA[Telia Nacka, Nacka Centrum]]></name>
        <description><![CDATA[Telia Nacka, Nacka Centrum, Nacka, Sverige]]></description>
        <Point><coordinates>18.165188,59.309062,0</coordinates></Point>
        <styleUrl>#icon-22</styleUrl>
      </Placemark>
      <Placemark>
        <name><![CDATA[Telia Visby, Österväg 6]]></name>
        <description><![CDATA[Telia Visby, Österväg 6, Visby, Sverige]]></description>
        <Point><coordinates>18.299937,57.637687,0</coordinates></Point>
        <styleUrl>#icon-22</styleUrl>
      </Placemark>
      <Placemark>
        <name><![CDATA[Telia Örnsköldsvik, Storgatan]]></name>
        <description><![CDATA[Telia Örnsköldsvik, Storgatan, Örnsköldsvik, Sverige]]></description>
        <Point><coordinates>18.715688,63.290437,0</coordinates></Point>
        <styleUrl>#icon-22</styleUrl>
      </Placemark>
      <Placemark>
        <name><![CDATA[Telia Umeå, Avion Shopping]]></name>
        <description><![CDATA[Telia Umeå, Avion Shopping, Umeå, Sverige]]></description>
        <Point><coordinates>20.253937,63.806687,0</coordinates></Point>
        <styleUrl>#icon-22</styleUrl>
      </Placemark>
      <Placemark>
        <name><![CDATA[Telia Umeå, Kungsgatan]]></name>
        <description><![CDATA[Telia Umeå, Kungsgatan, Umeå, Sverige]]></description>
        <Point><coordinates>20.266188,63.825063,0</coordinates></Point>
        <styleUrl>#icon-22</styleUrl>
      </Placemark>
      <Placemark>
        <name><![CDATA[Telia Skellefteå, Nygatan]]></name>
        <description><![CDATA[Telia Skellefteå, Nygatan, Skellefteå, Sverige]]></description>
        <Point><coordinates>20.954313,64.750812,0</coordinates></Point>
        <styleUrl>#icon-22</styleUrl>
      </Placemark>
      <Placemark>
        <name><![CDATA[Telia Luleå, Smedjan]]></name>
        <description><![CDATA[Telia Luleå, Smedjan, Luleå, Sverige]]></description>
        <Point><coordinates>22.153188,65.583938,0</coordinates></Point>
        <styleUrl>#icon-22</styleUrl>
      </Placemark>
    </Folder>
  </Document>
</kml>