<?xml version="1.0" encoding="UTF-8"?>
<kml xmlns="http://www.opengis.net/kml/2.2">
  <Document>
    <name>Volt Fashion</name>
    <description/>
    <Style id="icon-22-normal">
      <IconStyle>
        <scale>1.1</scale>
        <Icon>
          <href>https://www.gstatic.com/mapspro/images/stock/22-blue-dot.png</href>
        </Icon>
        <hotSpot x="16" xunits="pixels" y="32" yunits="insetPixels"/>
      </IconStyle>
      <LabelStyle>
        <scale>0</scale>
      </LabelStyle>
    </Style>
    <Style id="icon-22-highlight">
      <IconStyle>
        <scale>1.1</scale>
        <Icon>
          <href>https://www.gstatic.com/mapspro/images/stock/22-blue-dot.png</href>
        </Icon>
        <hotSpot x="16" xunits="pixels" y="32" yunits="insetPixels"/>
      </IconStyle>
      <LabelStyle>
        <scale>1.1</scale>
      </LabelStyle>
    </Style>
    <StyleMap id="icon-22">
      <Pair>
        <key>normal</key>
        <styleUrl>#icon-22-normal</styleUrl>
      </Pair>
      <Pair>
        <key>highlight</key>
        <styleUrl>#icon-22-highlight</styleUrl>
      </Pair>
    </StyleMap>
    <Folder>
      <name><![CDATA[Volt Fashion]]></name>
      <Placemark>
        <name><![CDATA[Volt Fashion Uddevalla, Torp Köpcentrum]]></name>
        <description>Volt Fashion Uddevalla, Torp Köpcentrum, Uddevalla</description>
        <styleUrl>#icon-22</styleUrl>
        <Point><coordinates>11.811269,58.353431,0</coordinates></Point>
      </Placemark>
      <Placemark>
        <name><![CDATA[Volt Fashion Västra Frölunda, Frølundatorg]]></name>
        <description>Volt Fashion Västra Frölunda, Frølundatorg, Västra Frölunda, Göteborg</description>
        <styleUrl>#icon-22</styleUrl>
        <Point><coordinates>11.909804,57.652057,0</coordinates></Point>
      </Placemark>
      <Placemark>
        <name><![CDATA[Volt Fashion Nordstan Göteborg, Nordstan]]></name>
        <description>Volt Fashion Nordstan Göteborg, Nordstan, Göteborg</description>
        <styleUrl>#icon-22</styleUrl>
        <Point><coordinates>11.96718,57.70769,0</coordinates></Point>
      </Placemark>
      <Placemark>
        <name><![CDATA[Volt Fashion Kompassen]]></name>
        <description>Volt Fashion Kompassen, Göteborg</description>
        <styleUrl>#icon-22</styleUrl>
        <Point><coordinates>11.970713,57.705163,0</coordinates></Point>
      </Placemark>
      <Placemark>
        <name><![CDATA[Volt Fashion Kungsmässan, Kungsmassan]]></name>
        <description>Volt Fashion Kungsmässan, Kungsmassan, Kungsbacka, göteborg</description>
        <styleUrl>#icon-22</styleUrl>
        <Point><coordinates>12.072353,57.492632,0</coordinates></Point>
      </Placemark>
      <Placemark>
        <name><![CDATA[Volt Fashion Partille, Allum kjøpsentrum]]></name>
        <description>Volt Fashion Partille, Allum kjøpsentrum, Partille, Gøteborg</description>
        <styleUrl>#icon-22</styleUrl>
        <Point><coordinates>12.104047,57.737283,0</coordinates></Point>
      </Placemark>
      <Placemark>
        <name><![CDATA[Volt Fashion Trollhättan, overbykopcenter]]></name>
        <description>Volt Fashion Trollhättan, overbykopcenter, Trollhättan</description>
        <styleUrl>#icon-22</styleUrl>
        <Point><coordinates>12.304384,58.31201,0</coordinates></Point>
      </Placemark>
      <Placemark>
        <name><![CDATA[Volt Fashion Väla, Våla Centrum]]></name>
        <description>Volt Fashion Väla, Våla Centrum, Ödåkra</description>
        <styleUrl>#icon-22</styleUrl>
        <Point><coordinates>12.754627,56.092059,0</coordinates></Point>
      </Placemark>
      <Placemark>
        <name><![CDATA[Volt Fashion Halmstad]]></name>
        <description>Volt Fashion Halmstad, Halmstad</description>
        <styleUrl>#icon-22</styleUrl>
        <Point><coordinates>12.909316,56.655393,0</coordinates></Point>
      </Placemark>
      <Placemark>
        <name><![CDATA[Volt Fashion Emporia, Emporia]]></name>
        <description>Volt Fashion Emporia, Emporia, Malmö</description>
        <styleUrl>#icon-22</styleUrl>
        <Point><coordinates>12.972427,55.563618,0</coordinates></Point>
      </Placemark>
      <Placemark>
        <name><![CDATA[Volt Fashion Triangeln Malmö, Triangelen]]></name>
        <description>Volt Fashion Triangeln Malmö, Triangelen, Malmö</description>
        <styleUrl>#icon-22</styleUrl>
        <Point><coordinates>13.000275,55.595812,0</coordinates></Point>
      </Placemark>
      <Placemark>
        <name><![CDATA[Volt Fashion Hansa, Hansa Shopping]]></name>
        <description>Volt Fashion Hansa, Hansa Shopping, Malmö</description>
        <styleUrl>#icon-22</styleUrl>
        <Point><coordinates>13.003423,55.603437,0</coordinates></Point>
      </Placemark>
      <Placemark>
        <name><![CDATA[Volt Fashion Nova Lund]]></name>
        <description>Volt Fashion Nova Lund, Lund</description>
        <styleUrl>#icon-22</styleUrl>
        <Point><coordinates>13.159733,55.714079,0</coordinates></Point>
      </Placemark>
      <Placemark>
        <name><![CDATA[Volt Fashion Bergvik, Bergvik]]></name>
        <description>Volt Fashion Bergvik, Bergvik, Karlstad</description>
        <styleUrl>#icon-22</styleUrl>
        <Point><coordinates>13.422662,59.377487,0</coordinates></Point>
      </Placemark>
      <Placemark>
        <name><![CDATA[Volt Fashion Karlstad, MittiCity]]></name>
        <description>Volt Fashion Karlstad, MittiCity, Karlstad</description>
        <styleUrl>#icon-22</styleUrl>
        <Point><coordinates>13.497382,59.380115,0</coordinates></Point>
      </Placemark>
      <Placemark>
        <name><![CDATA[Volt Fashion Skövde, Commerce]]></name>
        <description>Volt Fashion Skövde, Commerce, Skövde</description>
        <styleUrl>#icon-22</styleUrl>
        <Point><coordinates>13.842811,58.389999,0</coordinates></Point>
      </Placemark>
      <Placemark>
        <name><![CDATA[Volt Fashion C4 Kristianstad, C4 Shopping]]></name>
        <description>Volt Fashion C4 Kristianstad, C4 Shopping, Kristianstad</description>
        <styleUrl>#icon-22</styleUrl>
        <Point><coordinates>14.19256,56.02355,0</coordinates></Point>
      </Placemark>
      <Placemark>
        <name><![CDATA[Volt Fashion Jönköping, Asecs]]></name>
        <description>Volt Fashion Jönköping, Asecs, Jönköping</description>
        <styleUrl>#icon-22</styleUrl>
        <Point><coordinates>14.203624,57.773766,0</coordinates></Point>
      </Placemark>
      <Placemark>
        <name><![CDATA[Volt Fashion Östersund]]></name>
        <description>Volt Fashion Östersund, Östersund</description>
        <styleUrl>#icon-22</styleUrl>
        <Point><coordinates>14.63737,63.176891,0</coordinates></Point>
      </Placemark>
      <Placemark>
        <name><![CDATA[Volt Fashion Växjö, Grand samarkand]]></name>
        <description>Volt Fashion Växjö, Grand samarkand, Växjö</description>
        <styleUrl>#icon-22</styleUrl>
        <Point><coordinates>14.762984,56.884831,0</coordinates></Point>
      </Placemark>
      <Placemark>
        <name><![CDATA[Volt Fashion Marieberg, Marie Berg Galleria]]></name>
        <description>Volt Fashion Marieberg, Marie Berg Galleria, Örebro</description>
        <styleUrl>#icon-22</styleUrl>
        <Point><coordinates>15.135677,59.216475,0</coordinates></Point>
      </Placemark>
      <Placemark>
        <name><![CDATA[Volt Fashion Örebro city, City Orebro]]></name>
        <description>Volt Fashion Örebro city, City Orebro, Örebro</description>
        <styleUrl>#icon-22</styleUrl>
        <Point><coordinates>15.209373,59.27017,0</coordinates></Point>
      </Placemark>
      <Placemark>
        <name><![CDATA[Volt Fashion Ikano Linköping, Ikano huset]]></name>
        <description>Volt Fashion Ikano Linköping, Ikano huset, Linköping</description>
        <styleUrl>#icon-22</styleUrl>
        <Point><coordinates>15.584279,58.43247,0</coordinates></Point>
      </Placemark>
      <Placemark>
        <name><![CDATA[Volt Fashion Linköping]]></name>
        <description>Volt Fashion Linköping, Linköping</description>
        <styleUrl>#icon-22</styleUrl>
        <Point><coordinates>15.624399,58.410061,0</coordinates></Point>
      </Placemark>
      <Placemark>
        <name><![CDATA[Volt Fashion Ingelsta, Ingelsta Shopping]]></name>
        <description>Volt Fashion Ingelsta, Ingelsta Shopping, Norrköping</description>
        <styleUrl>#icon-22</styleUrl>
        <Point><coordinates>16.152225,58.618452,0</coordinates></Point>
      </Placemark>
      <Placemark>
        <name><![CDATA[Volt Fashion Norrköping Linden]]></name>
        <description>Volt Fashion Norrköping Linden, Norrköping</description>
        <styleUrl>#icon-22</styleUrl>
        <Point><coordinates>16.189196,58.586688,0</coordinates></Point>
      </Placemark>
      <Placemark>
        <name><![CDATA[Volt Fashion Kalmar, Hansa City]]></name>
        <description>Volt Fashion Kalmar, Hansa City, Kalmar</description>
        <styleUrl>#icon-22</styleUrl>
        <Point><coordinates>16.317619,56.686987,0</coordinates></Point>
      </Placemark>
      <Placemark>
        <name><![CDATA[Volt Fashion Erikslund, Eriksund shoppingcenter]]></name>
        <description>Volt Fashion Erikslund, Eriksund shoppingcenter, Västerås</description>
        <styleUrl>#icon-22</styleUrl>
        <Point><coordinates>16.452467,59.610038,0</coordinates></Point>
      </Placemark>
      <Placemark>
        <name><![CDATA[Volt Fashion Västerås, Kvarteret Igor]]></name>
        <description>Volt Fashion Västerås, Kvarteret Igor, Västerås</description>
        <styleUrl>#icon-22</styleUrl>
        <Point><coordinates>16.542363,59.61182,0</coordinates></Point>
      </Placemark>
      <Placemark>
        <name><![CDATA[Volt Fashion Valbo, Valbo Køpcentrum]]></name>
        <description>Volt Fashion Valbo, Valbo Køpcentrum, Valbo</description>
        <styleUrl>#icon-22</styleUrl>
        <Point><coordinates>16.992341,60.633604,0</coordinates></Point>
      </Placemark>
      <Placemark>
        <name><![CDATA[Volt Fashion Sundsvall, Birsta City]]></name>
        <description>Volt Fashion Sundsvall, Birsta City, Sundsvall</description>
        <styleUrl>#icon-22</styleUrl>
        <Point><coordinates>17.333673,62.447131,0</coordinates></Point>
      </Placemark>
      <Placemark>
        <name><![CDATA[Volt Fashion Uppsala Forum Gallerian, Forum Gallerian]]></name>
        <description>Volt Fashion Uppsala Forum Gallerian, Forum Gallerian, Uppsala</description>
        <styleUrl>#icon-22</styleUrl>
        <Point><coordinates>17.638038,59.857978,0</coordinates></Point>
      </Placemark>
      <Placemark>
        <name><![CDATA[Volt Fashion Gränby, Granbystaden]]></name>
        <description>Volt Fashion Gränby, Granbystaden, Uppsala</description>
        <styleUrl>#icon-22</styleUrl>
        <Point><coordinates>17.67047,59.877022,0</coordinates></Point>
      </Placemark>
      <Placemark>
        <name><![CDATA[Volt Fashion Mall Of Scandinavia, Mall of Scandinavia]]></name>
        <description>Volt Fashion Mall Of Scandinavia, Mall of Scandinavia, Solna</description>
        <styleUrl>#icon-22</styleUrl>
        <Point><coordinates>18.00666,59.3693,0</coordinates></Point>
      </Placemark>
      <Placemark>
        <name><![CDATA[Volt Fashion Stockholm Gallerian, Gallerian]]></name>
        <description>Volt Fashion Stockholm Gallerian, Gallerian, Stockholm</description>
        <styleUrl>#icon-22</styleUrl>
        <Point><coordinates>18.068176,59.330804,0</coordinates></Point>
      </Placemark>
      <Placemark>
        <name><![CDATA[Volt Fashion PK Huset, PK Huset]]></name>
        <description>Volt Fashion PK Huset, PK Huset, Stockholm</description>
        <styleUrl>#icon-22</styleUrl>
        <Point><coordinates>18.071134,59.333005,0</coordinates></Point>
      </Placemark>
      <Placemark>
        <name><![CDATA[Volt Fashion Täby, Tåby Centrum]]></name>
        <description>Volt Fashion Täby, Tåby Centrum, Täby</description>
        <styleUrl>#icon-22</styleUrl>
        <Point><coordinates>18.071486,59.446576,0</coordinates></Point>
      </Placemark>
      <Placemark>
        <name><![CDATA[Volt Fashion Nacka, Nacka Forum]]></name>
        <description>Volt Fashion Nacka, Nacka Forum, Nacka</description>
        <styleUrl>#icon-22</styleUrl>
        <Point><coordinates>18.64917,59.310519,0</coordinates></Point>
      </Placemark>
      <Placemark>
        <name><![CDATA[Volt Fashion Avion shopping]]></name>
        <description>Volt Fashion Avion shopping, Umeå</description>
        <styleUrl>#icon-22</styleUrl>
        <Point><coordinates>19.829652,63.917338,0</coordinates></Point>
      </Placemark>
      <Placemark>
        <name><![CDATA[Volt Fashion Utopia, Utopiashopping]]></name>
        <description>Volt Fashion Utopia, Utopiashopping, Umeå</description>
        <styleUrl>#icon-22</styleUrl>
        <Point><coordinates>20.261693,63.826089,0</coordinates></Point>
      </Placemark>
      <Placemark>
        <name><![CDATA[Volt Fashion Smedjan, Smedjangalleria]]></name>
        <description>Volt Fashion Smedjan, Smedjangalleria, Luleå</description>
        <styleUrl>#icon-22</styleUrl>
        <Point><coordinates>22.150505,65.584122,0</coordinates></Point>
      </Placemark>
    </Folder>
  </Document>
</kml>