<?xml version="1.0" encoding="UTF-8"?>
<kml xmlns="http://www.opengis.net/kml/2.2">
  <Document>
    <name><![CDATA[Volt Fashion]]></name>
    <description/>
    <Style id="icon-22-normal"><IconStyle><scale>1.1</scale><Icon><href>https://www.gstatic.com/mapspro/images/stock/22-blue-dot.png</href></Icon><hotSpot x="16" xunits="pixels" y="32" yunits="insetPixels"/></IconStyle><LabelStyle><scale>0</scale></LabelStyle></Style>
    <Style id="icon-22-highlight"><IconStyle><scale>1.1</scale><Icon><href>https://www.gstatic.com/mapspro/images/stock/22-blue-dot.png</href></Icon><hotSpot x="16" xunits="pixels" y="32" yunits="insetPixels"/></IconStyle><LabelStyle><scale>1.1</scale></LabelStyle></Style>
    <StyleMap id="icon-22"><Pair><key>normal</key><styleUrl>#icon-22-normal</styleUrl></Pair><Pair><key>highlight</key><styleUrl>#icon-22-highlight</styleUrl></Pair></StyleMap>
    <Folder>
      <name><![CDATA[Volt Fashion]]></name>
      <Placemark>
        <name><![CDATA[Volt Fashion Uddevalla, Torp Köpcentrum]]></name>
        <description><![CDATA[Volt Fashion Uddevalla, Torp Köpcentrum, Uddevalla]]></description>
        <Point><coordinates>11.811269,58.353431,0</coordinates></Point>
        <styleUrl>#icon-22</styleUrl>
      </Placemark>
      <Placemark>
        <name><![CDATA[Volt Fashion Västra Frölunda, Frølundatorg]]></name>
        <description><![CDATA[Volt Fashion Västra Frölunda, Frølundatorg, Västra Frölunda, Göteborg]]></description>
        <Point><coordinates>11.909804,57.652057,0</coordinates></Point>
        <styleUrl>#icon-22</styleUrl>
      </Placemark>
      <Placemark>
        <name><![CDATA[Volt Fashion Nordstan Göteborg, Nordstan]]></name>
        <description><![CDATA[Volt Fashion Nordstan Göteborg, Nordstan, Göteborg]]></description>
        <Point><coordinates>11.96718,57.70769,0</coordinates></Point>
        <styleUrl>#icon-22</styleUrl>
      </Placemark>
      <Placemark>
        <name><![CDATA[Volt Fashion Kompassen]]></name>
        <description><![CDATA[Volt Fashion Kompassen, Göteborg]]></description>
        <Point><coordinates>11.970713,57.705163,0</coordinates></Point>
        <styleUrl>#icon-22</styleUrl>
      </Placemark>
      <Placemark>
        <name><![CDATA[Volt Fashion Kungsmässan, Kungsmassan]]></name>
        <description><![CDATA[Volt Fashion Kungsmässan, Kungsmassan, Kungsbacka, göteborg]]></description>
        <Point><coordinates>12.072353,57.492632,0</coordinates></Point>
        <styleUrl>#icon-22</styleUrl>
      </Placemark>
      <Placemark>
        <name><![CDATA[Volt Fashion Partille, Allum kjøpsentrum]]></name>
        <description><![CDATA[Volt Fashion Partille, Allum kjøpsentrum, Partille, Gøteborg]]></description>
        <Point><coordinates>12.104047,57.737283,0</coordinates></Point>
        <styleUrl>#icon-22</styleUrl>
      </Placemark>
      <Placemark>
        <name><![CDATA[Volt Fashion Trollhättan, overbykopcenter]]></name>
        <description><![CDATA[Volt Fashion Trollhättan, overbykopcenter, Trollhättan]]></description>
        <Point><coordinates>12.304384,58.31201,0</coordinates></Point>
        <styleUrl>#icon-22</styleUrl>
      </Placemark>
      <Placemark>
        <name><![CDATA[Volt Fashion Väla, Våla Centrum]]></name>
        <description><![CDATA[Volt Fashion Väla, Våla Centrum, Ödåkra]]></description>
        <Point><coordinates>12.754627,56.092059,0</coordinates></Point>
        <styleUrl>#icon-22</styleUrl>
      </Placemark>
      <Placemark>
        <name><![CDATA[Volt Fashion Halmstad]]></name>
        <description><![CDATA[Volt Fashion Halmstad, Halmstad]]></description>
        <Point><coordinates>12.909316,56.655393,0</coordinates></Point>
        <styleUrl>#icon-22</styleUrl>
      </Placemark>
      <Placemark>
        <name><![CDATA[Volt Fashion Emporia, Emporia]]></name>
        <description><![CDATA[Volt Fashion Emporia, Emporia, Malmö]]></description>
        <Point><coordinates>12.972427,55.563618,0</coordinates></Point>
        <styleUrl>#icon-22</styleUrl>
      </Placemark>
      <Placemark>
        <name><![CDATA[Volt Fashion Triangeln Malmö, Triangelen]]></name>
        <description><![CDATA[Volt Fashion Triangeln Malmö, Triangelen, Malmö]]></description>
        <Point><coordinates>13.000275,55.595812,0</coordinates></Point>
        <styleUrl>#icon-22</styleUrl>
      </Placemark>
      <Placemark>
        <name><![CDATA[Volt Fashion Hansa, Hansa Shopping]]></name>
        <description><![CDATA[Volt Fashion Hansa, Hansa Shopping, Malmö]]></description>
        <Point><coordinates>13.003423,55.603437,0</coordinates></Point>
        <styleUrl>#icon-22</styleUrl>
      </Placemark>
      <Placemark>
        <name><![CDATA[Volt Fashion Nova Lund]]></name>
        <description><![CDATA[Volt Fashion Nova Lund, Lund]]></description>
        <Point><coordinates>13.159733,55.714079,0</coordinates></Point>
        <styleUrl>#icon-22</styleUrl>
      </Placemark>
      <Placemark>
        <name><![CDATA[Volt Fashion Bergvik, Bergvik]]></name>
        <description><![CDATA[Volt Fashion Bergvik, Bergvik, Karlstad]]></description>
        <Point><coordinates>13.422662,59.377487,0</coordinates></Point>
        <styleUrl>#icon-22</styleUrl>
      </Placemark>
      <Placemark>
        <name><![CDATA[Volt Fashion Karlstad, MittiCity]]></name>
        <description><![CDATA[Volt Fashion Karlstad, MittiCity, Karlstad]]></description>
        <Point><coordinates>13.497382,59.380115,0</coordinates></Point>
        <styleUrl>#icon-22</styleUrl>
      </Placemark>
      <Placemark>
        <name><![CDATA[Volt Fashion Skövde, Commerce]]></name>
        <description><![CDATA[Volt Fashion Skövde, Commerce, Skövde]]></description>
        <Point><coordinates>13.842811,58.389999,0</coordinates></Point>
        <styleUrl>#icon-22</styleUrl>
      </Placemark>
      <Placemark>
        <name><![CDATA[Volt Fashion C4 Kristianstad, C4 Shopping]]></name>
        <description><![CDATA[Volt Fashion C4 Kristianstad, C4 Shopping, Kristianstad]]></description>
        <Point><coordinates>14.19256,56.02355,0</coordinates></Point>
        <styleUrl>#icon-22</styleUrl>
      </Placemark>
      <Placemark>
        <name><![CDATA[Volt Fashion Jönköping, Asecs]]></name>
        <description><![CDATA[Volt Fashion Jönköping, Asecs, Jönköping]]></description>
        <Point><coordinates>14.203624,57.773766,0</coordinates></Point>
        <styleUrl>#icon-22</styleUrl>
      </Placemark>
      <Placemark>
        <name><![CDATA[Volt Fashion Östersund]]></name>
        <description><![CDATA[Volt Fashion Östersund, Östersund]]></description>
        <Point><coordinates>14.63737,63.176891,0</coordinates></Point>
        <styleUrl>#icon-22</styleUrl>
      </Placemark>
      <Placemark>
        <name><![CDATA[Volt Fashion Växjö, Grand samarkand]]></name>
        <description><![CDATA[Volt Fashion Växjö, Grand samarkand, Växjö]]></description>
        <Point><coordinates>14.762984,56.884831,0</coordinates></Point>
        <styleUrl>#icon-22</styleUrl>
      </Placemark>
      <Placemark>
        <name><![CDATA[Volt Fashion Marieberg, Marie Berg Galleria]]></name>
        <description><![CDATA[Volt Fashion Marieberg, Marie Berg Galleria, Örebro]]></description>
        <Point><coordinates>15.135677,59.216475,0</coordinates></Point>
        <styleUrl>#icon-22</styleUrl>
      </Placemark>
      <Placemark>
        <name><![CDATA[Volt Fashion Örebro city, City Orebro]]></name>
        <description><![CDATA[Volt Fashion Örebro city, City Orebro, Örebro]]></description>
        <Point><coordinates>15.209373,59.27017,0</coordinates></Point>
        <styleUrl>#icon-22</styleUrl>
      </Placemark>
      <Placemark>
        <name><![CDATA[Volt Fashion Ikano Linköping, Ikano huset]]></name>
        <description><![CDATA[Volt Fashion Ikano Linköping, Ikano huset, Linköping]]></description>
        <Point><coordinates>15.584279,58.43247,0</coordinates></Point>
        <styleUrl>#icon-22</styleUrl>
      </Placemark>
      <Placemark>
        <name><![CDATA[Volt Fashion Linköping]]></name>
        <description><![CDATA[Volt Fashion Linköping, Linköping]]></description>
        <Point><coordinates>15.624399,58.410061,0</coordinates></Point>
        <styleUrl>#icon-22</styleUrl>
      </Placemark>
      <Placemark>
        <name><![CDATA[Volt Fashion Ingelsta, Ingelsta Shopping]]></name>
        <description><![CDATA[Volt Fashion Ingelsta, Ingelsta Shopping, Norrköping]]></description>
        <Point><coordinates>16.152225,58.618452,0</coordinates></Point>
        <styleUrl>#icon-22</styleUrl>
      </Placemark>
      <Placemark>
        <name><![CDATA[Volt Fashion Norrköping Linden]]></name>
        <description><![CDATA[Volt Fashion Norrköping Linden, Norrköping]]></description>
        <Point><coordinates>16.189196,58.586688,0</coordinates></Point>
        <styleUrl>#icon-22</styleUrl>
      </Placemark>
      <Placemark>
        <name><![CDATA[Volt Fashion Kalmar, Hansa City]]></name>
        <description><![CDATA[Volt Fashion Kalmar, Hansa City, Kalmar]]></description>
        <Point><coordinates>16.317619,56.686987,0</coordinates></Point>
        <styleUrl>#icon-22</styleUrl>
      </Placemark>
      <Placemark>
        <name><![CDATA[Volt Fashion Erikslund, Eriksund shoppingcenter]]></name>
        <description><![CDATA[Volt Fashion Erikslund, Eriksund shoppingcenter, Västerås]]></description>
        <Point><coordinates>16.452467,59.610038,0</coordinates></Point>
        <styleUrl>#icon-22</styleUrl>
      </Placemark>
      <Placemark>
        <name><![CDATA[Volt Fashion Västerås, Kvarteret Igor]]></name>
        <description><![CDATA[Volt Fashion Västerås, Kvarteret Igor, Västerås]]></description>
        <Point><coordinates>16.542363,59.61182,0</coordinates></Point>
        <styleUrl>#icon-22</styleUrl>
      </Placemark>
      <Placemark>
        <name><![CDATA[Volt Fashion Valbo, Valbo Køpcentrum]]></name>
        <description><![CDATA[Volt Fashion Valbo, Valbo Køpcentrum, Valbo]]></description>
        <Point><coordinates>16.992341,60.633604,0</coordinates></Point>
        <styleUrl>#icon-22</styleUrl>
      </Placemark>
      <Placemark>
        <name><![CDATA[Volt Fashion Sundsvall, Birsta City]]></name>
        <description><![CDATA[Volt Fashion Sundsvall, Birsta City, Sundsvall]]></description>
        <Point><coordinates>17.333673,62.447131,0</coordinates></Point>
        <styleUrl>#icon-22</styleUrl>
      </Placemark>
      <Placemark>
        <name><![CDATA[Volt Fashion Uppsala Forum Gallerian, Forum Gallerian]]></name>
        <description><![CDATA[Volt Fashion Uppsala Forum Gallerian, Forum Gallerian, Uppsala]]></description>
        <Point><coordinates>17.638038,59.857978,0</coordinates></Point>
        <styleUrl>#icon-22</styleUrl>
      </Placemark>
      <Placemark>
        <name><![CDATA[Volt Fashion Gränby, Granbystaden]]></name>
        <description><![CDATA[Volt Fashion Gränby, Granbystaden, Uppsala]]></description>
        <Point><coordinates>17.67047,59.877022,0</coordinates></Point>
        <styleUrl>#icon-22</styleUrl>
      </Placemark>
      <Placemark>
        <name><![CDATA[Volt Fashion Mall Of Scandinavia, Mall of Scandinavia]]></name>
        <description><![CDATA[Volt Fashion Mall Of Scandinavia, Mall of Scandinavia, Solna]]></description>
        <Point><coordinates>18.00666,59.3693,0</coordinates></Point>
        <styleUrl>#icon-22</styleUrl>
      </Placemark>
      <Placemark>
        <name><![CDATA[Volt Fashion Stockholm Gallerian, Gallerian]]></name>
        <description><![CDATA[Volt Fashion Stockholm Gallerian, Gallerian, Stockholm]]></description>
        <Point><coordinates>18.068176,59.330804,0</coordinates></Point>
        <styleUrl>#icon-22</styleUrl>
      </Placemark>
      <Placemark>
        <name><![CDATA[Volt Fashion PK Huset, PK Huset]]></name>
        <description><![CDATA[Volt Fashion PK Huset, PK Huset, Stockholm]]></description>
        <Point><coordinates>18.071134,59.333005,0</coordinates></Point>
        <styleUrl>#icon-22</styleUrl>
      </Placemark>
      <Placemark>
        <name><![CDATA[Volt Fashion Täby, Tåby Centrum]]></name>
        <description><![CDATA[Volt Fashion Täby, Tåby Centrum, Täby]]></description>
        <Point><coordinates>18.071486,59.446576,0</coordinates></Point>
        <styleUrl>#icon-22</styleUrl>
      </Placemark>
      <Placemark>
        <name><![CDATA[Volt Fashion Nacka, Nacka Forum]]></name>
        <description><![CDATA[Volt Fashion Nacka, Nacka Forum, Nacka]]></description>
        <Point><coordinates>18.64917,59.310519,0</coordinates></Point>
        <styleUrl>#icon-22</styleUrl>
      </Placemark>
      <Placemark>
        <name><![CDATA[Volt Fashion Avion shopping]]></name>
        <description><![CDATA[Volt Fashion Avion shopping, Umeå]]></description>
        <Point><coordinates>19.829652,63.917338,0</coordinates></Point>
        <styleUrl>#icon-22</styleUrl>
      </Placemark>
      <Placemark>
        <name><![CDATA[Volt Fashion Utopia, Utopiashopping]]></name>
        <description><![CDATA[Volt Fashion Utopia, Utopiashopping, Umeå]]></description>
        <Point><coordinates>20.261693,63.826089,0</coordinates></Point>
        <styleUrl>#icon-22</styleUrl>
      </Placemark>
      <Placemark>
        <name><![CDATA[Volt Fashion Smedjan, Smedjangalleria]]></name>
        <description><![CDATA[Volt Fashion Smedjan, Smedjangalleria, Luleå]]></description>
        <Point><coordinates>22.150505,65.584122,0</coordinates></Point>
        <styleUrl>#icon-22</styleUrl>
      </Placemark>
    </Folder>
  </Document>
</kml>