<?xml version="1.0" encoding="UTF-8"?>
<kml xmlns="http://www.opengis.net/kml/2.2">
  <Document>
    <name>Willys</name>
    <description/>
    <Style id="icon-22-normal">
      <IconStyle>
        <scale>1.1</scale>
        <Icon>
          <href>https://www.gstatic.com/mapspro/images/stock/22-blue-dot.png</href>
        </Icon>
        <hotSpot x="16" xunits="pixels" y="32" yunits="insetPixels"/>
      </IconStyle>
      <LabelStyle>
        <scale>0</scale>
      </LabelStyle>
    </Style>
    <Style id="icon-22-highlight">
      <IconStyle>
        <scale>1.1</scale>
        <Icon>
          <href>https://www.gstatic.com/mapspro/images/stock/22-blue-dot.png</href>
        </Icon>
        <hotSpot x="16" xunits="pixels" y="32" yunits="insetPixels"/>
      </IconStyle>
      <LabelStyle>
        <scale>1.1</scale>
      </LabelStyle>
    </Style>
    <StyleMap id="icon-22">
      <Pair>
        <key>normal</key>
        <styleUrl>#icon-22-normal</styleUrl>
      </Pair>
      <Pair>
        <key>highlight</key>
        <styleUrl>#icon-22-highlight</styleUrl>
      </Pair>
    </StyleMap>
    <Folder>
      <name>Willys</name>
      <Placemark>
        <name>Willys Strömstad Shoppingcenter</name>
        <description>Willys Strömstad Shoppingcenter, Strömstad</description>
        <styleUrl>#icon-22</styleUrl>
        <Point>
          <coordinates>
            11.1895,58.9466,0
          </coordinates>
        </Point>
      </Placemark>
      <Placemark>
        <name>Willys Hemma Henån</name>
        <description>Willys Hemma Henån, Henån</description>
        <styleUrl>#icon-22</styleUrl>
        <Point>
          <coordinates>
            11.6808,58.2357,0
          </coordinates>
        </Point>
      </Placemark>
      <Placemark>
        <name>Willys Hemma Göteborg Torslanda</name>
        <description>Willys Hemma Göteborg Torslanda, Torslanda</description>
        <styleUrl>#icon-22</styleUrl>
        <Point>
          <coordinates>
            11.7701,57.7308,0
          </coordinates>
        </Point>
      </Placemark>
      <Placemark>
        <name>Willys Torslanda</name>
        <description>Willys Torslanda, Torslanda</description>
        <styleUrl>#icon-22</styleUrl>
        <Point>
          <coordinates>
            11.7785,57.7089,0
          </coordinates>
        </Point>
      </Placemark>
      <Placemark>
        <name>Willys Stenungsund Strandvägen</name>
        <description>Willys Stenungsund Strandvägen, Stenungsund</description>
        <styleUrl>#icon-22</styleUrl>
        <Point>
          <coordinates>
            11.8212,58.0746,0
          </coordinates>
        </Point>
      </Placemark>
      <Placemark>
        <name>Willys Hemma Göteborg Påvelund</name>
        <description>Willys Hemma Göteborg Påvelund, Västra Frölunda</description>
        <styleUrl>#icon-22</styleUrl>
        <Point>
          <coordinates>
            11.8745,57.6647,0
          </coordinates>
        </Point>
      </Placemark>
      <Placemark>
        <name>Willys Hemma Göteborg Friskväderstorget</name>
        <description>Willys Hemma Göteborg Friskväderstorget, Göteborg</description>
        <styleUrl>#icon-22</styleUrl>
        <Point>
          <coordinates>
            11.892,57.7239,0
          </coordinates>
        </Point>
      </Placemark>
      <Placemark>
        <name>Willys Hemma Göteborg Vårväderstorget</name>
        <description>Willys Hemma Göteborg Vårväderstorget, Göteborg</description>
        <styleUrl>#icon-22</styleUrl>
        <Point>
          <coordinates>
            11.8923,57.7124,0
          </coordinates>
        </Point>
      </Placemark>
      <Placemark>
        <name>Willys Hemma Göteborg Kaverös</name>
        <description>Willys Hemma Göteborg Kaverös, Västra Frölunda</description>
        <styleUrl>#icon-22</styleUrl>
        <Point>
          <coordinates>
            11.9206,57.6651,0
          </coordinates>
        </Point>
      </Placemark>
      <Placemark>
        <name>Willys Hemma Göteborg Tuve</name>
        <description>Willys Hemma Göteborg Tuve, Göteborg</description>
        <styleUrl>#icon-22</styleUrl>
        <Point>
          <coordinates>
            11.9273,57.7546,0
          </coordinates>
        </Point>
      </Placemark>
      <Placemark>
        <name>Willys Hemma Ed</name>
        <description>Willys Hemma Ed, Ed</description>
        <styleUrl>#icon-22</styleUrl>
        <Point>
          <coordinates>
            11.9318,58.9122,0
          </coordinates>
        </Point>
      </Placemark>
      <Placemark>
        <name>Willys Uddevalla C</name>
        <description>Willys Uddevalla C, Uddevalla</description>
        <styleUrl>#icon-22</styleUrl>
        <Point>
          <coordinates>
            11.9331,58.3506,0
          </coordinates>
        </Point>
      </Placemark>
      <Placemark>
        <name>Willys Hemma Göteborg Majorna</name>
        <description>Willys Hemma Göteborg Majorna, Göteborg</description>
        <styleUrl>#icon-22</styleUrl>
        <Point>
          <coordinates>
            11.9341,57.6962,0
          </coordinates>
        </Point>
      </Placemark>
      <Placemark>
        <name>Willys Göteborg Wieselgrensplatsen</name>
        <description>Willys Göteborg Wieselgrensplatsen, Göteborg</description>
        <styleUrl>#icon-22</styleUrl>
        <Point>
          <coordinates>
            11.9373,57.7216,0
          </coordinates>
        </Point>
      </Placemark>
      <Placemark>
        <name>Willys E-handel Göteborg</name>
        <description>Willys E-handel Göteborg, Västra Frölunda</description>
        <styleUrl>#icon-22</styleUrl>
        <Point>
          <coordinates>
            11.9443,57.6509,0
          </coordinates>
        </Point>
      </Placemark>
      <Placemark>
        <name>Willys Hemma Göteborg Kvilletorget</name>
        <description>Willys Hemma Göteborg Kvilletorget, Göteborg</description>
        <styleUrl>#icon-22</styleUrl>
        <Point>
          <coordinates>
            11.9471,57.7194,0
          </coordinates>
        </Point>
      </Placemark>
      <Placemark>
        <name>Willys Hemma Göteborg Vegastaden</name>
        <description>Willys Hemma Göteborg Vegastaden, Göteborg</description>
        <styleUrl>#icon-22</styleUrl>
        <Point>
          <coordinates>
            11.9473,57.6934,0
          </coordinates>
        </Point>
      </Placemark>
      <Placemark>
        <name>Willys Hemma Göteborg Första Långg</name>
        <description>Willys Hemma Göteborg Första Långg, Göteborg</description>
        <styleUrl>#icon-22</styleUrl>
        <Point>
          <coordinates>
            11.9486,57.6996,0
          </coordinates>
        </Point>
      </Placemark>
      <Placemark>
        <name>Willys Göteborg Sisjön</name>
        <description>Willys Göteborg Sisjön, Askim</description>
        <styleUrl>#icon-22</styleUrl>
        <Point>
          <coordinates>
            11.9522,57.6392,0
          </coordinates>
        </Point>
      </Placemark>
      <Placemark>
        <name>Willys Göteborg Hvitfeldtsplatsen</name>
        <description>Willys Göteborg Hvitfeldtsplatsen, Göteborg</description>
        <styleUrl>#icon-22</styleUrl>
        <Point>
          <coordinates>
            11.9613,57.7016,0
          </coordinates>
        </Point>
      </Placemark>
      <Placemark>
        <name>Willys Kungälv Komarken</name>
        <description>Willys Kungälv Komarken, Kungälv</description>
        <styleUrl>#icon-22</styleUrl>
        <Point>
          <coordinates>
            11.967,57.87,0
          </coordinates>
        </Point>
      </Placemark>
      <Placemark>
        <name>Willys Hemma Göteborg Sten Sturegatan</name>
        <description>Willys Hemma Göteborg Sten Sturegatan, Göteborg</description>
        <styleUrl>#icon-22</styleUrl>
        <Point>
          <coordinates>
            11.9842,57.701,0
          </coordinates>
        </Point>
      </Placemark>
      <Placemark>
        <name>Willys Hemma Göteborg Johanneberg</name>
        <description>Willys Hemma Göteborg Johanneberg, Göteborg</description>
        <styleUrl>#icon-22</styleUrl>
        <Point>
          <coordinates>
            11.9858,57.6874,0
          </coordinates>
        </Point>
      </Placemark>
      <Placemark>
        <name>Willys Hemma Utlandagatan</name>
        <description>Willys Hemma Utlandagatan, Göteborg</description>
        <styleUrl>#icon-22</styleUrl>
        <Point>
          <coordinates>
            11.9899,57.6897,0
          </coordinates>
        </Point>
      </Placemark>
      <Placemark>
        <name>Willys Göteborg Elisedal</name>
        <description>Willys Göteborg Elisedal, Göteborg</description>
        <styleUrl>#icon-22</styleUrl>
        <Point>
          <coordinates>
            12.0002,57.6822,0
          </coordinates>
        </Point>
      </Placemark>
      <Placemark>
        <name>Willys Göteborg Gamlestaden</name>
        <description>Willys Göteborg Gamlestaden, Göteborg</description>
        <styleUrl>#icon-22</styleUrl>
        <Point>
          <coordinates>
            12.0064,57.7319,0
          </coordinates>
        </Point>
      </Placemark>
      <Placemark>
        <name>Willys Hemma Göteborg Björkekärr</name>
        <description>Willys Hemma Göteborg Björkekärr, Göteborg</description>
        <styleUrl>#icon-22</styleUrl>
        <Point>
          <coordinates>
            12.038,57.7149,0
          </coordinates>
        </Point>
      </Placemark>
      <Placemark>
        <name>Willys Hemma Göteborg Lövgärdet</name>
        <description>Willys Hemma Göteborg Lövgärdet, Angered</description>
        <styleUrl>#icon-22</styleUrl>
        <Point>
          <coordinates>
            12.0406,57.8166,0
          </coordinates>
        </Point>
      </Placemark>
      <Placemark>
        <name>Willys Kållered Eken</name>
        <description>Willys Kållered Eken, Kållered</description>
        <styleUrl>#icon-22</styleUrl>
        <Point>
          <coordinates>
            12.0484,57.6009,0
          </coordinates>
        </Point>
      </Placemark>
      <Placemark>
        <name>Willys Hemma Göteborg Sävedalen</name>
        <description>Willys Hemma Göteborg Sävedalen, Sävedalen</description>
        <styleUrl>#icon-22</styleUrl>
        <Point>
          <coordinates>
            12.0765,57.7332,0
          </coordinates>
        </Point>
      </Placemark>
      <Placemark>
        <name>Willys Kungsbacka Södercity</name>
        <description>Willys Kungsbacka Södercity, Kungsbacka</description>
        <styleUrl>#icon-22</styleUrl>
        <Point>
          <coordinates>
            12.0814,57.4781,0
          </coordinates>
        </Point>
      </Placemark>
      <Placemark>
        <name>Willys Kungsbacka Hede</name>
        <description>Willys Kungsbacka Hede, Kungsbacka</description>
        <styleUrl>#icon-22</styleUrl>
        <Point>
          <coordinates>
            12.082,57.5117,0
          </coordinates>
        </Point>
      </Placemark>
      <Placemark>
        <name>Willys Partille C</name>
        <description>Willys Partille C, Partille</description>
        <styleUrl>#icon-22</styleUrl>
        <Point>
          <coordinates>
            12.1064,57.7399,0
          </coordinates>
        </Point>
      </Placemark>
      <Placemark>
        <name>Willys Älvängen Handelsplats</name>
        <description>Willys Älvängen Handelsplats, Älvängen</description>
        <styleUrl>#icon-22</styleUrl>
        <Point>
          <coordinates>
            12.1292,57.9625,0
          </coordinates>
        </Point>
      </Placemark>
      <Placemark>
        <name>Willys Landvetter</name>
        <description>Willys Landvetter, Landvetter</description>
        <styleUrl>#icon-22</styleUrl>
        <Point>
          <coordinates>
            12.2097,57.6898,0
          </coordinates>
        </Point>
      </Placemark>
      <Placemark>
        <name>Willys Varberg</name>
        <description>Willys Varberg, Varberg</description>
        <styleUrl>#icon-22</styleUrl>
        <Point>
          <coordinates>
            12.2687,57.1023,0
          </coordinates>
        </Point>
      </Placemark>
      <Placemark>
        <name>Willys Trollhättan Hojum</name>
        <description>Willys Trollhättan Hojum, Trollhättan</description>
        <styleUrl>#icon-22</styleUrl>
        <Point>
          <coordinates>
            12.3167,58.2782,0
          </coordinates>
        </Point>
      </Placemark>
      <Placemark>
        <name>Willys Vänersborg Trenova Center</name>
        <description>Willys Vänersborg Trenova Center, Vänersborg</description>
        <styleUrl>#icon-22</styleUrl>
        <Point>
          <coordinates>
            12.331,58.3789,0
          </coordinates>
        </Point>
      </Placemark>
      <Placemark>
        <name>Willys Falkenberg Tånga</name>
        <description>Willys Falkenberg Tånga, Falkenberg</description>
        <styleUrl>#icon-22</styleUrl>
        <Point>
          <coordinates>
            12.505,56.9162,0
          </coordinates>
        </Point>
      </Placemark>
      <Placemark>
        <name>Willys Alingsås Hagaplan</name>
        <description>Willys Alingsås Hagaplan, Alingsås</description>
        <styleUrl>#icon-22</styleUrl>
        <Point>
          <coordinates>
            12.5333,57.9374,0
          </coordinates>
        </Point>
      </Placemark>
      <Placemark>
        <name>Willys Skene C</name>
        <description>Willys Skene C, Skene</description>
        <styleUrl>#icon-22</styleUrl>
        <Point>
          <coordinates>
            12.6482,57.4858,0
          </coordinates>
        </Point>
      </Placemark>
      <Placemark>
        <name>Willys Åmål Rondellen</name>
        <description>Willys Åmål Rondellen, Åmål</description>
        <styleUrl>#icon-22</styleUrl>
        <Point>
          <coordinates>
            12.6758,59.0551,0
          </coordinates>
        </Point>
      </Placemark>
      <Placemark>
        <name>Willys Helsingborg Planteringen</name>
        <description>Willys Helsingborg Planteringen, Helsingborg</description>
        <styleUrl>#icon-22</styleUrl>
        <Point>
          <coordinates>
            12.7206,56.0229,0
          </coordinates>
        </Point>
      </Placemark>
      <Placemark>
        <name>Willys Hemma Helsingborg</name>
        <description>Willys Hemma Helsingborg, Helsingborg</description>
        <styleUrl>#icon-22</styleUrl>
        <Point>
          <coordinates>
            12.7269,56.0504,0
          </coordinates>
        </Point>
      </Placemark>
      <Placemark>
        <name>Willys Helsingborg Väla</name>
        <description>Willys Helsingborg Väla, Helsingborg</description>
        <styleUrl>#icon-22</styleUrl>
        <Point>
          <coordinates>
            12.7501,56.0913,0
          </coordinates>
        </Point>
      </Placemark>
      <Placemark>
        <name>Willys Vårgårda Torggatan</name>
        <description>Willys Vårgårda Torggatan, Vårgårda</description>
        <styleUrl>#icon-22</styleUrl>
        <Point>
          <coordinates>
            12.8049,58.0322,0
          </coordinates>
        </Point>
      </Placemark>
      <Placemark>
        <name>Willys Halmstad Flygstaden</name>
        <description>Willys Halmstad Flygstaden, Halmstad</description>
        <styleUrl>#icon-22</styleUrl>
        <Point>
          <coordinates>
            12.805,56.6765,0
          </coordinates>
        </Point>
      </Placemark>
      <Placemark>
        <name>Willys Landskrona Infarten</name>
        <description>Willys Landskrona Infarten, Landskrona</description>
        <styleUrl>#icon-22</styleUrl>
        <Point>
          <coordinates>
            12.8488,55.8706,0
          </coordinates>
        </Point>
      </Placemark>
      <Placemark>
        <name>Willys Halmstad Öster</name>
        <description>Willys Halmstad Öster, Halmstad</description>
        <styleUrl>#icon-22</styleUrl>
        <Point>
          <coordinates>
            12.8713,56.6698,0
          </coordinates>
        </Point>
      </Placemark>
      <Placemark>
        <name>Willys Båstad</name>
        <description>Willys Båstad, Båstad</description>
        <styleUrl>#icon-22</styleUrl>
        <Point>
          <coordinates>
            12.8861,56.4261,0
          </coordinates>
        </Point>
      </Placemark>
      <Placemark>
        <name>Willys Ängelholm Brännborn Center</name>
        <description>Willys Ängelholm Brännborn Center, Ängelholm</description>
        <styleUrl>#icon-22</styleUrl>
        <Point>
          <coordinates>
            12.8903,56.2548,0
          </coordinates>
        </Point>
      </Placemark>
      <Placemark>
        <name>Willys Hemma Säffle Station</name>
        <description>Willys Hemma Säffle Station, Säffle</description>
        <styleUrl>#icon-22</styleUrl>
        <Point>
          <coordinates>
            12.9163,59.1309,0
          </coordinates>
        </Point>
      </Placemark>
      <Placemark>
        <name>Willys Borås Knalleland</name>
        <description>Willys Borås Knalleland, Borås</description>
        <styleUrl>#icon-22</styleUrl>
        <Point>
          <coordinates>
            12.9331,57.7339,0
          </coordinates>
        </Point>
      </Placemark>
      <Placemark>
        <name>Willys Malmö Limhamn</name>
        <description>Willys Malmö Limhamn, Limhamn</description>
        <styleUrl>#icon-22</styleUrl>
        <Point>
          <coordinates>
            12.9361,55.5819,0
          </coordinates>
        </Point>
      </Placemark>
      <Placemark>
        <name>Vara Axet</name>
        <description>Vara Axet, Vara</description>
        <styleUrl>#icon-22</styleUrl>
        <Point>
          <coordinates>
            12.9584,58.2573,0
          </coordinates>
        </Point>
      </Placemark>
      <Placemark>
        <name>Willys Malmö Emporia</name>
        <description>Willys Malmö Emporia, Malmö</description>
        <styleUrl>#icon-22</styleUrl>
        <Point>
          <coordinates>
            12.9735,55.5643,0
          </coordinates>
        </Point>
      </Placemark>
      <Placemark>
        <name>Willys Löddeköpinge</name>
        <description>Willys Löddeköpinge, Löddeköpinge</description>
        <styleUrl>#icon-22</styleUrl>
        <Point>
          <coordinates>
            12.9936,55.7691,0
          </coordinates>
        </Point>
      </Placemark>
      <Placemark>
        <name>Willys Hemma Malmö Lugnet</name>
        <description>Willys Hemma Malmö Lugnet, Malmö</description>
        <styleUrl>#icon-22</styleUrl>
        <Point>
          <coordinates>
            13.0012,55.5988,0
          </coordinates>
        </Point>
      </Placemark>
      <Placemark>
        <name>Willys Malmö Mobilia</name>
        <description>Willys Malmö Mobilia, Malmö</description>
        <styleUrl>#icon-22</styleUrl>
        <Point>
          <coordinates>
            13.0041,55.5811,0
          </coordinates>
        </Point>
      </Placemark>
      <Placemark>
        <name>Willys Hemma Malmö Möllevången</name>
        <description>Willys Hemma Malmö Möllevången, Malmö</description>
        <styleUrl>#icon-22</styleUrl>
        <Point>
          <coordinates>
            13.0083,55.5902,0
          </coordinates>
        </Point>
      </Placemark>
      <Placemark>
        <name>Willys Hemma Malmö Söderkulla</name>
        <description>Willys Hemma Malmö Söderkulla, Malmö</description>
        <styleUrl>#icon-22</styleUrl>
        <Point>
          <coordinates>
            13.0089,55.5704,0
          </coordinates>
        </Point>
      </Placemark>
      <Placemark>
        <name>Willys Hemma Malmö Lindängen</name>
        <description>Willys Hemma Malmö Lindängen, Malmö</description>
        <styleUrl>#icon-22</styleUrl>
        <Point>
          <coordinates>
            13.0144,55.559,0
          </coordinates>
        </Point>
      </Placemark>
      <Placemark>
        <name>Willys Hemma Laholm</name>
        <description>Willys Hemma Laholm, Laholm</description>
        <styleUrl>#icon-22</styleUrl>
        <Point>
          <coordinates>
            13.0168,56.5009,0
          </coordinates>
        </Point>
      </Placemark>
      <Placemark>
        <name>Willys Vellinge Kompanigatan</name>
        <description>Willys Vellinge Kompanigatan, Vellinge</description>
        <styleUrl>#icon-22</styleUrl>
        <Point>
          <coordinates>
            13.0193,55.4751,0
          </coordinates>
        </Point>
      </Placemark>
      <Placemark>
        <name>Willys Malmö Katrinelund</name>
        <description>Willys Malmö Katrinelund, Malmö</description>
        <styleUrl>#icon-22</styleUrl>
        <Point>
          <coordinates>
            13.0335,55.5995,0
          </coordinates>
        </Point>
      </Placemark>
      <Placemark>
        <name>Willys Hemma Lomma Centrum</name>
        <description>Willys Hemma Lomma Centrum, Lomma</description>
        <styleUrl>#icon-22</styleUrl>
        <Point>
          <coordinates>
            13.0705,55.6735,0
          </coordinates>
        </Point>
      </Placemark>
      <Placemark>
        <name>Willys Burlöv Center</name>
        <description>Willys Burlöv Center, Arlöv</description>
        <styleUrl>#icon-22</styleUrl>
        <Point>
          <coordinates>
            13.0844,55.6404,0
          </coordinates>
        </Point>
      </Placemark>
      <Placemark>
        <name>Willys Trelleborg Väst</name>
        <description>Willys Trelleborg Väst, Trelleborg</description>
        <styleUrl>#icon-22</styleUrl>
        <Point>
          <coordinates>
            13.135,55.3839,0
          </coordinates>
        </Point>
      </Placemark>
      <Placemark>
        <name>Willys Lidköping Framnäs</name>
        <description>Willys Lidköping Framnäs, Lidköping</description>
        <styleUrl>#icon-22</styleUrl>
        <Point>
          <coordinates>
            13.146,58.5088,0
          </coordinates>
        </Point>
      </Placemark>
      <Placemark>
        <name>Willys Hemma Lund Stortorget</name>
        <description>Willys Hemma Lund Stortorget, Lund</description>
        <styleUrl>#icon-22</styleUrl>
        <Point>
          <coordinates>
            13.1924,55.7025,0
          </coordinates>
        </Point>
      </Placemark>
      <Placemark>
        <name>Willys Lund</name>
        <description>Willys Lund, Lund</description>
        <styleUrl>#icon-22</styleUrl>
        <Point>
          <coordinates>
            13.2214,55.72,0
          </coordinates>
        </Point>
      </Placemark>
      <Placemark>
        <name>Willys Staffanstorp Rondellen</name>
        <description>Willys Staffanstorp Rondellen, Staffanstorp</description>
        <styleUrl>#icon-22</styleUrl>
        <Point>
          <coordinates>
            13.2325,55.6448,0
          </coordinates>
        </Point>
      </Placemark>
      <Placemark>
        <name>Willys Hemma Kil</name>
        <description>Willys Hemma Kil, Kil</description>
        <styleUrl>#icon-22</styleUrl>
        <Point>
          <coordinates>
            13.3169,59.4998,0
          </coordinates>
        </Point>
      </Placemark>
      <Placemark>
        <name>Willys Eslöv</name>
        <description>Willys Eslöv, Eslöv</description>
        <styleUrl>#icon-22</styleUrl>
        <Point>
          <coordinates>
            13.3238,55.8418,0
          </coordinates>
        </Point>
      </Placemark>
      <Placemark>
        <name>Willys Tranemo Västra</name>
        <description>Willys Tranemo Västra, Tranemo</description>
        <styleUrl>#icon-22</styleUrl>
        <Point>
          <coordinates>
            13.3402,57.4884,0
          </coordinates>
        </Point>
      </Placemark>
      <Placemark>
        <name>Willys Hemma Ulricehamn</name>
        <description>Willys Hemma Ulricehamn, Ulricehamn</description>
        <styleUrl>#icon-22</styleUrl>
        <Point>
          <coordinates>
            13.4095,57.7895,0
          </coordinates>
        </Point>
      </Placemark>
      <Placemark>
        <name>Willys Hemma Skara Hötorget</name>
        <description>Willys Hemma Skara Hötorget, Skara</description>
        <styleUrl>#icon-22</styleUrl>
        <Point>
          <coordinates>
            13.4353,58.3849,0
          </coordinates>
        </Point>
      </Placemark>
      <Placemark>
        <name>Willys Karlstad</name>
        <description>Willys Karlstad, Karlstad</description>
        <styleUrl>#icon-22</styleUrl>
        <Point>
          <coordinates>
            13.4818,59.3877,0
          </coordinates>
        </Point>
      </Placemark>
      <Placemark>
        <name>Willys Skurup Handelsplats</name>
        <description>Willys Skurup Handelsplats, Skurup</description>
        <styleUrl>#icon-22</styleUrl>
        <Point>
          <coordinates>
            13.4876,55.4915,0
          </coordinates>
        </Point>
      </Placemark>
      <Placemark>
        <name>Willys Karlstad Bryggudden</name>
        <description>Willys Karlstad Bryggudden, Karlstad</description>
        <styleUrl>#icon-22</styleUrl>
        <Point>
          <coordinates>
            13.5082,59.3772,0
          </coordinates>
        </Point>
      </Placemark>
      <Placemark>
        <name>Willys Gislaved Smålandia</name>
        <description>Willys Gislaved Smålandia, Gislaved</description>
        <styleUrl>#icon-22</styleUrl>
        <Point>
          <coordinates>
            13.5433,57.3183,0
          </coordinates>
        </Point>
      </Placemark>
      <Placemark>
        <name>Willys Falköping Ålleberg Center</name>
        <description>Willys Falköping Ålleberg Center, Falköping</description>
        <styleUrl>#icon-22</styleUrl>
        <Point>
          <coordinates>
            13.56,58.1486,0
          </coordinates>
        </Point>
      </Placemark>
      <Placemark>
        <name>Willys Hemma Gnosjö</name>
        <description>Willys Hemma Gnosjö, Gnosjö</description>
        <styleUrl>#icon-22</styleUrl>
        <Point>
          <coordinates>
            13.7422,57.3538,0
          </coordinates>
        </Point>
      </Placemark>
      <Placemark>
        <name>Willys Hässleholm Läreda</name>
        <description>Willys Hässleholm Läreda, Hässleholm</description>
        <styleUrl>#icon-22</styleUrl>
        <Point>
          <coordinates>
            13.7885,56.1658,0
          </coordinates>
        </Point>
      </Placemark>
      <Placemark>
        <name>Willys Mariestad Haggården</name>
        <description>Willys Mariestad Haggården, Mariestad</description>
        <styleUrl>#icon-22</styleUrl>
        <Point>
          <coordinates>
            13.8163,58.682,0
          </coordinates>
        </Point>
      </Placemark>
      <Placemark>
        <name>Willys Ystad</name>
        <description>Willys Ystad, Ystad</description>
        <styleUrl>#icon-22</styleUrl>
        <Point>
          <coordinates>
            13.8338,55.4389,0
          </coordinates>
        </Point>
      </Placemark>
      <Placemark>
        <name>Willys Skövde Stallsiken</name>
        <description>Willys Skövde Stallsiken, Skövde</description>
        <styleUrl>#icon-22</styleUrl>
        <Point>
          <coordinates>
            13.8815,58.4113,0
          </coordinates>
        </Point>
      </Placemark>
      <Placemark>
        <name>Willys Ljungby</name>
        <description>Willys Ljungby, Ljungby</description>
        <styleUrl>#icon-22</styleUrl>
        <Point>
          <coordinates>
            13.9325,56.8319,0
          </coordinates>
        </Point>
      </Placemark>
      <Placemark>
        <name>Willys Värnamo Gröndal</name>
        <description>Willys Värnamo Gröndal, Värnamo</description>
        <styleUrl>#icon-22</styleUrl>
        <Point>
          <coordinates>
            14.027,57.184,0
          </coordinates>
        </Point>
      </Placemark>
      <Placemark>
        <name>Willys Habo Kärnekulla</name>
        <description>Willys Habo Kärnekulla, Habo</description>
        <styleUrl>#icon-22</styleUrl>
        <Point>
          <coordinates>
            14.1021,57.8982,0
          </coordinates>
        </Point>
      </Placemark>
      <Placemark>
        <name>Willys Kristianstad Långebro</name>
        <description>Willys Kristianstad Långebro, Kristianstad</description>
        <styleUrl>#icon-22</styleUrl>
        <Point>
          <coordinates>
            14.1409,56.0238,0
          </coordinates>
        </Point>
      </Placemark>
      <Placemark>
        <name>Willys Jönköping Råslätt</name>
        <description>Willys Jönköping Råslätt, Jönköping</description>
        <styleUrl>#icon-22</styleUrl>
        <Point>
          <coordinates>
            14.1519,57.7395,0
          </coordinates>
        </Point>
      </Placemark>
      <Placemark>
        <name>Willys Hemma Jönköping Torpa</name>
        <description>Willys Hemma Jönköping Torpa, Jönköping</description>
        <styleUrl>#icon-22</styleUrl>
        <Point>
          <coordinates>
            14.1524,57.7717,0
          </coordinates>
        </Point>
      </Placemark>
      <Placemark>
        <name>Willys Hemma Kristianstad</name>
        <description>Willys Hemma Kristianstad, Kristianstad</description>
        <styleUrl>#icon-22</styleUrl>
        <Point>
          <coordinates>
            14.1595,56.0355,0
          </coordinates>
        </Point>
      </Placemark>
      <Placemark>
        <name>Willys Älmhult</name>
        <description>Willys Älmhult, Älmhult</description>
        <styleUrl>#icon-22</styleUrl>
        <Point>
          <coordinates>
            14.1608,56.5516,0
          </coordinates>
        </Point>
      </Placemark>
      <Placemark>
        <name>Willys Jönköping A6</name>
        <description>Willys Jönköping A6, Jönköping</description>
        <styleUrl>#icon-22</styleUrl>
        <Point>
          <coordinates>
            14.2025,57.7694,0
          </coordinates>
        </Point>
      </Placemark>
      <Placemark>
        <name>Willys Jönköping Österängen</name>
        <description>Willys Jönköping Österängen, Jönköping</description>
        <styleUrl>#icon-22</styleUrl>
        <Point>
          <coordinates>
            14.2432,57.7869,0
          </coordinates>
        </Point>
      </Placemark>
      <Placemark>
        <name>Willys Huskvarna</name>
        <description>Willys Huskvarna, Huskvarna</description>
        <styleUrl>#icon-22</styleUrl>
        <Point>
          <coordinates>
            14.2759,57.7909,0
          </coordinates>
        </Point>
      </Placemark>
      <Placemark>
        <name>Willys Åhus Rondellen</name>
        <description>Willys Åhus Rondellen, Åhus</description>
        <styleUrl>#icon-22</styleUrl>
        <Point>
          <coordinates>
            14.2877,55.9306,0
          </coordinates>
        </Point>
      </Placemark>
      <Placemark>
        <name>Willys Simrishamn Skanshill</name>
        <description>Willys Simrishamn Skanshill, Simrishamn</description>
        <styleUrl>#icon-22</styleUrl>
        <Point>
          <coordinates>
            14.3473,55.5518,0
          </coordinates>
        </Point>
      </Placemark>
      <Placemark>
        <name>Willys Karlskoga C</name>
        <description>Willys Karlskoga C, Karlskoga</description>
        <styleUrl>#icon-22</styleUrl>
        <Point>
          <coordinates>
            14.5248,59.3256,0
          </coordinates>
        </Point>
      </Placemark>
      <Placemark>
        <name>Willys Olofström</name>
        <description>Willys Olofström, Olofström</description>
        <styleUrl>#icon-22</styleUrl>
        <Point>
          <coordinates>
            14.5368,56.2779,0
          </coordinates>
        </Point>
      </Placemark>
      <Placemark>
        <name>Willys Hemma Alvesta</name>
        <description>Willys Hemma Alvesta, Alvesta</description>
        <styleUrl>#icon-22</styleUrl>
        <Point>
          <coordinates>
            14.5581,56.9023,0
          </coordinates>
        </Point>
      </Placemark>
      <Placemark>
        <name>Willys Mora</name>
        <description>Willys Mora, Mora</description>
        <styleUrl>#icon-22</styleUrl>
        <Point>
          <coordinates>
            14.5878,61.0085,0
          </coordinates>
        </Point>
      </Placemark>
      <Placemark>
        <name>Willys Hemma Orsa</name>
        <description>Willys Hemma Orsa, Orsa</description>
        <styleUrl>#icon-22</styleUrl>
        <Point>
          <coordinates>
            14.6253,61.1161,0
          </coordinates>
        </Point>
      </Placemark>
      <Placemark>
        <name>Willys Östersund Storsjö</name>
        <description>Willys Östersund Storsjö, Östersund</description>
        <styleUrl>#icon-22</styleUrl>
        <Point>
          <coordinates>
            14.6547,63.163,0
          </coordinates>
        </Point>
      </Placemark>
      <Placemark>
        <name>Willys Nässjö Almenäs</name>
        <description>Willys Nässjö Almenäs, Nässjö</description>
        <styleUrl>#icon-22</styleUrl>
        <Point>
          <coordinates>
            14.695,57.6465,0
          </coordinates>
        </Point>
      </Placemark>
      <Placemark>
        <name>Willys Växjö I11</name>
        <description>Willys Växjö I11, Växjö</description>
        <styleUrl>#icon-22</styleUrl>
        <Point>
          <coordinates>
            14.7679,56.8774,0
          </coordinates>
        </Point>
      </Placemark>
      <Placemark>
        <name>Willys Växjö Teleborg</name>
        <description>Willys Växjö Teleborg, Växjö</description>
        <styleUrl>#icon-22</styleUrl>
        <Point>
          <coordinates>
            14.8193,56.86,0
          </coordinates>
        </Point>
      </Placemark>
      <Placemark>
        <name>Willys Karlshamn</name>
        <description>Willys Karlshamn, Karlshamn</description>
        <styleUrl>#icon-22</styleUrl>
        <Point>
          <coordinates>
            14.8644,56.1705,0
          </coordinates>
        </Point>
      </Placemark>
      <Placemark>
        <name>Willys Eksjö C</name>
        <description>Willys Eksjö C, Eksjö</description>
        <styleUrl>#icon-22</styleUrl>
        <Point>
          <coordinates>
            14.9704,57.6707,0
          </coordinates>
        </Point>
      </Placemark>
      <Placemark>
        <name>Willys Tranås</name>
        <description>Willys Tranås, Tranås</description>
        <styleUrl>#icon-22</styleUrl>
        <Point>
          <coordinates>
            14.9767,58.0364,0
          </coordinates>
        </Point>
      </Placemark>
      <Placemark>
        <name>Willys Motala</name>
        <description>Willys Motala, Motala</description>
        <styleUrl>#icon-22</styleUrl>
        <Point>
          <coordinates>
            15.0331,58.5568,0
          </coordinates>
        </Point>
      </Placemark>
      <Placemark>
        <name>Willys Hemma Nora</name>
        <description>Willys Hemma Nora, Nora</description>
        <styleUrl>#icon-22</styleUrl>
        <Point>
          <coordinates>
            15.039,59.5201,0
          </coordinates>
        </Point>
      </Placemark>
      <Placemark>
        <name>Willys Vetlanda</name>
        <description>Willys Vetlanda, Vetlanda</description>
        <styleUrl>#icon-22</styleUrl>
        <Point>
          <coordinates>
            15.089,57.4261,0
          </coordinates>
        </Point>
      </Placemark>
      <Placemark>
        <name>Willys Mjölby Centrum</name>
        <description>Willys Mjölby Centrum, Mjölby</description>
        <styleUrl>#icon-22</styleUrl>
        <Point>
          <coordinates>
            15.1245,58.3263,0
          </coordinates>
        </Point>
      </Placemark>
      <Placemark>
        <name>Willys Örebro Marieberg</name>
        <description>Willys Örebro Marieberg, Örebro</description>
        <styleUrl>#icon-22</styleUrl>
        <Point>
          <coordinates>
            15.136,59.209,0
          </coordinates>
        </Point>
      </Placemark>
      <Placemark>
        <name>Willys Örebro Västhaga</name>
        <description>Willys Örebro Västhaga, Örebro</description>
        <styleUrl>#icon-22</styleUrl>
        <Point>
          <coordinates>
            15.1747,59.2728,0
          </coordinates>
        </Point>
      </Placemark>
      <Placemark>
        <name>Willys Ludvika</name>
        <description>Willys Ludvika, Ludvika</description>
        <styleUrl>#icon-22</styleUrl>
        <Point>
          <coordinates>
            15.201,60.1512,0
          </coordinates>
        </Point>
      </Placemark>
      <Placemark>
        <name>Willys Örebro Baronbackarna</name>
        <description>Willys Örebro Baronbackarna, Örebro</description>
        <styleUrl>#icon-22</styleUrl>
        <Point>
          <coordinates>
            15.2057,59.2904,0
          </coordinates>
        </Point>
      </Placemark>
      <Placemark>
        <name>Wh Örebro City</name>
        <description>Wh Örebro City, Örebro</description>
        <styleUrl>#icon-22</styleUrl>
        <Point>
          <coordinates>
            15.2159,59.2715,0
          </coordinates>
        </Point>
      </Placemark>
      <Placemark>
        <name>Willys Hemma Lindesberg</name>
        <description>Willys Hemma Lindesberg, Lindesberg</description>
        <styleUrl>#icon-22</styleUrl>
        <Point>
          <coordinates>
            15.2242,59.5945,0
          </coordinates>
        </Point>
      </Placemark>
      <Placemark>
        <name>Willys Örebro Almby</name>
        <description>Willys Örebro Almby, Örebro</description>
        <styleUrl>#icon-22</styleUrl>
        <Point>
          <coordinates>
            15.2382,59.2631,0
          </coordinates>
        </Point>
      </Placemark>
      <Placemark>
        <name>Willys Ronneby Centrum</name>
        <description>Willys Ronneby Centrum, Ronneby</description>
        <styleUrl>#icon-22</styleUrl>
        <Point>
          <coordinates>
            15.2801,56.2107,0
          </coordinates>
        </Point>
      </Placemark>
      <Placemark>
        <name>Willys Borlänge Kupolen</name>
        <description>Willys Borlänge Kupolen, Borlänge</description>
        <styleUrl>#icon-22</styleUrl>
        <Point>
          <coordinates>
            15.4156,60.4859,0
          </coordinates>
        </Point>
      </Placemark>
      <Placemark>
        <name>Willys Linköping Skäggetorp</name>
        <description>Willys Linköping Skäggetorp, Linköping</description>
        <styleUrl>#icon-22</styleUrl>
        <Point>
          <coordinates>
            15.5832,58.4263,0
          </coordinates>
        </Point>
      </Placemark>
      <Placemark>
        <name>Willys Karlskrona Pantarholmen</name>
        <description>Willys Karlskrona Pantarholmen, Karlskrona</description>
        <styleUrl>#icon-22</styleUrl>
        <Point>
          <coordinates>
            15.5878,56.1737,0
          </coordinates>
        </Point>
      </Placemark>
      <Placemark>
        <name>Willys Linköping Tornby</name>
        <description>Willys Linköping Tornby, Linköping</description>
        <styleUrl>#icon-22</styleUrl>
        <Point>
          <coordinates>
            15.5893,58.4341,0
          </coordinates>
        </Point>
      </Placemark>
      <Placemark>
        <name>Willys Falun Svalan</name>
        <description>Willys Falun Svalan, Falun</description>
        <styleUrl>#icon-22</styleUrl>
        <Point>
          <coordinates>
            15.6211,60.6196,0
          </coordinates>
        </Point>
      </Placemark>
      <Placemark>
        <name>Willys Karlskrona Slottsbacken</name>
        <description>Willys Karlskrona Slottsbacken, Lyckeby</description>
        <styleUrl>#icon-22</styleUrl>
        <Point>
          <coordinates>
            15.6496,56.1963,0
          </coordinates>
        </Point>
      </Placemark>
      <Placemark>
        <name>Willys Falun Origo</name>
        <description>Willys Falun Origo, Falun</description>
        <styleUrl>#icon-22</styleUrl>
        <Point>
          <coordinates>
            15.6662,60.599,0
          </coordinates>
        </Point>
      </Placemark>
      <Placemark>
        <name>Willys Linköping Ekholmen</name>
        <description>Willys Linköping Ekholmen, Linköping</description>
        <styleUrl>#icon-22</styleUrl>
        <Point>
          <coordinates>
            15.6844,58.3806,0
          </coordinates>
        </Point>
      </Placemark>
      <Placemark>
        <name>Willys Hemma Säter</name>
        <description>Willys Hemma Säter, Säter</description>
        <styleUrl>#icon-22</styleUrl>
        <Point>
          <coordinates>
            15.7469,60.3494,0
          </coordinates>
        </Point>
      </Placemark>
      <Placemark>
        <name>Willys Fagersta Norrbyplan</name>
        <description>Willys Fagersta Norrbyplan, Fagersta</description>
        <styleUrl>#icon-22</styleUrl>
        <Point>
          <coordinates>
            15.8106,59.9952,0
          </coordinates>
        </Point>
      </Placemark>
      <Placemark>
        <name>Willys Finspång</name>
        <description>Willys Finspång, Finspång</description>
        <styleUrl>#icon-22</styleUrl>
        <Point>
          <coordinates>
            15.823,58.7019,0
          </coordinates>
        </Point>
      </Placemark>
      <Placemark>
        <name>Willys Hultsfred Knekten</name>
        <description>Willys Hultsfred Knekten, Hultsfred</description>
        <styleUrl>#icon-22</styleUrl>
        <Point>
          <coordinates>
            15.8306,57.4995,0
          </coordinates>
        </Point>
      </Placemark>
      <Placemark>
        <name>Willys Hemma Arboga Centrum</name>
        <description>Willys Hemma Arboga Centrum, Arboga</description>
        <styleUrl>#icon-22</styleUrl>
        <Point>
          <coordinates>
            15.8411,59.3954,0
          </coordinates>
        </Point>
      </Placemark>
      <Placemark>
        <name>Willys Nybro</name>
        <description>Willys Nybro, Nybro</description>
        <styleUrl>#icon-22</styleUrl>
        <Point>
          <coordinates>
            15.907,56.743,0
          </coordinates>
        </Point>
      </Placemark>
      <Placemark>
        <name>Willys Köping Big Inn</name>
        <description>Willys Köping Big Inn, Köping</description>
        <styleUrl>#icon-22</styleUrl>
        <Point>
          <coordinates>
            15.9743,59.5228,0
          </coordinates>
        </Point>
      </Placemark>
      <Placemark>
        <name>Willys Åtvidaberg C</name>
        <description>Willys Åtvidaberg C, Åtvidaberg</description>
        <styleUrl>#icon-22</styleUrl>
        <Point>
          <coordinates>
            15.9998,58.2019,0
          </coordinates>
        </Point>
      </Placemark>
      <Placemark>
        <name>Willys Norrköping Ingelsta</name>
        <description>Willys Norrköping Ingelsta, Norrköping</description>
        <styleUrl>#icon-22</styleUrl>
        <Point>
          <coordinates>
            16.166,58.6126,0
          </coordinates>
        </Point>
      </Placemark>
      <Placemark>
        <name>Willys Avesta</name>
        <description>Willys Avesta, Avesta</description>
        <styleUrl>#icon-22</styleUrl>
        <Point>
          <coordinates>
            16.1969,60.1528,0
          </coordinates>
        </Point>
      </Placemark>
      <Placemark>
        <name>Willys Norrköping Hageby</name>
        <description>Willys Norrköping Hageby, Norrköping</description>
        <styleUrl>#icon-22</styleUrl>
        <Point>
          <coordinates>
            16.2099,58.5733,0
          </coordinates>
        </Point>
      </Placemark>
      <Placemark>
        <name>Willys Katrineholm Lövåsen</name>
        <description>Willys Katrineholm Lövåsen, Katrineholm</description>
        <styleUrl>#icon-22</styleUrl>
        <Point>
          <coordinates>
            16.2263,59.0036,0
          </coordinates>
        </Point>
      </Placemark>
      <Placemark>
        <name>Willys Surahammar</name>
        <description>Willys Surahammar, Surahammar</description>
        <styleUrl>#icon-22</styleUrl>
        <Point>
          <coordinates>
            16.2442,59.704,0
          </coordinates>
        </Point>
      </Placemark>
      <Placemark>
        <name>Willys Kalmar Hansa City</name>
        <description>Willys Kalmar Hansa City, Kalmar</description>
        <styleUrl>#icon-22</styleUrl>
        <Point>
          <coordinates>
            16.3156,56.6868,0
          </coordinates>
        </Point>
      </Placemark>
      <Placemark>
        <name>Willys Söderköping</name>
        <description>Willys Söderköping, Söderköping</description>
        <styleUrl>#icon-22</styleUrl>
        <Point>
          <coordinates>
            16.3315,58.4751,0
          </coordinates>
        </Point>
      </Placemark>
      <Placemark>
        <name>Willys Bollnäs Asea</name>
        <description>Willys Bollnäs Asea, Bollnäs</description>
        <styleUrl>#icon-22</styleUrl>
        <Point>
          <coordinates>
            16.3831,61.343,0
          </coordinates>
        </Point>
      </Placemark>
      <Placemark>
        <name>Willys Eskilstuna Folkesta</name>
        <description>Willys Eskilstuna Folkesta, Eskilstuna</description>
        <styleUrl>#icon-22</styleUrl>
        <Point>
          <coordinates>
            16.426,59.4019,0
          </coordinates>
        </Point>
      </Placemark>
      <Placemark>
        <name>Willys Oskarshamn Snickeriet</name>
        <description>Willys Oskarshamn Snickeriet, Oskarshamn</description>
        <styleUrl>#icon-22</styleUrl>
        <Point>
          <coordinates>
            16.4282,57.2627,0
          </coordinates>
        </Point>
      </Placemark>
      <Placemark>
        <name>Willys Västerås Erikslund Traversg</name>
        <description>Willys Västerås Erikslund Traversg, Västerås</description>
        <styleUrl>#icon-22</styleUrl>
        <Point>
          <coordinates>
            16.4647,59.6137,0
          </coordinates>
        </Point>
      </Placemark>
      <Placemark>
        <name>Willys Eskilstuna City</name>
        <description>Willys Eskilstuna City, Eskilstuna</description>
        <styleUrl>#icon-22</styleUrl>
        <Point>
          <coordinates>
            16.5001,59.3759,0
          </coordinates>
        </Point>
      </Placemark>
      <Placemark>
        <name>Willys Eskilstuna Smeden</name>
        <description>Willys Eskilstuna Smeden, Eskilstuna</description>
        <styleUrl>#icon-22</styleUrl>
        <Point>
          <coordinates>
            16.5298,59.375,0
          </coordinates>
        </Point>
      </Placemark>
      <Placemark>
        <name>Willys Flen Tisteln</name>
        <description>Willys Flen Tisteln, Flen</description>
        <styleUrl>#icon-22</styleUrl>
        <Point>
          <coordinates>
            16.5918,59.0632,0
          </coordinates>
        </Point>
      </Placemark>
      <Placemark>
        <name>Willys Sala Ängshagen</name>
        <description>Willys Sala Ängshagen, Sala</description>
        <styleUrl>#icon-22</styleUrl>
        <Point>
          <coordinates>
            16.6183,59.9123,0
          </coordinates>
        </Point>
      </Placemark>
      <Placemark>
        <name>Willys Västerås Hälla</name>
        <description>Willys Västerås Hälla, Västerås</description>
        <styleUrl>#icon-22</styleUrl>
        <Point>
          <coordinates>
            16.6191,59.6083,0
          </coordinates>
        </Point>
      </Placemark>
      <Placemark>
        <name>Willys Västervik Södra Järnvägsg</name>
        <description>Willys Västervik Södra Järnvägsg, Västervik</description>
        <styleUrl>#icon-22</styleUrl>
        <Point>
          <coordinates>
            16.6329,57.7524,0
          </coordinates>
        </Point>
      </Placemark>
      <Placemark>
        <name>Willys Sandviken Linggatan</name>
        <description>Willys Sandviken Linggatan, Sandviken</description>
        <styleUrl>#icon-22</styleUrl>
        <Point>
          <coordinates>
            16.7713,60.6247,0
          </coordinates>
        </Point>
      </Placemark>
      <Placemark>
        <name>Willys Nyköping</name>
        <description>Willys Nyköping, Nyköping</description>
        <styleUrl>#icon-22</styleUrl>
        <Point>
          <coordinates>
            16.9728,58.7473,0
          </coordinates>
        </Point>
      </Placemark>
      <Placemark>
        <name>Willys Hemma Valbo</name>
        <description>Willys Hemma Valbo, Valbo</description>
        <styleUrl>#icon-22</styleUrl>
        <Point>
          <coordinates>
            17.0078,60.6437,0
          </coordinates>
        </Point>
      </Placemark>
      <Placemark>
        <name>Willys Strängnäs</name>
        <description>Willys Strängnäs, Strängnäs</description>
        <styleUrl>#icon-22</styleUrl>
        <Point>
          <coordinates>
            17.0197,59.3342,0
          </coordinates>
        </Point>
      </Placemark>
      <Placemark>
        <name>Willys Hemma Söderhamn</name>
        <description>Willys Hemma Söderhamn, Söderhamn</description>
        <styleUrl>#icon-22</styleUrl>
        <Point>
          <coordinates>
            17.0568,61.303,0
          </coordinates>
        </Point>
      </Placemark>
      <Placemark>
        <name>Willys Enköping Romberga</name>
        <description>Willys Enköping Romberga, Enköping</description>
        <styleUrl>#icon-22</styleUrl>
        <Point>
          <coordinates>
            17.086,59.6503,0
          </coordinates>
        </Point>
      </Placemark>
      <Placemark>
        <name>Willys Gävle Gestrike</name>
        <description>Willys Gävle Gestrike, Gävle</description>
        <styleUrl>#icon-22</styleUrl>
        <Point>
          <coordinates>
            17.1357,60.6824,0
          </coordinates>
        </Point>
      </Placemark>
      <Placemark>
        <name>Willys Gävle Hemsta</name>
        <description>Willys Gävle Hemsta, Gävle</description>
        <styleUrl>#icon-22</styleUrl>
        <Point>
          <coordinates>
            17.1617,60.6601,0
          </coordinates>
        </Point>
      </Placemark>
      <Placemark>
        <name>Willys Hemma Timrå</name>
        <description>Willys Hemma Timrå, Timrå</description>
        <styleUrl>#icon-22</styleUrl>
        <Point>
          <coordinates>
            17.3255,62.4875,0
          </coordinates>
        </Point>
      </Placemark>
      <Placemark>
        <name>Willys Sundsvall Birsta</name>
        <description>Willys Sundsvall Birsta, Sundsvall</description>
        <styleUrl>#icon-22</styleUrl>
        <Point>
          <coordinates>
            17.3283,62.4476,0
          </coordinates>
        </Point>
      </Placemark>
      <Placemark>
        <name>Willys Sundsvall Ortviken</name>
        <description>Willys Sundsvall Ortviken, Sundsvall</description>
        <styleUrl>#icon-22</styleUrl>
        <Point>
          <coordinates>
            17.3402,62.3962,0
          </coordinates>
        </Point>
      </Placemark>
      <Placemark>
        <name>Willys Skutskär Östra</name>
        <description>Willys Skutskär Östra, Skutskär</description>
        <styleUrl>#icon-22</styleUrl>
        <Point>
          <coordinates>
            17.4138,60.6303,0
          </coordinates>
        </Point>
      </Placemark>
      <Placemark>
        <name>Willys Uppsala Stenhagen</name>
        <description>Willys Uppsala Stenhagen, Uppsala</description>
        <styleUrl>#icon-22</styleUrl>
        <Point>
          <coordinates>
            17.563,59.8491,0
          </coordinates>
        </Point>
      </Placemark>
      <Placemark>
        <name>Willys Södertälje Vasa</name>
        <description>Willys Södertälje Vasa, Södertälje</description>
        <styleUrl>#icon-22</styleUrl>
        <Point>
          <coordinates>
            17.5946,59.1835,0
          </coordinates>
        </Point>
      </Placemark>
      <Placemark>
        <name>Willys Uppsala Gottsunda</name>
        <description>Willys Uppsala Gottsunda, Uppsala</description>
        <styleUrl>#icon-22</styleUrl>
        <Point>
          <coordinates>
            17.6286,59.8111,0
          </coordinates>
        </Point>
      </Placemark>
      <Placemark>
        <name>Willys Bro E 18</name>
        <description>Willys Bro E 18, Bro</description>
        <styleUrl>#icon-22</styleUrl>
        <Point>
          <coordinates>
            17.6296,59.5267,0
          </coordinates>
        </Point>
      </Placemark>
      <Placemark>
        <name>Willys Södertälje Weda</name>
        <description>Willys Södertälje Weda, Södertälje</description>
        <styleUrl>#icon-22</styleUrl>
        <Point>
          <coordinates>
            17.6439,59.2051,0
          </coordinates>
        </Point>
      </Placemark>
      <Placemark>
        <name>Willys Södertälje Hamn</name>
        <description>Willys Södertälje Hamn, Södertälje</description>
        <styleUrl>#icon-22</styleUrl>
        <Point>
          <coordinates>
            17.6528,59.1744,0
          </coordinates>
        </Point>
      </Placemark>
      <Placemark>
        <name>Willys Uppsala Kungsgatan</name>
        <description>Willys Uppsala Kungsgatan, Uppsala</description>
        <styleUrl>#icon-22</styleUrl>
        <Point>
          <coordinates>
            17.6582,59.8498,0
          </coordinates>
        </Point>
      </Placemark>
      <Placemark>
        <name>Willys Uppsala Gränby</name>
        <description>Willys Uppsala Gränby, Uppsala</description>
        <styleUrl>#icon-22</styleUrl>
        <Point>
          <coordinates>
            17.6609,59.8862,0
          </coordinates>
        </Point>
      </Placemark>
      <Placemark>
        <name>Willys Uppsala Björkgatan</name>
        <description>Willys Uppsala Björkgatan, Uppsala</description>
        <styleUrl>#icon-22</styleUrl>
        <Point>
          <coordinates>
            17.6642,59.8669,0
          </coordinates>
        </Point>
      </Placemark>
      <Placemark>
        <name>Willys Kramfors</name>
        <description>Willys Kramfors, Kramfors</description>
        <styleUrl>#icon-22</styleUrl>
        <Point>
          <coordinates>
            17.7791,62.9311,0
          </coordinates>
        </Point>
      </Placemark>
      <Placemark>
        <name>Willys Knivsta C</name>
        <description>Willys Knivsta C, Knivsta</description>
        <styleUrl>#icon-22</styleUrl>
        <Point>
          <coordinates>
            17.7876,59.7286,0
          </coordinates>
        </Point>
      </Placemark>
      <Placemark>
        <name>Willys Stockholm Veddesta Handel</name>
        <description>Willys Stockholm Veddesta Handel, Järfälla</description>
        <styleUrl>#icon-22</styleUrl>
        <Point>
          <coordinates>
            17.8413,59.4085,0
          </coordinates>
        </Point>
      </Placemark>
      <Placemark>
        <name>Willys Stockholm Tumba</name>
        <description>Willys Stockholm Tumba, Tumba</description>
        <styleUrl>#icon-22</styleUrl>
        <Point>
          <coordinates>
            17.8426,59.1989,0
          </coordinates>
        </Point>
      </Placemark>
      <Placemark>
        <name>Willys Märsta C</name>
        <description>Willys Märsta C, Märsta</description>
        <styleUrl>#icon-22</styleUrl>
        <Point>
          <coordinates>
            17.8548,59.6208,0
          </coordinates>
        </Point>
      </Placemark>
      <Placemark>
        <name>Willys Stockholm Vinsta</name>
        <description>Willys Stockholm Vinsta, Vällingby</description>
        <styleUrl>#icon-22</styleUrl>
        <Point>
          <coordinates>
            17.8558,59.3705,0
          </coordinates>
        </Point>
      </Placemark>
      <Placemark>
        <name>Willys Väsby Centrum</name>
        <description>Willys Väsby Centrum, Upplands Väsby</description>
        <styleUrl>#icon-22</styleUrl>
        <Point>
          <coordinates>
            17.9099,59.5186,0
          </coordinates>
        </Point>
      </Placemark>
      <Placemark>
        <name>Willys Huddinge Heron City</name>
        <description>Willys Huddinge Heron City, Kungens Kurva</description>
        <styleUrl>#icon-22</styleUrl>
        <Point>
          <coordinates>
            17.91,59.2676,0
          </coordinates>
        </Point>
      </Placemark>
      <Placemark>
        <name>Willys Sollentuna Rotebro</name>
        <description>Willys Sollentuna Rotebro, Sollentuna</description>
        <styleUrl>#icon-22</styleUrl>
        <Point>
          <coordinates>
            17.9158,59.4713,0
          </coordinates>
        </Point>
      </Placemark>
      <Placemark>
        <name>Willys Sollentuna Häggvik</name>
        <description>Willys Sollentuna Häggvik, Sollentuna</description>
        <styleUrl>#icon-22</styleUrl>
        <Point>
          <coordinates>
            17.9286,59.4377,0
          </coordinates>
        </Point>
      </Placemark>
      <Placemark>
        <name>Willys Stockholm Rissne</name>
        <description>Willys Stockholm Rissne, Sundbyberg</description>
        <styleUrl>#icon-22</styleUrl>
        <Point>
          <coordinates>
            17.9468,59.3798,0
          </coordinates>
        </Point>
      </Placemark>
      <Placemark>
        <name>Willys Nynäshamn</name>
        <description>Willys Nynäshamn, Nynäshamn</description>
        <styleUrl>#icon-22</styleUrl>
        <Point>
          <coordinates>
            17.9483,58.9129,0
          </coordinates>
        </Point>
      </Placemark>
      <Placemark>
        <name>Willys Härnösand Härnön</name>
        <description>Willys Härnösand Härnön, Härnösand</description>
        <styleUrl>#icon-22</styleUrl>
        <Point>
          <coordinates>
            17.9585,62.6279,0
          </coordinates>
        </Point>
      </Placemark>
      <Placemark>
        <name>Willys Sundbyberg Esplanaden</name>
        <description>Willys Sundbyberg Esplanaden, Sundbyberg</description>
        <styleUrl>#icon-22</styleUrl>
        <Point>
          <coordinates>
            17.9636,59.3614,0
          </coordinates>
        </Point>
      </Placemark>
      <Placemark>
        <name>Willys Hemma Solna Hagahallen</name>
        <description>Willys Hemma Solna Hagahallen, Solna</description>
        <styleUrl>#icon-22</styleUrl>
        <Point>
          <coordinates>
            18.011,59.3629,0
          </coordinates>
        </Point>
      </Placemark>
      <Placemark>
        <name>Willys Stockholm Älvsjö</name>
        <description>Willys Stockholm Älvsjö, Älvsjö</description>
        <styleUrl>#icon-22</styleUrl>
        <Point>
          <coordinates>
            18.0132,59.2753,0
          </coordinates>
        </Point>
      </Placemark>
      <Placemark>
        <name>Willys Hemma Stockholm Liljeholmen</name>
        <description>Willys Hemma Stockholm Liljeholmen, Stockholm</description>
        <styleUrl>#icon-22</styleUrl>
        <Point>
          <coordinates>
            18.0238,59.3097,0
          </coordinates>
        </Point>
      </Placemark>
      <Placemark>
        <name>Willys E-handel Stockholm</name>
        <description>Willys E-handel Stockholm, Årsta</description>
        <styleUrl>#icon-22</styleUrl>
        <Point>
          <coordinates>
            18.0315,59.2959,0
          </coordinates>
        </Point>
      </Placemark>
      <Placemark>
        <name>Willys Hemma Stockholm Torsplan</name>
        <description>Willys Hemma Stockholm Torsplan, Stockholm</description>
        <styleUrl>#icon-22</styleUrl>
        <Point>
          <coordinates>
            18.032,59.3456,0
          </coordinates>
        </Point>
      </Placemark>
      <Placemark>
        <name>Willys Stockholm Fridhemsplan</name>
        <description>Willys Stockholm Fridhemsplan, Stockholm</description>
        <styleUrl>#icon-22</styleUrl>
        <Point>
          <coordinates>
            18.0329,59.3345,0
          </coordinates>
        </Point>
      </Placemark>
      <Placemark>
        <name>Willys Hemma Stockholm Täby</name>
        <description>Willys Hemma Stockholm Täby, Täby</description>
        <styleUrl>#icon-22</styleUrl>
        <Point>
          <coordinates>
            18.05,59.4528,0
          </coordinates>
        </Point>
      </Placemark>
      <Placemark>
        <name>Willys Stockholm Mariahallen</name>
        <description>Willys Stockholm Mariahallen, Stockholm</description>
        <styleUrl>#icon-22</styleUrl>
        <Point>
          <coordinates>
            18.0573,59.3182,0
          </coordinates>
        </Point>
      </Placemark>
      <Placemark>
        <name>Willys Täby Centrum</name>
        <description>Willys Täby Centrum, Täby</description>
        <styleUrl>#icon-22</styleUrl>
        <Point>
          <coordinates>
            18.0737,59.4455,0
          </coordinates>
        </Point>
      </Placemark>
      <Placemark>
        <name>Willys Hemma Stockholm Götgatan</name>
        <description>Willys Hemma Stockholm Götgatan, Stockholm</description>
        <styleUrl>#icon-22</styleUrl>
        <Point>
          <coordinates>
            18.0752,59.3108,0
          </coordinates>
        </Point>
      </Placemark>
      <Placemark>
        <name>Willys Stockholm Sköndal</name>
        <description>Willys Stockholm Sköndal, Sköndal</description>
        <styleUrl>#icon-22</styleUrl>
        <Point>
          <coordinates>
            18.1057,59.2599,0
          </coordinates>
        </Point>
      </Placemark>
      <Placemark>
        <name>Willys Stockholm Länna</name>
        <description>Willys Stockholm Länna, Skogås</description>
        <styleUrl>#icon-22</styleUrl>
        <Point>
          <coordinates>
            18.1291,59.2016,0
          </coordinates>
        </Point>
      </Placemark>
      <Placemark>
        <name>Willys Nacka Sickla</name>
        <description>Willys Nacka Sickla, Nacka</description>
        <styleUrl>#icon-22</styleUrl>
        <Point>
          <coordinates>
            18.1306,59.3044,0
          </coordinates>
        </Point>
      </Placemark>
      <Placemark>
        <name>Willys Stockholm Täby Arninge</name>
        <description>Willys Stockholm Täby Arninge, Täby</description>
        <styleUrl>#icon-22</styleUrl>
        <Point>
          <coordinates>
            18.1329,59.4643,0
          </coordinates>
        </Point>
      </Placemark>
      <Placemark>
        <name>Willys Stockholm Port 73</name>
        <description>Willys Stockholm Port 73, Haninge</description>
        <styleUrl>#icon-22</styleUrl>
        <Point>
          <coordinates>
            18.1481,59.1823,0
          </coordinates>
        </Point>
      </Placemark>
      <Placemark>
        <name>Willys Stockholm Lidingö</name>
        <description>Willys Stockholm Lidingö, Lidingö</description>
        <styleUrl>#icon-22</styleUrl>
        <Point>
          <coordinates>
            18.1496,59.3494,0
          </coordinates>
        </Point>
      </Placemark>
      <Placemark>
        <name>Willys Hemma Stockholm Nacka</name>
        <description>Willys Hemma Stockholm Nacka, Nacka</description>
        <styleUrl>#icon-22</styleUrl>
        <Point>
          <coordinates>
            18.1653,59.3089,0
          </coordinates>
        </Point>
      </Placemark>
      <Placemark>
        <name>Willys Tyresö Bollmora</name>
        <description>Willys Tyresö Bollmora, Tyresö</description>
        <styleUrl>#icon-22</styleUrl>
        <Point>
          <coordinates>
            18.2156,59.2484,0
          </coordinates>
        </Point>
      </Placemark>
      <Placemark>
        <name>Willys Stockholm Orminge</name>
        <description>Willys Stockholm Orminge, Saltsjö-boo</description>
        <styleUrl>#icon-22</styleUrl>
        <Point>
          <coordinates>
            18.2591,59.3262,0
          </coordinates>
        </Point>
      </Placemark>
      <Placemark>
        <name>Willys Hemma Stockholm Saltsjöbaden</name>
        <description>Willys Hemma Stockholm Saltsjöbaden, Saltsjöbaden</description>
        <styleUrl>#icon-22</styleUrl>
        <Point>
          <coordinates>
            18.2744,59.2856,0
          </coordinates>
        </Point>
      </Placemark>
      <Placemark>
        <name>Willys Åkersberga Runö</name>
        <description>Willys Åkersberga Runö, Åkersberga</description>
        <styleUrl>#icon-22</styleUrl>
        <Point>
          <coordinates>
            18.277,59.4886,0
          </coordinates>
        </Point>
      </Placemark>
      <Placemark>
        <name>Willys Visby</name>
        <description>Willys Visby, Visby</description>
        <styleUrl>#icon-22</styleUrl>
        <Point>
          <coordinates>
            18.3277,57.6361,0
          </coordinates>
        </Point>
      </Placemark>
      <Placemark>
        <name>Willys Hemma Östhammar</name>
        <description>Willys Hemma Östhammar, Östhammar</description>
        <styleUrl>#icon-22</styleUrl>
        <Point>
          <coordinates>
            18.3617,60.2608,0
          </coordinates>
        </Point>
      </Placemark>
      <Placemark>
        <name>Willys Stockholm Värmdö Mölnvik</name>
        <description>Willys Stockholm Värmdö Mölnvik, Gustavsberg</description>
        <styleUrl>#icon-22</styleUrl>
        <Point>
          <coordinates>
            18.4309,59.3135,0
          </coordinates>
        </Point>
      </Placemark>
      <Placemark>
        <name>Willys Norrtälje</name>
        <description>Willys Norrtälje, Norrtälje</description>
        <styleUrl>#icon-22</styleUrl>
        <Point>
          <coordinates>
            18.6964,59.7675,0
          </coordinates>
        </Point>
      </Placemark>
      <Placemark>
        <name>Willys Örnsköldsvik</name>
        <description>Willys Örnsköldsvik, Örnsköldsvik</description>
        <styleUrl>#icon-22</styleUrl>
        <Point>
          <coordinates>
            18.744,63.3051,0
          </coordinates>
        </Point>
      </Placemark>
      <Placemark>
        <name>Willys Umeå Syd</name>
        <description>Willys Umeå Syd, Umeå</description>
        <styleUrl>#icon-22</styleUrl>
        <Point>
          <coordinates>
            20.2533,63.8064,0
          </coordinates>
        </Point>
      </Placemark>
      <Placemark>
        <name>Willys Umeå Ersboda</name>
        <description>Willys Umeå Ersboda, Umeå</description>
        <styleUrl>#icon-22</styleUrl>
        <Point>
          <coordinates>
            20.3019,63.8546,0
          </coordinates>
        </Point>
      </Placemark>
      <Placemark>
        <name>Willys Skellefteå Anderstorp</name>
        <description>Willys Skellefteå Anderstorp, Skellefteå</description>
        <styleUrl>#icon-22</styleUrl>
        <Point>
          <coordinates>
            20.9633,64.7426,0
          </coordinates>
        </Point>
      </Placemark>
      <Placemark>
        <name>Willys Skellefteå Solbacken</name>
        <description>Willys Skellefteå Solbacken, Skellefteå</description>
        <styleUrl>#icon-22</styleUrl>
        <Point>
          <coordinates>
            21.0225,64.7666,0
          </coordinates>
        </Point>
      </Placemark>
      <Placemark>
        <name>Willys Piteå</name>
        <description>Willys Piteå, Piteå</description>
        <styleUrl>#icon-22</styleUrl>
        <Point>
          <coordinates>
            21.4393,65.3242,0
          </coordinates>
        </Point>
      </Placemark>
      <Placemark>
        <name>Willys Boden</name>
        <description>Willys Boden, Boden</description>
        <styleUrl>#icon-22</styleUrl>
        <Point>
          <coordinates>
            21.7079,65.8158,0
          </coordinates>
        </Point>
      </Placemark>
      <Placemark>
        <name>Willys Luleå Storheden</name>
        <description>Willys Luleå Storheden, Luleå</description>
        <styleUrl>#icon-22</styleUrl>
        <Point>
          <coordinates>
            22.0533,65.6205,0
          </coordinates>
        </Point>
      </Placemark>
      <Placemark>
        <name>Willys Luleå Hamn</name>
        <description>Willys Luleå Hamn, Luleå</description>
        <styleUrl>#icon-22</styleUrl>
        <Point>
          <coordinates>
            22.1167,65.5822,0
          </coordinates>
        </Point>
      </Placemark>
      <Placemark>
        <name>Willys Hemma Kalix</name>
        <description>Willys Hemma Kalix, Kalix</description>
        <styleUrl>#icon-22</styleUrl>
        <Point>
          <coordinates>
            23.1395,65.8551,0
          </coordinates>
        </Point>
      </Placemark>
    </Folder>
  </Document>
</kml>