<?xml version="1.0" encoding="UTF-8"?>
<kml xmlns="http://www.opengis.net/kml/2.2">
  <Document>
    <name><![CDATA[Willys]]></name>
    <description/>
    <Style id="icon-22-normal"><IconStyle><scale>1.1</scale><Icon><href>https://www.gstatic.com/mapspro/images/stock/22-blue-dot.png</href></Icon><hotSpot x="16" xunits="pixels" y="32" yunits="insetPixels"/></IconStyle><LabelStyle><scale>0</scale></LabelStyle></Style>
    <Style id="icon-22-highlight"><IconStyle><scale>1.1</scale><Icon><href>https://www.gstatic.com/mapspro/images/stock/22-blue-dot.png</href></Icon><hotSpot x="16" xunits="pixels" y="32" yunits="insetPixels"/></IconStyle><LabelStyle><scale>1.1</scale></LabelStyle></Style>
    <StyleMap id="icon-22"><Pair><key>normal</key><styleUrl>#icon-22-normal</styleUrl></Pair><Pair><key>highlight</key><styleUrl>#icon-22-highlight</styleUrl></Pair></StyleMap>
    <Folder>
      <name><![CDATA[Willys]]></name>
      <Placemark>
        <name><![CDATA[Willys Strömstad Shoppingcenter]]></name>
        <description><![CDATA[Willys Strömstad Shoppingcenter, Strömstad]]></description>
        <Point><coordinates>11.1895,58.9466,0</coordinates></Point>
        <styleUrl>#icon-22</styleUrl>
      </Placemark>
      <Placemark>
        <name><![CDATA[Willys Hemma Henån]]></name>
        <description><![CDATA[Willys Hemma Henån, Henån]]></description>
        <Point><coordinates>11.6808,58.2357,0</coordinates></Point>
        <styleUrl>#icon-22</styleUrl>
      </Placemark>
      <Placemark>
        <name><![CDATA[Willys Hemma Göteborg Torslanda]]></name>
        <description><![CDATA[Willys Hemma Göteborg Torslanda, Torslanda]]></description>
        <Point><coordinates>11.7701,57.7308,0</coordinates></Point>
        <styleUrl>#icon-22</styleUrl>
      </Placemark>
      <Placemark>
        <name><![CDATA[Willys Torslanda]]></name>
        <description><![CDATA[Willys Torslanda, Torslanda]]></description>
        <Point><coordinates>11.7785,57.7089,0</coordinates></Point>
        <styleUrl>#icon-22</styleUrl>
      </Placemark>
      <Placemark>
        <name><![CDATA[Willys Stenungsund Strandvägen]]></name>
        <description><![CDATA[Willys Stenungsund Strandvägen, Stenungsund]]></description>
        <Point><coordinates>11.8212,58.0746,0</coordinates></Point>
        <styleUrl>#icon-22</styleUrl>
      </Placemark>
      <Placemark>
        <name><![CDATA[Willys Hemma Göteborg Påvelund]]></name>
        <description><![CDATA[Willys Hemma Göteborg Påvelund, Västra Frölunda]]></description>
        <Point><coordinates>11.8745,57.6647,0</coordinates></Point>
        <styleUrl>#icon-22</styleUrl>
      </Placemark>
      <Placemark>
        <name><![CDATA[Willys Hemma Göteborg Friskväderstorget]]></name>
        <description><![CDATA[Willys Hemma Göteborg Friskväderstorget, Göteborg]]></description>
        <Point><coordinates>11.892,57.7239,0</coordinates></Point>
        <styleUrl>#icon-22</styleUrl>
      </Placemark>
      <Placemark>
        <name><![CDATA[Willys Hemma Göteborg Vårväderstorget]]></name>
        <description><![CDATA[Willys Hemma Göteborg Vårväderstorget, Göteborg]]></description>
        <Point><coordinates>11.8923,57.7124,0</coordinates></Point>
        <styleUrl>#icon-22</styleUrl>
      </Placemark>
      <Placemark>
        <name><![CDATA[Willys Hemma Göteborg Kaverös]]></name>
        <description><![CDATA[Willys Hemma Göteborg Kaverös, Västra Frölunda]]></description>
        <Point><coordinates>11.9206,57.6651,0</coordinates></Point>
        <styleUrl>#icon-22</styleUrl>
      </Placemark>
      <Placemark>
        <name><![CDATA[Willys Hemma Göteborg Tuve]]></name>
        <description><![CDATA[Willys Hemma Göteborg Tuve, Göteborg]]></description>
        <Point><coordinates>11.9273,57.7546,0</coordinates></Point>
        <styleUrl>#icon-22</styleUrl>
      </Placemark>
      <Placemark>
        <name><![CDATA[Willys Hemma Ed]]></name>
        <description><![CDATA[Willys Hemma Ed, Ed]]></description>
        <Point><coordinates>11.9318,58.9122,0</coordinates></Point>
        <styleUrl>#icon-22</styleUrl>
      </Placemark>
      <Placemark>
        <name><![CDATA[Willys Uddevalla C]]></name>
        <description><![CDATA[Willys Uddevalla C, Uddevalla]]></description>
        <Point><coordinates>11.9331,58.3506,0</coordinates></Point>
        <styleUrl>#icon-22</styleUrl>
      </Placemark>
      <Placemark>
        <name><![CDATA[Willys Hemma Göteborg Majorna]]></name>
        <description><![CDATA[Willys Hemma Göteborg Majorna, Göteborg]]></description>
        <Point><coordinates>11.9341,57.6962,0</coordinates></Point>
        <styleUrl>#icon-22</styleUrl>
      </Placemark>
      <Placemark>
        <name><![CDATA[Willys Göteborg Wieselgrensplatsen]]></name>
        <description><![CDATA[Willys Göteborg Wieselgrensplatsen, Göteborg]]></description>
        <Point><coordinates>11.9373,57.7216,0</coordinates></Point>
        <styleUrl>#icon-22</styleUrl>
      </Placemark>
      <Placemark>
        <name><![CDATA[Willys E-handel Göteborg]]></name>
        <description><![CDATA[Willys E-handel Göteborg, Västra Frölunda]]></description>
        <Point><coordinates>11.9443,57.6509,0</coordinates></Point>
        <styleUrl>#icon-22</styleUrl>
      </Placemark>
      <Placemark>
        <name><![CDATA[Willys Hemma Göteborg Kvilletorget]]></name>
        <description><![CDATA[Willys Hemma Göteborg Kvilletorget, Göteborg]]></description>
        <Point><coordinates>11.9471,57.7194,0</coordinates></Point>
        <styleUrl>#icon-22</styleUrl>
      </Placemark>
      <Placemark>
        <name><![CDATA[Willys Hemma Göteborg Vegastaden]]></name>
        <description><![CDATA[Willys Hemma Göteborg Vegastaden, Göteborg]]></description>
        <Point><coordinates>11.9473,57.6934,0</coordinates></Point>
        <styleUrl>#icon-22</styleUrl>
      </Placemark>
      <Placemark>
        <name><![CDATA[Willys Hemma Göteborg Första Långg]]></name>
        <description><![CDATA[Willys Hemma Göteborg Första Långg, Göteborg]]></description>
        <Point><coordinates>11.9486,57.6996,0</coordinates></Point>
        <styleUrl>#icon-22</styleUrl>
      </Placemark>
      <Placemark>
        <name><![CDATA[Willys Göteborg Sisjön]]></name>
        <description><![CDATA[Willys Göteborg Sisjön, Askim]]></description>
        <Point><coordinates>11.9522,57.6392,0</coordinates></Point>
        <styleUrl>#icon-22</styleUrl>
      </Placemark>
      <Placemark>
        <name><![CDATA[Willys Göteborg Hvitfeldtsplatsen]]></name>
        <description><![CDATA[Willys Göteborg Hvitfeldtsplatsen, Göteborg]]></description>
        <Point><coordinates>11.9613,57.7016,0</coordinates></Point>
        <styleUrl>#icon-22</styleUrl>
      </Placemark>
      <Placemark>
        <name><![CDATA[Willys Kungälv Komarken]]></name>
        <description><![CDATA[Willys Kungälv Komarken, Kungälv]]></description>
        <Point><coordinates>11.967,57.87,0</coordinates></Point>
        <styleUrl>#icon-22</styleUrl>
      </Placemark>
      <Placemark>
        <name><![CDATA[Willys Hemma Göteborg Sten Sturegatan]]></name>
        <description><![CDATA[Willys Hemma Göteborg Sten Sturegatan, Göteborg]]></description>
        <Point><coordinates>11.9842,57.701,0</coordinates></Point>
        <styleUrl>#icon-22</styleUrl>
      </Placemark>
      <Placemark>
        <name><![CDATA[Willys Hemma Göteborg Johanneberg]]></name>
        <description><![CDATA[Willys Hemma Göteborg Johanneberg, Göteborg]]></description>
        <Point><coordinates>11.9858,57.6874,0</coordinates></Point>
        <styleUrl>#icon-22</styleUrl>
      </Placemark>
      <Placemark>
        <name><![CDATA[Willys Hemma Utlandagatan]]></name>
        <description><![CDATA[Willys Hemma Utlandagatan, Göteborg]]></description>
        <Point><coordinates>11.9899,57.6897,0</coordinates></Point>
        <styleUrl>#icon-22</styleUrl>
      </Placemark>
      <Placemark>
        <name><![CDATA[Willys Göteborg Elisedal]]></name>
        <description><![CDATA[Willys Göteborg Elisedal, Göteborg]]></description>
        <Point><coordinates>12.0002,57.6822,0</coordinates></Point>
        <styleUrl>#icon-22</styleUrl>
      </Placemark>
      <Placemark>
        <name><![CDATA[Willys Göteborg Gamlestaden]]></name>
        <description><![CDATA[Willys Göteborg Gamlestaden, Göteborg]]></description>
        <Point><coordinates>12.0064,57.7319,0</coordinates></Point>
        <styleUrl>#icon-22</styleUrl>
      </Placemark>
      <Placemark>
        <name><![CDATA[Willys Hemma Göteborg Björkekärr]]></name>
        <description><![CDATA[Willys Hemma Göteborg Björkekärr, Göteborg]]></description>
        <Point><coordinates>12.038,57.7149,0</coordinates></Point>
        <styleUrl>#icon-22</styleUrl>
      </Placemark>
      <Placemark>
        <name><![CDATA[Willys Hemma Göteborg Lövgärdet]]></name>
        <description><![CDATA[Willys Hemma Göteborg Lövgärdet, Angered]]></description>
        <Point><coordinates>12.0406,57.8166,0</coordinates></Point>
        <styleUrl>#icon-22</styleUrl>
      </Placemark>
      <Placemark>
        <name><![CDATA[Willys Kållered Eken]]></name>
        <description><![CDATA[Willys Kållered Eken, Kållered]]></description>
        <Point><coordinates>12.0484,57.6009,0</coordinates></Point>
        <styleUrl>#icon-22</styleUrl>
      </Placemark>
      <Placemark>
        <name><![CDATA[Willys Hemma Göteborg Sävedalen]]></name>
        <description><![CDATA[Willys Hemma Göteborg Sävedalen, Sävedalen]]></description>
        <Point><coordinates>12.0765,57.7332,0</coordinates></Point>
        <styleUrl>#icon-22</styleUrl>
      </Placemark>
      <Placemark>
        <name><![CDATA[Willys Kungsbacka Södercity]]></name>
        <description><![CDATA[Willys Kungsbacka Södercity, Kungsbacka]]></description>
        <Point><coordinates>12.0814,57.4781,0</coordinates></Point>
        <styleUrl>#icon-22</styleUrl>
      </Placemark>
      <Placemark>
        <name><![CDATA[Willys Kungsbacka Hede]]></name>
        <description><![CDATA[Willys Kungsbacka Hede, Kungsbacka]]></description>
        <Point><coordinates>12.082,57.5117,0</coordinates></Point>
        <styleUrl>#icon-22</styleUrl>
      </Placemark>
      <Placemark>
        <name><![CDATA[Willys Partille C]]></name>
        <description><![CDATA[Willys Partille C, Partille]]></description>
        <Point><coordinates>12.1064,57.7399,0</coordinates></Point>
        <styleUrl>#icon-22</styleUrl>
      </Placemark>
      <Placemark>
        <name><![CDATA[Willys Älvängen Handelsplats]]></name>
        <description><![CDATA[Willys Älvängen Handelsplats, Älvängen]]></description>
        <Point><coordinates>12.1292,57.9625,0</coordinates></Point>
        <styleUrl>#icon-22</styleUrl>
      </Placemark>
      <Placemark>
        <name><![CDATA[Willys Landvetter]]></name>
        <description><![CDATA[Willys Landvetter, Landvetter]]></description>
        <Point><coordinates>12.2097,57.6898,0</coordinates></Point>
        <styleUrl>#icon-22</styleUrl>
      </Placemark>
      <Placemark>
        <name><![CDATA[Willys Varberg]]></name>
        <description><![CDATA[Willys Varberg, Varberg]]></description>
        <Point><coordinates>12.2687,57.1023,0</coordinates></Point>
        <styleUrl>#icon-22</styleUrl>
      </Placemark>
      <Placemark>
        <name><![CDATA[Willys Trollhättan Hojum]]></name>
        <description><![CDATA[Willys Trollhättan Hojum, Trollhättan]]></description>
        <Point><coordinates>12.3167,58.2782,0</coordinates></Point>
        <styleUrl>#icon-22</styleUrl>
      </Placemark>
      <Placemark>
        <name><![CDATA[Willys Vänersborg Trenova Center]]></name>
        <description><![CDATA[Willys Vänersborg Trenova Center, Vänersborg]]></description>
        <Point><coordinates>12.331,58.3789,0</coordinates></Point>
        <styleUrl>#icon-22</styleUrl>
      </Placemark>
      <Placemark>
        <name><![CDATA[Willys Falkenberg Tånga]]></name>
        <description><![CDATA[Willys Falkenberg Tånga, Falkenberg]]></description>
        <Point><coordinates>12.505,56.9162,0</coordinates></Point>
        <styleUrl>#icon-22</styleUrl>
      </Placemark>
      <Placemark>
        <name><![CDATA[Willys Alingsås Hagaplan]]></name>
        <description><![CDATA[Willys Alingsås Hagaplan, Alingsås]]></description>
        <Point><coordinates>12.5333,57.9374,0</coordinates></Point>
        <styleUrl>#icon-22</styleUrl>
      </Placemark>
      <Placemark>
        <name><![CDATA[Willys Skene C]]></name>
        <description><![CDATA[Willys Skene C, Skene]]></description>
        <Point><coordinates>12.6482,57.4858,0</coordinates></Point>
        <styleUrl>#icon-22</styleUrl>
      </Placemark>
      <Placemark>
        <name><![CDATA[Willys Åmål Rondellen]]></name>
        <description><![CDATA[Willys Åmål Rondellen, Åmål]]></description>
        <Point><coordinates>12.6758,59.0551,0</coordinates></Point>
        <styleUrl>#icon-22</styleUrl>
      </Placemark>
      <Placemark>
        <name><![CDATA[Willys Helsingborg Planteringen]]></name>
        <description><![CDATA[Willys Helsingborg Planteringen, Helsingborg]]></description>
        <Point><coordinates>12.7206,56.0229,0</coordinates></Point>
        <styleUrl>#icon-22</styleUrl>
      </Placemark>
      <Placemark>
        <name><![CDATA[Willys Hemma Helsingborg]]></name>
        <description><![CDATA[Willys Hemma Helsingborg, Helsingborg]]></description>
        <Point><coordinates>12.7269,56.0504,0</coordinates></Point>
        <styleUrl>#icon-22</styleUrl>
      </Placemark>
      <Placemark>
        <name><![CDATA[Willys Helsingborg Väla]]></name>
        <description><![CDATA[Willys Helsingborg Väla, Helsingborg]]></description>
        <Point><coordinates>12.7501,56.0913,0</coordinates></Point>
        <styleUrl>#icon-22</styleUrl>
      </Placemark>
      <Placemark>
        <name><![CDATA[Willys Vårgårda Torggatan]]></name>
        <description><![CDATA[Willys Vårgårda Torggatan, Vårgårda]]></description>
        <Point><coordinates>12.8049,58.0322,0</coordinates></Point>
        <styleUrl>#icon-22</styleUrl>
      </Placemark>
      <Placemark>
        <name><![CDATA[Willys Halmstad Flygstaden]]></name>
        <description><![CDATA[Willys Halmstad Flygstaden, Halmstad]]></description>
        <Point><coordinates>12.805,56.6765,0</coordinates></Point>
        <styleUrl>#icon-22</styleUrl>
      </Placemark>
      <Placemark>
        <name><![CDATA[Willys Landskrona Infarten]]></name>
        <description><![CDATA[Willys Landskrona Infarten, Landskrona]]></description>
        <Point><coordinates>12.8488,55.8706,0</coordinates></Point>
        <styleUrl>#icon-22</styleUrl>
      </Placemark>
      <Placemark>
        <name><![CDATA[Willys Halmstad Öster]]></name>
        <description><![CDATA[Willys Halmstad Öster, Halmstad]]></description>
        <Point><coordinates>12.8713,56.6698,0</coordinates></Point>
        <styleUrl>#icon-22</styleUrl>
      </Placemark>
      <Placemark>
        <name><![CDATA[Willys Båstad]]></name>
        <description><![CDATA[Willys Båstad, Båstad]]></description>
        <Point><coordinates>12.8861,56.4261,0</coordinates></Point>
        <styleUrl>#icon-22</styleUrl>
      </Placemark>
      <Placemark>
        <name><![CDATA[Willys Ängelholm Brännborn Center]]></name>
        <description><![CDATA[Willys Ängelholm Brännborn Center, Ängelholm]]></description>
        <Point><coordinates>12.8903,56.2548,0</coordinates></Point>
        <styleUrl>#icon-22</styleUrl>
      </Placemark>
      <Placemark>
        <name><![CDATA[Willys Hemma Säffle Station]]></name>
        <description><![CDATA[Willys Hemma Säffle Station, Säffle]]></description>
        <Point><coordinates>12.9163,59.1309,0</coordinates></Point>
        <styleUrl>#icon-22</styleUrl>
      </Placemark>
      <Placemark>
        <name><![CDATA[Willys Borås Knalleland]]></name>
        <description><![CDATA[Willys Borås Knalleland, Borås]]></description>
        <Point><coordinates>12.9331,57.7339,0</coordinates></Point>
        <styleUrl>#icon-22</styleUrl>
      </Placemark>
      <Placemark>
        <name><![CDATA[Willys Malmö Limhamn]]></name>
        <description><![CDATA[Willys Malmö Limhamn, Limhamn]]></description>
        <Point><coordinates>12.9361,55.5819,0</coordinates></Point>
        <styleUrl>#icon-22</styleUrl>
      </Placemark>
      <Placemark>
        <name><![CDATA[Vara Axet]]></name>
        <description><![CDATA[Vara Axet, Vara]]></description>
        <Point><coordinates>12.9584,58.2573,0</coordinates></Point>
        <styleUrl>#icon-22</styleUrl>
      </Placemark>
      <Placemark>
        <name><![CDATA[Willys Malmö Emporia]]></name>
        <description><![CDATA[Willys Malmö Emporia, Malmö]]></description>
        <Point><coordinates>12.9735,55.5643,0</coordinates></Point>
        <styleUrl>#icon-22</styleUrl>
      </Placemark>
      <Placemark>
        <name><![CDATA[Willys Löddeköpinge]]></name>
        <description><![CDATA[Willys Löddeköpinge, Löddeköpinge]]></description>
        <Point><coordinates>12.9936,55.7691,0</coordinates></Point>
        <styleUrl>#icon-22</styleUrl>
      </Placemark>
      <Placemark>
        <name><![CDATA[Willys Hemma Malmö Lugnet]]></name>
        <description><![CDATA[Willys Hemma Malmö Lugnet, Malmö]]></description>
        <Point><coordinates>13.0012,55.5988,0</coordinates></Point>
        <styleUrl>#icon-22</styleUrl>
      </Placemark>
      <Placemark>
        <name><![CDATA[Willys Malmö Mobilia]]></name>
        <description><![CDATA[Willys Malmö Mobilia, Malmö]]></description>
        <Point><coordinates>13.0041,55.5811,0</coordinates></Point>
        <styleUrl>#icon-22</styleUrl>
      </Placemark>
      <Placemark>
        <name><![CDATA[Willys Hemma Malmö Möllevången]]></name>
        <description><![CDATA[Willys Hemma Malmö Möllevången, Malmö]]></description>
        <Point><coordinates>13.0083,55.5902,0</coordinates></Point>
        <styleUrl>#icon-22</styleUrl>
      </Placemark>
      <Placemark>
        <name><![CDATA[Willys Hemma Malmö Söderkulla]]></name>
        <description><![CDATA[Willys Hemma Malmö Söderkulla, Malmö]]></description>
        <Point><coordinates>13.0089,55.5704,0</coordinates></Point>
        <styleUrl>#icon-22</styleUrl>
      </Placemark>
      <Placemark>
        <name><![CDATA[Willys Hemma Malmö Lindängen]]></name>
        <description><![CDATA[Willys Hemma Malmö Lindängen, Malmö]]></description>
        <Point><coordinates>13.0144,55.559,0</coordinates></Point>
        <styleUrl>#icon-22</styleUrl>
      </Placemark>
      <Placemark>
        <name><![CDATA[Willys Hemma Laholm]]></name>
        <description><![CDATA[Willys Hemma Laholm, Laholm]]></description>
        <Point><coordinates>13.0168,56.5009,0</coordinates></Point>
        <styleUrl>#icon-22</styleUrl>
      </Placemark>
      <Placemark>
        <name><![CDATA[Willys Vellinge Kompanigatan]]></name>
        <description><![CDATA[Willys Vellinge Kompanigatan, Vellinge]]></description>
        <Point><coordinates>13.0193,55.4751,0</coordinates></Point>
        <styleUrl>#icon-22</styleUrl>
      </Placemark>
      <Placemark>
        <name><![CDATA[Willys Malmö Katrinelund]]></name>
        <description><![CDATA[Willys Malmö Katrinelund, Malmö]]></description>
        <Point><coordinates>13.0335,55.5995,0</coordinates></Point>
        <styleUrl>#icon-22</styleUrl>
      </Placemark>
      <Placemark>
        <name><![CDATA[Willys Hemma Lomma Centrum]]></name>
        <description><![CDATA[Willys Hemma Lomma Centrum, Lomma]]></description>
        <Point><coordinates>13.0705,55.6735,0</coordinates></Point>
        <styleUrl>#icon-22</styleUrl>
      </Placemark>
      <Placemark>
        <name><![CDATA[Willys Burlöv Center]]></name>
        <description><![CDATA[Willys Burlöv Center, Arlöv]]></description>
        <Point><coordinates>13.0844,55.6404,0</coordinates></Point>
        <styleUrl>#icon-22</styleUrl>
      </Placemark>
      <Placemark>
        <name><![CDATA[Willys Trelleborg Väst]]></name>
        <description><![CDATA[Willys Trelleborg Väst, Trelleborg]]></description>
        <Point><coordinates>13.135,55.3839,0</coordinates></Point>
        <styleUrl>#icon-22</styleUrl>
      </Placemark>
      <Placemark>
        <name><![CDATA[Willys Lidköping Framnäs]]></name>
        <description><![CDATA[Willys Lidköping Framnäs, Lidköping]]></description>
        <Point><coordinates>13.146,58.5088,0</coordinates></Point>
        <styleUrl>#icon-22</styleUrl>
      </Placemark>
      <Placemark>
        <name><![CDATA[Willys Hemma Lund Stortorget]]></name>
        <description><![CDATA[Willys Hemma Lund Stortorget, Lund]]></description>
        <Point><coordinates>13.1924,55.7025,0</coordinates></Point>
        <styleUrl>#icon-22</styleUrl>
      </Placemark>
      <Placemark>
        <name><![CDATA[Willys Lund]]></name>
        <description><![CDATA[Willys Lund, Lund]]></description>
        <Point><coordinates>13.2214,55.72,0</coordinates></Point>
        <styleUrl>#icon-22</styleUrl>
      </Placemark>
      <Placemark>
        <name><![CDATA[Willys Staffanstorp Rondellen]]></name>
        <description><![CDATA[Willys Staffanstorp Rondellen, Staffanstorp]]></description>
        <Point><coordinates>13.2325,55.6448,0</coordinates></Point>
        <styleUrl>#icon-22</styleUrl>
      </Placemark>
      <Placemark>
        <name><![CDATA[Willys Hemma Kil]]></name>
        <description><![CDATA[Willys Hemma Kil, Kil]]></description>
        <Point><coordinates>13.3169,59.4998,0</coordinates></Point>
        <styleUrl>#icon-22</styleUrl>
      </Placemark>
      <Placemark>
        <name><![CDATA[Willys Eslöv]]></name>
        <description><![CDATA[Willys Eslöv, Eslöv]]></description>
        <Point><coordinates>13.3238,55.8418,0</coordinates></Point>
        <styleUrl>#icon-22</styleUrl>
      </Placemark>
      <Placemark>
        <name><![CDATA[Willys Tranemo Västra]]></name>
        <description><![CDATA[Willys Tranemo Västra, Tranemo]]></description>
        <Point><coordinates>13.3402,57.4884,0</coordinates></Point>
        <styleUrl>#icon-22</styleUrl>
      </Placemark>
      <Placemark>
        <name><![CDATA[Willys Hemma Ulricehamn]]></name>
        <description><![CDATA[Willys Hemma Ulricehamn, Ulricehamn]]></description>
        <Point><coordinates>13.4095,57.7895,0</coordinates></Point>
        <styleUrl>#icon-22</styleUrl>
      </Placemark>
      <Placemark>
        <name><![CDATA[Willys Hemma Skara Hötorget]]></name>
        <description><![CDATA[Willys Hemma Skara Hötorget, Skara]]></description>
        <Point><coordinates>13.4353,58.3849,0</coordinates></Point>
        <styleUrl>#icon-22</styleUrl>
      </Placemark>
      <Placemark>
        <name><![CDATA[Willys Karlstad]]></name>
        <description><![CDATA[Willys Karlstad, Karlstad]]></description>
        <Point><coordinates>13.4818,59.3877,0</coordinates></Point>
        <styleUrl>#icon-22</styleUrl>
      </Placemark>
      <Placemark>
        <name><![CDATA[Willys Skurup Handelsplats]]></name>
        <description><![CDATA[Willys Skurup Handelsplats, Skurup]]></description>
        <Point><coordinates>13.4876,55.4915,0</coordinates></Point>
        <styleUrl>#icon-22</styleUrl>
      </Placemark>
      <Placemark>
        <name><![CDATA[Willys Karlstad Bryggudden]]></name>
        <description><![CDATA[Willys Karlstad Bryggudden, Karlstad]]></description>
        <Point><coordinates>13.5082,59.3772,0</coordinates></Point>
        <styleUrl>#icon-22</styleUrl>
      </Placemark>
      <Placemark>
        <name><![CDATA[Willys Gislaved Smålandia]]></name>
        <description><![CDATA[Willys Gislaved Smålandia, Gislaved]]></description>
        <Point><coordinates>13.5433,57.3183,0</coordinates></Point>
        <styleUrl>#icon-22</styleUrl>
      </Placemark>
      <Placemark>
        <name><![CDATA[Willys Falköping Ålleberg Center]]></name>
        <description><![CDATA[Willys Falköping Ålleberg Center, Falköping]]></description>
        <Point><coordinates>13.56,58.1486,0</coordinates></Point>
        <styleUrl>#icon-22</styleUrl>
      </Placemark>
      <Placemark>
        <name><![CDATA[Willys Hemma Gnosjö]]></name>
        <description><![CDATA[Willys Hemma Gnosjö, Gnosjö]]></description>
        <Point><coordinates>13.7422,57.3538,0</coordinates></Point>
        <styleUrl>#icon-22</styleUrl>
      </Placemark>
      <Placemark>
        <name><![CDATA[Willys Hässleholm Läreda]]></name>
        <description><![CDATA[Willys Hässleholm Läreda, Hässleholm]]></description>
        <Point><coordinates>13.7885,56.1658,0</coordinates></Point>
        <styleUrl>#icon-22</styleUrl>
      </Placemark>
      <Placemark>
        <name><![CDATA[Willys Mariestad Haggården]]></name>
        <description><![CDATA[Willys Mariestad Haggården, Mariestad]]></description>
        <Point><coordinates>13.8163,58.682,0</coordinates></Point>
        <styleUrl>#icon-22</styleUrl>
      </Placemark>
      <Placemark>
        <name><![CDATA[Willys Ystad]]></name>
        <description><![CDATA[Willys Ystad, Ystad]]></description>
        <Point><coordinates>13.8338,55.4389,0</coordinates></Point>
        <styleUrl>#icon-22</styleUrl>
      </Placemark>
      <Placemark>
        <name><![CDATA[Willys Skövde Stallsiken]]></name>
        <description><![CDATA[Willys Skövde Stallsiken, Skövde]]></description>
        <Point><coordinates>13.8815,58.4113,0</coordinates></Point>
        <styleUrl>#icon-22</styleUrl>
      </Placemark>
      <Placemark>
        <name><![CDATA[Willys Ljungby]]></name>
        <description><![CDATA[Willys Ljungby, Ljungby]]></description>
        <Point><coordinates>13.9325,56.8319,0</coordinates></Point>
        <styleUrl>#icon-22</styleUrl>
      </Placemark>
      <Placemark>
        <name><![CDATA[Willys Värnamo Gröndal]]></name>
        <description><![CDATA[Willys Värnamo Gröndal, Värnamo]]></description>
        <Point><coordinates>14.027,57.184,0</coordinates></Point>
        <styleUrl>#icon-22</styleUrl>
      </Placemark>
      <Placemark>
        <name><![CDATA[Willys Habo Kärnekulla]]></name>
        <description><![CDATA[Willys Habo Kärnekulla, Habo]]></description>
        <Point><coordinates>14.1021,57.8982,0</coordinates></Point>
        <styleUrl>#icon-22</styleUrl>
      </Placemark>
      <Placemark>
        <name><![CDATA[Willys Kristianstad Långebro]]></name>
        <description><![CDATA[Willys Kristianstad Långebro, Kristianstad]]></description>
        <Point><coordinates>14.1409,56.0238,0</coordinates></Point>
        <styleUrl>#icon-22</styleUrl>
      </Placemark>
      <Placemark>
        <name><![CDATA[Willys Jönköping Råslätt]]></name>
        <description><![CDATA[Willys Jönköping Råslätt, Jönköping]]></description>
        <Point><coordinates>14.1519,57.7395,0</coordinates></Point>
        <styleUrl>#icon-22</styleUrl>
      </Placemark>
      <Placemark>
        <name><![CDATA[Willys Hemma Jönköping Torpa]]></name>
        <description><![CDATA[Willys Hemma Jönköping Torpa, Jönköping]]></description>
        <Point><coordinates>14.1524,57.7717,0</coordinates></Point>
        <styleUrl>#icon-22</styleUrl>
      </Placemark>
      <Placemark>
        <name><![CDATA[Willys Hemma Kristianstad]]></name>
        <description><![CDATA[Willys Hemma Kristianstad, Kristianstad]]></description>
        <Point><coordinates>14.1595,56.0355,0</coordinates></Point>
        <styleUrl>#icon-22</styleUrl>
      </Placemark>
      <Placemark>
        <name><![CDATA[Willys Älmhult]]></name>
        <description><![CDATA[Willys Älmhult, Älmhult]]></description>
        <Point><coordinates>14.1608,56.5516,0</coordinates></Point>
        <styleUrl>#icon-22</styleUrl>
      </Placemark>
      <Placemark>
        <name><![CDATA[Willys Jönköping A6]]></name>
        <description><![CDATA[Willys Jönköping A6, Jönköping]]></description>
        <Point><coordinates>14.2025,57.7694,0</coordinates></Point>
        <styleUrl>#icon-22</styleUrl>
      </Placemark>
      <Placemark>
        <name><![CDATA[Willys Jönköping Österängen]]></name>
        <description><![CDATA[Willys Jönköping Österängen, Jönköping]]></description>
        <Point><coordinates>14.2432,57.7869,0</coordinates></Point>
        <styleUrl>#icon-22</styleUrl>
      </Placemark>
      <Placemark>
        <name><![CDATA[Willys Huskvarna]]></name>
        <description><![CDATA[Willys Huskvarna, Huskvarna]]></description>
        <Point><coordinates>14.2759,57.7909,0</coordinates></Point>
        <styleUrl>#icon-22</styleUrl>
      </Placemark>
      <Placemark>
        <name><![CDATA[Willys Åhus Rondellen]]></name>
        <description><![CDATA[Willys Åhus Rondellen, Åhus]]></description>
        <Point><coordinates>14.2877,55.9306,0</coordinates></Point>
        <styleUrl>#icon-22</styleUrl>
      </Placemark>
      <Placemark>
        <name><![CDATA[Willys Simrishamn Skanshill]]></name>
        <description><![CDATA[Willys Simrishamn Skanshill, Simrishamn]]></description>
        <Point><coordinates>14.3473,55.5518,0</coordinates></Point>
        <styleUrl>#icon-22</styleUrl>
      </Placemark>
      <Placemark>
        <name><![CDATA[Willys Karlskoga C]]></name>
        <description><![CDATA[Willys Karlskoga C, Karlskoga]]></description>
        <Point><coordinates>14.5248,59.3256,0</coordinates></Point>
        <styleUrl>#icon-22</styleUrl>
      </Placemark>
      <Placemark>
        <name><![CDATA[Willys Olofström]]></name>
        <description><![CDATA[Willys Olofström, Olofström]]></description>
        <Point><coordinates>14.5368,56.2779,0</coordinates></Point>
        <styleUrl>#icon-22</styleUrl>
      </Placemark>
      <Placemark>
        <name><![CDATA[Willys Hemma Alvesta]]></name>
        <description><![CDATA[Willys Hemma Alvesta, Alvesta]]></description>
        <Point><coordinates>14.5581,56.9023,0</coordinates></Point>
        <styleUrl>#icon-22</styleUrl>
      </Placemark>
      <Placemark>
        <name><![CDATA[Willys Mora]]></name>
        <description><![CDATA[Willys Mora, Mora]]></description>
        <Point><coordinates>14.5878,61.0085,0</coordinates></Point>
        <styleUrl>#icon-22</styleUrl>
      </Placemark>
      <Placemark>
        <name><![CDATA[Willys Hemma Orsa]]></name>
        <description><![CDATA[Willys Hemma Orsa, Orsa]]></description>
        <Point><coordinates>14.6253,61.1161,0</coordinates></Point>
        <styleUrl>#icon-22</styleUrl>
      </Placemark>
      <Placemark>
        <name><![CDATA[Willys Östersund Storsjö]]></name>
        <description><![CDATA[Willys Östersund Storsjö, Östersund]]></description>
        <Point><coordinates>14.6547,63.163,0</coordinates></Point>
        <styleUrl>#icon-22</styleUrl>
      </Placemark>
      <Placemark>
        <name><![CDATA[Willys Nässjö Almenäs]]></name>
        <description><![CDATA[Willys Nässjö Almenäs, Nässjö]]></description>
        <Point><coordinates>14.695,57.6465,0</coordinates></Point>
        <styleUrl>#icon-22</styleUrl>
      </Placemark>
      <Placemark>
        <name><![CDATA[Willys Växjö I11]]></name>
        <description><![CDATA[Willys Växjö I11, Växjö]]></description>
        <Point><coordinates>14.7679,56.8774,0</coordinates></Point>
        <styleUrl>#icon-22</styleUrl>
      </Placemark>
      <Placemark>
        <name><![CDATA[Willys Växjö Teleborg]]></name>
        <description><![CDATA[Willys Växjö Teleborg, Växjö]]></description>
        <Point><coordinates>14.8193,56.86,0</coordinates></Point>
        <styleUrl>#icon-22</styleUrl>
      </Placemark>
      <Placemark>
        <name><![CDATA[Willys Karlshamn]]></name>
        <description><![CDATA[Willys Karlshamn, Karlshamn]]></description>
        <Point><coordinates>14.8644,56.1705,0</coordinates></Point>
        <styleUrl>#icon-22</styleUrl>
      </Placemark>
      <Placemark>
        <name><![CDATA[Willys Eksjö C]]></name>
        <description><![CDATA[Willys Eksjö C, Eksjö]]></description>
        <Point><coordinates>14.9704,57.6707,0</coordinates></Point>
        <styleUrl>#icon-22</styleUrl>
      </Placemark>
      <Placemark>
        <name><![CDATA[Willys Tranås]]></name>
        <description><![CDATA[Willys Tranås, Tranås]]></description>
        <Point><coordinates>14.9767,58.0364,0</coordinates></Point>
        <styleUrl>#icon-22</styleUrl>
      </Placemark>
      <Placemark>
        <name><![CDATA[Willys Motala]]></name>
        <description><![CDATA[Willys Motala, Motala]]></description>
        <Point><coordinates>15.0331,58.5568,0</coordinates></Point>
        <styleUrl>#icon-22</styleUrl>
      </Placemark>
      <Placemark>
        <name><![CDATA[Willys Hemma Nora]]></name>
        <description><![CDATA[Willys Hemma Nora, Nora]]></description>
        <Point><coordinates>15.039,59.5201,0</coordinates></Point>
        <styleUrl>#icon-22</styleUrl>
      </Placemark>
      <Placemark>
        <name><![CDATA[Willys Vetlanda]]></name>
        <description><![CDATA[Willys Vetlanda, Vetlanda]]></description>
        <Point><coordinates>15.089,57.4261,0</coordinates></Point>
        <styleUrl>#icon-22</styleUrl>
      </Placemark>
      <Placemark>
        <name><![CDATA[Willys Mjölby Centrum]]></name>
        <description><![CDATA[Willys Mjölby Centrum, Mjölby]]></description>
        <Point><coordinates>15.1245,58.3263,0</coordinates></Point>
        <styleUrl>#icon-22</styleUrl>
      </Placemark>
      <Placemark>
        <name><![CDATA[Willys Örebro Marieberg]]></name>
        <description><![CDATA[Willys Örebro Marieberg, Örebro]]></description>
        <Point><coordinates>15.136,59.209,0</coordinates></Point>
        <styleUrl>#icon-22</styleUrl>
      </Placemark>
      <Placemark>
        <name><![CDATA[Willys Örebro Västhaga]]></name>
        <description><![CDATA[Willys Örebro Västhaga, Örebro]]></description>
        <Point><coordinates>15.1747,59.2728,0</coordinates></Point>
        <styleUrl>#icon-22</styleUrl>
      </Placemark>
      <Placemark>
        <name><![CDATA[Willys Ludvika]]></name>
        <description><![CDATA[Willys Ludvika, Ludvika]]></description>
        <Point><coordinates>15.201,60.1512,0</coordinates></Point>
        <styleUrl>#icon-22</styleUrl>
      </Placemark>
      <Placemark>
        <name><![CDATA[Willys Örebro Baronbackarna]]></name>
        <description><![CDATA[Willys Örebro Baronbackarna, Örebro]]></description>
        <Point><coordinates>15.2057,59.2904,0</coordinates></Point>
        <styleUrl>#icon-22</styleUrl>
      </Placemark>
      <Placemark>
        <name><![CDATA[Wh Örebro City]]></name>
        <description><![CDATA[Wh Örebro City, Örebro]]></description>
        <Point><coordinates>15.2159,59.2715,0</coordinates></Point>
        <styleUrl>#icon-22</styleUrl>
      </Placemark>
      <Placemark>
        <name><![CDATA[Willys Hemma Lindesberg]]></name>
        <description><![CDATA[Willys Hemma Lindesberg, Lindesberg]]></description>
        <Point><coordinates>15.2242,59.5945,0</coordinates></Point>
        <styleUrl>#icon-22</styleUrl>
      </Placemark>
      <Placemark>
        <name><![CDATA[Willys Örebro Almby]]></name>
        <description><![CDATA[Willys Örebro Almby, Örebro]]></description>
        <Point><coordinates>15.2382,59.2631,0</coordinates></Point>
        <styleUrl>#icon-22</styleUrl>
      </Placemark>
      <Placemark>
        <name><![CDATA[Willys Ronneby Centrum]]></name>
        <description><![CDATA[Willys Ronneby Centrum, Ronneby]]></description>
        <Point><coordinates>15.2801,56.2107,0</coordinates></Point>
        <styleUrl>#icon-22</styleUrl>
      </Placemark>
      <Placemark>
        <name><![CDATA[Willys Borlänge Kupolen]]></name>
        <description><![CDATA[Willys Borlänge Kupolen, Borlänge]]></description>
        <Point><coordinates>15.4156,60.4859,0</coordinates></Point>
        <styleUrl>#icon-22</styleUrl>
      </Placemark>
      <Placemark>
        <name><![CDATA[Willys Linköping Skäggetorp]]></name>
        <description><![CDATA[Willys Linköping Skäggetorp, Linköping]]></description>
        <Point><coordinates>15.5832,58.4263,0</coordinates></Point>
        <styleUrl>#icon-22</styleUrl>
      </Placemark>
      <Placemark>
        <name><![CDATA[Willys Karlskrona Pantarholmen]]></name>
        <description><![CDATA[Willys Karlskrona Pantarholmen, Karlskrona]]></description>
        <Point><coordinates>15.5878,56.1737,0</coordinates></Point>
        <styleUrl>#icon-22</styleUrl>
      </Placemark>
      <Placemark>
        <name><![CDATA[Willys Linköping Tornby]]></name>
        <description><![CDATA[Willys Linköping Tornby, Linköping]]></description>
        <Point><coordinates>15.5893,58.4341,0</coordinates></Point>
        <styleUrl>#icon-22</styleUrl>
      </Placemark>
      <Placemark>
        <name><![CDATA[Willys Falun Svalan]]></name>
        <description><![CDATA[Willys Falun Svalan, Falun]]></description>
        <Point><coordinates>15.6211,60.6196,0</coordinates></Point>
        <styleUrl>#icon-22</styleUrl>
      </Placemark>
      <Placemark>
        <name><![CDATA[Willys Karlskrona Slottsbacken]]></name>
        <description><![CDATA[Willys Karlskrona Slottsbacken, Lyckeby]]></description>
        <Point><coordinates>15.6496,56.1963,0</coordinates></Point>
        <styleUrl>#icon-22</styleUrl>
      </Placemark>
      <Placemark>
        <name><![CDATA[Willys Falun Origo]]></name>
        <description><![CDATA[Willys Falun Origo, Falun]]></description>
        <Point><coordinates>15.6662,60.599,0</coordinates></Point>
        <styleUrl>#icon-22</styleUrl>
      </Placemark>
      <Placemark>
        <name><![CDATA[Willys Linköping Ekholmen]]></name>
        <description><![CDATA[Willys Linköping Ekholmen, Linköping]]></description>
        <Point><coordinates>15.6844,58.3806,0</coordinates></Point>
        <styleUrl>#icon-22</styleUrl>
      </Placemark>
      <Placemark>
        <name><![CDATA[Willys Hemma Säter]]></name>
        <description><![CDATA[Willys Hemma Säter, Säter]]></description>
        <Point><coordinates>15.7469,60.3494,0</coordinates></Point>
        <styleUrl>#icon-22</styleUrl>
      </Placemark>
      <Placemark>
        <name><![CDATA[Willys Fagersta Norrbyplan]]></name>
        <description><![CDATA[Willys Fagersta Norrbyplan, Fagersta]]></description>
        <Point><coordinates>15.8106,59.9952,0</coordinates></Point>
        <styleUrl>#icon-22</styleUrl>
      </Placemark>
      <Placemark>
        <name><![CDATA[Willys Finspång]]></name>
        <description><![CDATA[Willys Finspång, Finspång]]></description>
        <Point><coordinates>15.823,58.7019,0</coordinates></Point>
        <styleUrl>#icon-22</styleUrl>
      </Placemark>
      <Placemark>
        <name><![CDATA[Willys Hultsfred Knekten]]></name>
        <description><![CDATA[Willys Hultsfred Knekten, Hultsfred]]></description>
        <Point><coordinates>15.8306,57.4995,0</coordinates></Point>
        <styleUrl>#icon-22</styleUrl>
      </Placemark>
      <Placemark>
        <name><![CDATA[Willys Hemma Arboga Centrum]]></name>
        <description><![CDATA[Willys Hemma Arboga Centrum, Arboga]]></description>
        <Point><coordinates>15.8411,59.3954,0</coordinates></Point>
        <styleUrl>#icon-22</styleUrl>
      </Placemark>
      <Placemark>
        <name><![CDATA[Willys Nybro]]></name>
        <description><![CDATA[Willys Nybro, Nybro]]></description>
        <Point><coordinates>15.907,56.743,0</coordinates></Point>
        <styleUrl>#icon-22</styleUrl>
      </Placemark>
      <Placemark>
        <name><![CDATA[Willys Köping Big Inn]]></name>
        <description><![CDATA[Willys Köping Big Inn, Köping]]></description>
        <Point><coordinates>15.9743,59.5228,0</coordinates></Point>
        <styleUrl>#icon-22</styleUrl>
      </Placemark>
      <Placemark>
        <name><![CDATA[Willys Åtvidaberg C]]></name>
        <description><![CDATA[Willys Åtvidaberg C, Åtvidaberg]]></description>
        <Point><coordinates>15.9998,58.2019,0</coordinates></Point>
        <styleUrl>#icon-22</styleUrl>
      </Placemark>
      <Placemark>
        <name><![CDATA[Willys Norrköping Ingelsta]]></name>
        <description><![CDATA[Willys Norrköping Ingelsta, Norrköping]]></description>
        <Point><coordinates>16.166,58.6126,0</coordinates></Point>
        <styleUrl>#icon-22</styleUrl>
      </Placemark>
      <Placemark>
        <name><![CDATA[Willys Avesta]]></name>
        <description><![CDATA[Willys Avesta, Avesta]]></description>
        <Point><coordinates>16.1969,60.1528,0</coordinates></Point>
        <styleUrl>#icon-22</styleUrl>
      </Placemark>
      <Placemark>
        <name><![CDATA[Willys Norrköping Hageby]]></name>
        <description><![CDATA[Willys Norrköping Hageby, Norrköping]]></description>
        <Point><coordinates>16.2099,58.5733,0</coordinates></Point>
        <styleUrl>#icon-22</styleUrl>
      </Placemark>
      <Placemark>
        <name><![CDATA[Willys Katrineholm Lövåsen]]></name>
        <description><![CDATA[Willys Katrineholm Lövåsen, Katrineholm]]></description>
        <Point><coordinates>16.2263,59.0036,0</coordinates></Point>
        <styleUrl>#icon-22</styleUrl>
      </Placemark>
      <Placemark>
        <name><![CDATA[Willys Surahammar]]></name>
        <description><![CDATA[Willys Surahammar, Surahammar]]></description>
        <Point><coordinates>16.2442,59.704,0</coordinates></Point>
        <styleUrl>#icon-22</styleUrl>
      </Placemark>
      <Placemark>
        <name><![CDATA[Willys Kalmar Hansa City]]></name>
        <description><![CDATA[Willys Kalmar Hansa City, Kalmar]]></description>
        <Point><coordinates>16.3156,56.6868,0</coordinates></Point>
        <styleUrl>#icon-22</styleUrl>
      </Placemark>
      <Placemark>
        <name><![CDATA[Willys Söderköping]]></name>
        <description><![CDATA[Willys Söderköping, Söderköping]]></description>
        <Point><coordinates>16.3315,58.4751,0</coordinates></Point>
        <styleUrl>#icon-22</styleUrl>
      </Placemark>
      <Placemark>
        <name><![CDATA[Willys Bollnäs Asea]]></name>
        <description><![CDATA[Willys Bollnäs Asea, Bollnäs]]></description>
        <Point><coordinates>16.3831,61.343,0</coordinates></Point>
        <styleUrl>#icon-22</styleUrl>
      </Placemark>
      <Placemark>
        <name><![CDATA[Willys Eskilstuna Folkesta]]></name>
        <description><![CDATA[Willys Eskilstuna Folkesta, Eskilstuna]]></description>
        <Point><coordinates>16.426,59.4019,0</coordinates></Point>
        <styleUrl>#icon-22</styleUrl>
      </Placemark>
      <Placemark>
        <name><![CDATA[Willys Oskarshamn Snickeriet]]></name>
        <description><![CDATA[Willys Oskarshamn Snickeriet, Oskarshamn]]></description>
        <Point><coordinates>16.4282,57.2627,0</coordinates></Point>
        <styleUrl>#icon-22</styleUrl>
      </Placemark>
      <Placemark>
        <name><![CDATA[Willys Västerås Erikslund Traversg]]></name>
        <description><![CDATA[Willys Västerås Erikslund Traversg, Västerås]]></description>
        <Point><coordinates>16.4647,59.6137,0</coordinates></Point>
        <styleUrl>#icon-22</styleUrl>
      </Placemark>
      <Placemark>
        <name><![CDATA[Willys Eskilstuna City]]></name>
        <description><![CDATA[Willys Eskilstuna City, Eskilstuna]]></description>
        <Point><coordinates>16.5001,59.3759,0</coordinates></Point>
        <styleUrl>#icon-22</styleUrl>
      </Placemark>
      <Placemark>
        <name><![CDATA[Willys Eskilstuna Smeden]]></name>
        <description><![CDATA[Willys Eskilstuna Smeden, Eskilstuna]]></description>
        <Point><coordinates>16.5298,59.375,0</coordinates></Point>
        <styleUrl>#icon-22</styleUrl>
      </Placemark>
      <Placemark>
        <name><![CDATA[Willys Flen Tisteln]]></name>
        <description><![CDATA[Willys Flen Tisteln, Flen]]></description>
        <Point><coordinates>16.5918,59.0632,0</coordinates></Point>
        <styleUrl>#icon-22</styleUrl>
      </Placemark>
      <Placemark>
        <name><![CDATA[Willys Sala Ängshagen]]></name>
        <description><![CDATA[Willys Sala Ängshagen, Sala]]></description>
        <Point><coordinates>16.6183,59.9123,0</coordinates></Point>
        <styleUrl>#icon-22</styleUrl>
      </Placemark>
      <Placemark>
        <name><![CDATA[Willys Västerås Hälla]]></name>
        <description><![CDATA[Willys Västerås Hälla, Västerås]]></description>
        <Point><coordinates>16.6191,59.6083,0</coordinates></Point>
        <styleUrl>#icon-22</styleUrl>
      </Placemark>
      <Placemark>
        <name><![CDATA[Willys Västervik Södra Järnvägsg]]></name>
        <description><![CDATA[Willys Västervik Södra Järnvägsg, Västervik]]></description>
        <Point><coordinates>16.6329,57.7524,0</coordinates></Point>
        <styleUrl>#icon-22</styleUrl>
      </Placemark>
      <Placemark>
        <name><![CDATA[Willys Sandviken Linggatan]]></name>
        <description><![CDATA[Willys Sandviken Linggatan, Sandviken]]></description>
        <Point><coordinates>16.7713,60.6247,0</coordinates></Point>
        <styleUrl>#icon-22</styleUrl>
      </Placemark>
      <Placemark>
        <name><![CDATA[Willys Nyköping]]></name>
        <description><![CDATA[Willys Nyköping, Nyköping]]></description>
        <Point><coordinates>16.9728,58.7473,0</coordinates></Point>
        <styleUrl>#icon-22</styleUrl>
      </Placemark>
      <Placemark>
        <name><![CDATA[Willys Hemma Valbo]]></name>
        <description><![CDATA[Willys Hemma Valbo, Valbo]]></description>
        <Point><coordinates>17.0078,60.6437,0</coordinates></Point>
        <styleUrl>#icon-22</styleUrl>
      </Placemark>
      <Placemark>
        <name><![CDATA[Willys Strängnäs]]></name>
        <description><![CDATA[Willys Strängnäs, Strängnäs]]></description>
        <Point><coordinates>17.0197,59.3342,0</coordinates></Point>
        <styleUrl>#icon-22</styleUrl>
      </Placemark>
      <Placemark>
        <name><![CDATA[Willys Hemma Söderhamn]]></name>
        <description><![CDATA[Willys Hemma Söderhamn, Söderhamn]]></description>
        <Point><coordinates>17.0568,61.303,0</coordinates></Point>
        <styleUrl>#icon-22</styleUrl>
      </Placemark>
      <Placemark>
        <name><![CDATA[Willys Enköping Romberga]]></name>
        <description><![CDATA[Willys Enköping Romberga, Enköping]]></description>
        <Point><coordinates>17.086,59.6503,0</coordinates></Point>
        <styleUrl>#icon-22</styleUrl>
      </Placemark>
      <Placemark>
        <name><![CDATA[Willys Gävle Gestrike]]></name>
        <description><![CDATA[Willys Gävle Gestrike, Gävle]]></description>
        <Point><coordinates>17.1357,60.6824,0</coordinates></Point>
        <styleUrl>#icon-22</styleUrl>
      </Placemark>
      <Placemark>
        <name><![CDATA[Willys Gävle Hemsta]]></name>
        <description><![CDATA[Willys Gävle Hemsta, Gävle]]></description>
        <Point><coordinates>17.1617,60.6601,0</coordinates></Point>
        <styleUrl>#icon-22</styleUrl>
      </Placemark>
      <Placemark>
        <name><![CDATA[Willys Hemma Timrå]]></name>
        <description><![CDATA[Willys Hemma Timrå, Timrå]]></description>
        <Point><coordinates>17.3255,62.4875,0</coordinates></Point>
        <styleUrl>#icon-22</styleUrl>
      </Placemark>
      <Placemark>
        <name><![CDATA[Willys Sundsvall Birsta]]></name>
        <description><![CDATA[Willys Sundsvall Birsta, Sundsvall]]></description>
        <Point><coordinates>17.3283,62.4476,0</coordinates></Point>
        <styleUrl>#icon-22</styleUrl>
      </Placemark>
      <Placemark>
        <name><![CDATA[Willys Sundsvall Ortviken]]></name>
        <description><![CDATA[Willys Sundsvall Ortviken, Sundsvall]]></description>
        <Point><coordinates>17.3402,62.3962,0</coordinates></Point>
        <styleUrl>#icon-22</styleUrl>
      </Placemark>
      <Placemark>
        <name><![CDATA[Willys Skutskär Östra]]></name>
        <description><![CDATA[Willys Skutskär Östra, Skutskär]]></description>
        <Point><coordinates>17.4138,60.6303,0</coordinates></Point>
        <styleUrl>#icon-22</styleUrl>
      </Placemark>
      <Placemark>
        <name><![CDATA[Willys Uppsala Stenhagen]]></name>
        <description><![CDATA[Willys Uppsala Stenhagen, Uppsala]]></description>
        <Point><coordinates>17.563,59.8491,0</coordinates></Point>
        <styleUrl>#icon-22</styleUrl>
      </Placemark>
      <Placemark>
        <name><![CDATA[Willys Södertälje Vasa]]></name>
        <description><![CDATA[Willys Södertälje Vasa, Södertälje]]></description>
        <Point><coordinates>17.5946,59.1835,0</coordinates></Point>
        <styleUrl>#icon-22</styleUrl>
      </Placemark>
      <Placemark>
        <name><![CDATA[Willys Uppsala Gottsunda]]></name>
        <description><![CDATA[Willys Uppsala Gottsunda, Uppsala]]></description>
        <Point><coordinates>17.6286,59.8111,0</coordinates></Point>
        <styleUrl>#icon-22</styleUrl>
      </Placemark>
      <Placemark>
        <name><![CDATA[Willys Bro E 18]]></name>
        <description><![CDATA[Willys Bro E 18, Bro]]></description>
        <Point><coordinates>17.6296,59.5267,0</coordinates></Point>
        <styleUrl>#icon-22</styleUrl>
      </Placemark>
      <Placemark>
        <name><![CDATA[Willys Södertälje Weda]]></name>
        <description><![CDATA[Willys Södertälje Weda, Södertälje]]></description>
        <Point><coordinates>17.6439,59.2051,0</coordinates></Point>
        <styleUrl>#icon-22</styleUrl>
      </Placemark>
      <Placemark>
        <name><![CDATA[Willys Södertälje Hamn]]></name>
        <description><![CDATA[Willys Södertälje Hamn, Södertälje]]></description>
        <Point><coordinates>17.6528,59.1744,0</coordinates></Point>
        <styleUrl>#icon-22</styleUrl>
      </Placemark>
      <Placemark>
        <name><![CDATA[Willys Uppsala Kungsgatan]]></name>
        <description><![CDATA[Willys Uppsala Kungsgatan, Uppsala]]></description>
        <Point><coordinates>17.6582,59.8498,0</coordinates></Point>
        <styleUrl>#icon-22</styleUrl>
      </Placemark>
      <Placemark>
        <name><![CDATA[Willys Uppsala Gränby]]></name>
        <description><![CDATA[Willys Uppsala Gränby, Uppsala]]></description>
        <Point><coordinates>17.6609,59.8862,0</coordinates></Point>
        <styleUrl>#icon-22</styleUrl>
      </Placemark>
      <Placemark>
        <name><![CDATA[Willys Uppsala Björkgatan]]></name>
        <description><![CDATA[Willys Uppsala Björkgatan, Uppsala]]></description>
        <Point><coordinates>17.6642,59.8669,0</coordinates></Point>
        <styleUrl>#icon-22</styleUrl>
      </Placemark>
      <Placemark>
        <name><![CDATA[Willys Kramfors]]></name>
        <description><![CDATA[Willys Kramfors, Kramfors]]></description>
        <Point><coordinates>17.7791,62.9311,0</coordinates></Point>
        <styleUrl>#icon-22</styleUrl>
      </Placemark>
      <Placemark>
        <name><![CDATA[Willys Knivsta C]]></name>
        <description><![CDATA[Willys Knivsta C, Knivsta]]></description>
        <Point><coordinates>17.7876,59.7286,0</coordinates></Point>
        <styleUrl>#icon-22</styleUrl>
      </Placemark>
      <Placemark>
        <name><![CDATA[Willys Stockholm Veddesta Handel]]></name>
        <description><![CDATA[Willys Stockholm Veddesta Handel, Järfälla]]></description>
        <Point><coordinates>17.8413,59.4085,0</coordinates></Point>
        <styleUrl>#icon-22</styleUrl>
      </Placemark>
      <Placemark>
        <name><![CDATA[Willys Stockholm Tumba]]></name>
        <description><![CDATA[Willys Stockholm Tumba, Tumba]]></description>
        <Point><coordinates>17.8426,59.1989,0</coordinates></Point>
        <styleUrl>#icon-22</styleUrl>
      </Placemark>
      <Placemark>
        <name><![CDATA[Willys Märsta C]]></name>
        <description><![CDATA[Willys Märsta C, Märsta]]></description>
        <Point><coordinates>17.8548,59.6208,0</coordinates></Point>
        <styleUrl>#icon-22</styleUrl>
      </Placemark>
      <Placemark>
        <name><![CDATA[Willys Stockholm Vinsta]]></name>
        <description><![CDATA[Willys Stockholm Vinsta, Vällingby]]></description>
        <Point><coordinates>17.8558,59.3705,0</coordinates></Point>
        <styleUrl>#icon-22</styleUrl>
      </Placemark>
      <Placemark>
        <name><![CDATA[Willys Väsby Centrum]]></name>
        <description><![CDATA[Willys Väsby Centrum, Upplands Väsby]]></description>
        <Point><coordinates>17.9099,59.5186,0</coordinates></Point>
        <styleUrl>#icon-22</styleUrl>
      </Placemark>
      <Placemark>
        <name><![CDATA[Willys Huddinge Heron City]]></name>
        <description><![CDATA[Willys Huddinge Heron City, Kungens Kurva]]></description>
        <Point><coordinates>17.91,59.2676,0</coordinates></Point>
        <styleUrl>#icon-22</styleUrl>
      </Placemark>
      <Placemark>
        <name><![CDATA[Willys Sollentuna Rotebro]]></name>
        <description><![CDATA[Willys Sollentuna Rotebro, Sollentuna]]></description>
        <Point><coordinates>17.9158,59.4713,0</coordinates></Point>
        <styleUrl>#icon-22</styleUrl>
      </Placemark>
      <Placemark>
        <name><![CDATA[Willys Sollentuna Häggvik]]></name>
        <description><![CDATA[Willys Sollentuna Häggvik, Sollentuna]]></description>
        <Point><coordinates>17.9286,59.4377,0</coordinates></Point>
        <styleUrl>#icon-22</styleUrl>
      </Placemark>
      <Placemark>
        <name><![CDATA[Willys Stockholm Rissne]]></name>
        <description><![CDATA[Willys Stockholm Rissne, Sundbyberg]]></description>
        <Point><coordinates>17.9468,59.3798,0</coordinates></Point>
        <styleUrl>#icon-22</styleUrl>
      </Placemark>
      <Placemark>
        <name><![CDATA[Willys Nynäshamn]]></name>
        <description><![CDATA[Willys Nynäshamn, Nynäshamn]]></description>
        <Point><coordinates>17.9483,58.9129,0</coordinates></Point>
        <styleUrl>#icon-22</styleUrl>
      </Placemark>
      <Placemark>
        <name><![CDATA[Willys Härnösand Härnön]]></name>
        <description><![CDATA[Willys Härnösand Härnön, Härnösand]]></description>
        <Point><coordinates>17.9585,62.6279,0</coordinates></Point>
        <styleUrl>#icon-22</styleUrl>
      </Placemark>
      <Placemark>
        <name><![CDATA[Willys Sundbyberg Esplanaden]]></name>
        <description><![CDATA[Willys Sundbyberg Esplanaden, Sundbyberg]]></description>
        <Point><coordinates>17.9636,59.3614,0</coordinates></Point>
        <styleUrl>#icon-22</styleUrl>
      </Placemark>
      <Placemark>
        <name><![CDATA[Willys Hemma Solna Hagahallen]]></name>
        <description><![CDATA[Willys Hemma Solna Hagahallen, Solna]]></description>
        <Point><coordinates>18.011,59.3629,0</coordinates></Point>
        <styleUrl>#icon-22</styleUrl>
      </Placemark>
      <Placemark>
        <name><![CDATA[Willys Stockholm Älvsjö]]></name>
        <description><![CDATA[Willys Stockholm Älvsjö, Älvsjö]]></description>
        <Point><coordinates>18.0132,59.2753,0</coordinates></Point>
        <styleUrl>#icon-22</styleUrl>
      </Placemark>
      <Placemark>
        <name><![CDATA[Willys Hemma Stockholm Liljeholmen]]></name>
        <description><![CDATA[Willys Hemma Stockholm Liljeholmen, Stockholm]]></description>
        <Point><coordinates>18.0238,59.3097,0</coordinates></Point>
        <styleUrl>#icon-22</styleUrl>
      </Placemark>
      <Placemark>
        <name><![CDATA[Willys E-handel Stockholm]]></name>
        <description><![CDATA[Willys E-handel Stockholm, Årsta]]></description>
        <Point><coordinates>18.0315,59.2959,0</coordinates></Point>
        <styleUrl>#icon-22</styleUrl>
      </Placemark>
      <Placemark>
        <name><![CDATA[Willys Hemma Stockholm Torsplan]]></name>
        <description><![CDATA[Willys Hemma Stockholm Torsplan, Stockholm]]></description>
        <Point><coordinates>18.032,59.3456,0</coordinates></Point>
        <styleUrl>#icon-22</styleUrl>
      </Placemark>
      <Placemark>
        <name><![CDATA[Willys Stockholm Fridhemsplan]]></name>
        <description><![CDATA[Willys Stockholm Fridhemsplan, Stockholm]]></description>
        <Point><coordinates>18.0329,59.3345,0</coordinates></Point>
        <styleUrl>#icon-22</styleUrl>
      </Placemark>
      <Placemark>
        <name><![CDATA[Willys Hemma Stockholm Täby]]></name>
        <description><![CDATA[Willys Hemma Stockholm Täby, Täby]]></description>
        <Point><coordinates>18.05,59.4528,0</coordinates></Point>
        <styleUrl>#icon-22</styleUrl>
      </Placemark>
      <Placemark>
        <name><![CDATA[Willys Stockholm Mariahallen]]></name>
        <description><![CDATA[Willys Stockholm Mariahallen, Stockholm]]></description>
        <Point><coordinates>18.0573,59.3182,0</coordinates></Point>
        <styleUrl>#icon-22</styleUrl>
      </Placemark>
      <Placemark>
        <name><![CDATA[Willys Täby Centrum]]></name>
        <description><![CDATA[Willys Täby Centrum, Täby]]></description>
        <Point><coordinates>18.0737,59.4455,0</coordinates></Point>
        <styleUrl>#icon-22</styleUrl>
      </Placemark>
      <Placemark>
        <name><![CDATA[Willys Hemma Stockholm Götgatan]]></name>
        <description><![CDATA[Willys Hemma Stockholm Götgatan, Stockholm]]></description>
        <Point><coordinates>18.0752,59.3108,0</coordinates></Point>
        <styleUrl>#icon-22</styleUrl>
      </Placemark>
      <Placemark>
        <name><![CDATA[Willys Stockholm Sköndal]]></name>
        <description><![CDATA[Willys Stockholm Sköndal, Sköndal]]></description>
        <Point><coordinates>18.1057,59.2599,0</coordinates></Point>
        <styleUrl>#icon-22</styleUrl>
      </Placemark>
      <Placemark>
        <name><![CDATA[Willys Stockholm Länna]]></name>
        <description><![CDATA[Willys Stockholm Länna, Skogås]]></description>
        <Point><coordinates>18.1291,59.2016,0</coordinates></Point>
        <styleUrl>#icon-22</styleUrl>
      </Placemark>
      <Placemark>
        <name><![CDATA[Willys Nacka Sickla]]></name>
        <description><![CDATA[Willys Nacka Sickla, Nacka]]></description>
        <Point><coordinates>18.1306,59.3044,0</coordinates></Point>
        <styleUrl>#icon-22</styleUrl>
      </Placemark>
      <Placemark>
        <name><![CDATA[Willys Stockholm Täby Arninge]]></name>
        <description><![CDATA[Willys Stockholm Täby Arninge, Täby]]></description>
        <Point><coordinates>18.1329,59.4643,0</coordinates></Point>
        <styleUrl>#icon-22</styleUrl>
      </Placemark>
      <Placemark>
        <name><![CDATA[Willys Stockholm Port 73]]></name>
        <description><![CDATA[Willys Stockholm Port 73, Haninge]]></description>
        <Point><coordinates>18.1481,59.1823,0</coordinates></Point>
        <styleUrl>#icon-22</styleUrl>
      </Placemark>
      <Placemark>
        <name><![CDATA[Willys Stockholm Lidingö]]></name>
        <description><![CDATA[Willys Stockholm Lidingö, Lidingö]]></description>
        <Point><coordinates>18.1496,59.3494,0</coordinates></Point>
        <styleUrl>#icon-22</styleUrl>
      </Placemark>
      <Placemark>
        <name><![CDATA[Willys Hemma Stockholm Nacka]]></name>
        <description><![CDATA[Willys Hemma Stockholm Nacka, Nacka]]></description>
        <Point><coordinates>18.1653,59.3089,0</coordinates></Point>
        <styleUrl>#icon-22</styleUrl>
      </Placemark>
      <Placemark>
        <name><![CDATA[Willys Tyresö Bollmora]]></name>
        <description><![CDATA[Willys Tyresö Bollmora, Tyresö]]></description>
        <Point><coordinates>18.2156,59.2484,0</coordinates></Point>
        <styleUrl>#icon-22</styleUrl>
      </Placemark>
      <Placemark>
        <name><![CDATA[Willys Stockholm Orminge]]></name>
        <description><![CDATA[Willys Stockholm Orminge, Saltsjö-boo]]></description>
        <Point><coordinates>18.2591,59.3262,0</coordinates></Point>
        <styleUrl>#icon-22</styleUrl>
      </Placemark>
      <Placemark>
        <name><![CDATA[Willys Hemma Stockholm Saltsjöbaden]]></name>
        <description><![CDATA[Willys Hemma Stockholm Saltsjöbaden, Saltsjöbaden]]></description>
        <Point><coordinates>18.2744,59.2856,0</coordinates></Point>
        <styleUrl>#icon-22</styleUrl>
      </Placemark>
      <Placemark>
        <name><![CDATA[Willys Åkersberga Runö]]></name>
        <description><![CDATA[Willys Åkersberga Runö, Åkersberga]]></description>
        <Point><coordinates>18.277,59.4886,0</coordinates></Point>
        <styleUrl>#icon-22</styleUrl>
      </Placemark>
      <Placemark>
        <name><![CDATA[Willys Visby]]></name>
        <description><![CDATA[Willys Visby, Visby]]></description>
        <Point><coordinates>18.3277,57.6361,0</coordinates></Point>
        <styleUrl>#icon-22</styleUrl>
      </Placemark>
      <Placemark>
        <name><![CDATA[Willys Hemma Östhammar]]></name>
        <description><![CDATA[Willys Hemma Östhammar, Östhammar]]></description>
        <Point><coordinates>18.3617,60.2608,0</coordinates></Point>
        <styleUrl>#icon-22</styleUrl>
      </Placemark>
      <Placemark>
        <name><![CDATA[Willys Stockholm Värmdö Mölnvik]]></name>
        <description><![CDATA[Willys Stockholm Värmdö Mölnvik, Gustavsberg]]></description>
        <Point><coordinates>18.4309,59.3135,0</coordinates></Point>
        <styleUrl>#icon-22</styleUrl>
      </Placemark>
      <Placemark>
        <name><![CDATA[Willys Norrtälje]]></name>
        <description><![CDATA[Willys Norrtälje, Norrtälje]]></description>
        <Point><coordinates>18.6964,59.7675,0</coordinates></Point>
        <styleUrl>#icon-22</styleUrl>
      </Placemark>
      <Placemark>
        <name><![CDATA[Willys Örnsköldsvik]]></name>
        <description><![CDATA[Willys Örnsköldsvik, Örnsköldsvik]]></description>
        <Point><coordinates>18.744,63.3051,0</coordinates></Point>
        <styleUrl>#icon-22</styleUrl>
      </Placemark>
      <Placemark>
        <name><![CDATA[Willys Umeå Syd]]></name>
        <description><![CDATA[Willys Umeå Syd, Umeå]]></description>
        <Point><coordinates>20.2533,63.8064,0</coordinates></Point>
        <styleUrl>#icon-22</styleUrl>
      </Placemark>
      <Placemark>
        <name><![CDATA[Willys Umeå Ersboda]]></name>
        <description><![CDATA[Willys Umeå Ersboda, Umeå]]></description>
        <Point><coordinates>20.3019,63.8546,0</coordinates></Point>
        <styleUrl>#icon-22</styleUrl>
      </Placemark>
      <Placemark>
        <name><![CDATA[Willys Skellefteå Anderstorp]]></name>
        <description><![CDATA[Willys Skellefteå Anderstorp, Skellefteå]]></description>
        <Point><coordinates>20.9633,64.7426,0</coordinates></Point>
        <styleUrl>#icon-22</styleUrl>
      </Placemark>
      <Placemark>
        <name><![CDATA[Willys Skellefteå Solbacken]]></name>
        <description><![CDATA[Willys Skellefteå Solbacken, Skellefteå]]></description>
        <Point><coordinates>21.0225,64.7666,0</coordinates></Point>
        <styleUrl>#icon-22</styleUrl>
      </Placemark>
      <Placemark>
        <name><![CDATA[Willys Piteå]]></name>
        <description><![CDATA[Willys Piteå, Piteå]]></description>
        <Point><coordinates>21.4393,65.3242,0</coordinates></Point>
        <styleUrl>#icon-22</styleUrl>
      </Placemark>
      <Placemark>
        <name><![CDATA[Willys Boden]]></name>
        <description><![CDATA[Willys Boden, Boden]]></description>
        <Point><coordinates>21.7079,65.8158,0</coordinates></Point>
        <styleUrl>#icon-22</styleUrl>
      </Placemark>
      <Placemark>
        <name><![CDATA[Willys Luleå Storheden]]></name>
        <description><![CDATA[Willys Luleå Storheden, Luleå]]></description>
        <Point><coordinates>22.0533,65.6205,0</coordinates></Point>
        <styleUrl>#icon-22</styleUrl>
      </Placemark>
      <Placemark>
        <name><![CDATA[Willys Luleå Hamn]]></name>
        <description><![CDATA[Willys Luleå Hamn, Luleå]]></description>
        <Point><coordinates>22.1167,65.5822,0</coordinates></Point>
        <styleUrl>#icon-22</styleUrl>
      </Placemark>
      <Placemark>
        <name><![CDATA[Willys Hemma Kalix]]></name>
        <description><![CDATA[Willys Hemma Kalix, Kalix]]></description>
        <Point><coordinates>23.1395,65.8551,0</coordinates></Point>
        <styleUrl>#icon-22</styleUrl>
      </Placemark>
    </Folder>
  </Document>
</kml>