meta:
  layer:
    name: Akademibokhandeln
    type: store-chain, book-store
    web: https://akademibokhandeln.se/
    source: https://github.com/cisene/se-poi/yaml/Akademibokhandeln.yaml
  updated: 2023-01-06 12:58:00+0000

locations:

- location:
  caption: Akademibokhandeln Alingsås
  city: Alingsås
  latitude: 57.930187
  longitude: 12.533687

- location:
  caption: Akademibokhandeln Arvika
  city: Arvika
  latitude: 59.654187
  longitude: 12.593312

- location:
  caption: Akademibokhandeln Borlänge Kupolen
  city: Borlänge
  latitude: 60.483812
  longitude: 15.417687

- location:
  caption: Akademibokhandeln Borås City
  city: Borås
  latitude: 57.720813
  longitude: 12.941313

- location:
  caption: Akademibokhandeln Borås Knalleland
  city: Borås
  latitude: 57.733187
  longitude: 12.940062

- location:
  caption: Akademibokhandeln Bromma Blocks
  city: Bromma
  latitude: 59.355688
  longitude: 17.956688

- location:
  caption: Akademibokhandeln Burlöv Center
  city: Arlöv
  latitude: 55.639813
  longitude: 13.085187

- location:
  caption: Akademibokhandeln Eskilstuna Tuna Park
  city: Eskilstuna
  latitude: 59.371313
  longitude: 16.470062

- location:
  caption: Akademibokhandeln Falun
  city: Falun
  latitude: 60.605688
  longitude: 15.631687

- location:
  caption: Akademibokhandeln Farsta Centrum
  city: Farsta
  latitude: 59.243188
  longitude: 18.091813

- location:
  caption: Akademibokhandeln Frölunda Torg
  city: Västra Frölunda
  latitude: 57.651688
  longitude: 11.911188

- location:
  caption: Akademibokhandeln Gävle Galleria Nian
  city: Gävle
  latitude: 60.674187
  longitude: 17.139938

- location:
  caption: Akademibokhandeln Göteborg Backaplan
  city: Göteborg
  latitude: 57.722313
  longitude: 11.951812

- location:
  caption: Akademibokhandeln Göteborg Järntorget
  city: Göteborg
  latitude: 57.699438
  longitude: 11.953563

- location:
  caption: Akademibokhandeln Göteborg Kungsgatan
  city: Göteborg
  latitude: 57.704563
  longitude: 11.967063

- location:
  caption: Akademibokhandeln Göteborg Nordstan
  city: Göteborg
  latitude: 57.707313
  longitude: 11.969563

- location:
  caption: Akademibokhandeln Göteborg Olskroken
  city: Göteborg
  latitude: 57.714938
  longitude: 12.000187

- location:
  caption: Akademibokhandeln Göteborg Västra Hamngatan
  city: Göteborg
  latitude: 57.703063
  longitude: 11.964688

- location:
  caption: Akademibokhandeln Halmstad City
  city: Halmstad
  latitude: 56.675187
  longitude: 12.858937

- location:
  caption: Akademibokhandeln Halmstad Hallarna
  city: Halmstad
  latitude: 56.655313
  longitude: 12.910063

- location:
  caption: Akademibokhandeln Haninge Centrum
  city: Handen
  latitude: 59.169187
  longitude: 18.140188

- location:
  caption: Akademibokhandeln Helsingborg Stortorget
  city: Helsingborg
  latitude: 56.046312
  longitude: 12.694063

- location:
  caption: Akademibokhandeln Helsingborg Väla
  city: Ödåkra
  latitude: 56.091687
  longitude: 12.756438

- location:
  caption: Akademibokhandeln Huddinge Centrum
  city: Huddinge
  latitude: 59.236062
  longitude: 17.981063

- location:
  caption: Akademibokhandeln Jönköping A6
  city: Jönköping
  latitude: 57.773937
  longitude: 14.203812

- location:
  caption: Akademibokhandeln Jönköping City
  city: Jönköping
  latitude: 57.782187
  longitude: 14.173312

- location:
  caption: Akademibokhandeln Kalmar
  city: Kalmar
  latitude: 56.664063
  longitude: 16.363437

- location:
  caption: Akademibokhandeln Karlskrona
  city: Karlskrona
  latitude: 56.160562
  longitude: 15.584563

- location:
  caption: Akademibokhandeln Karlstad Bergvik
  city: Karlstad
  latitude: 59.378312
  longitude: 13.425438

- location:
  caption: Akademibokhandeln Karlstad Mitt i City
  city: Karlstad
  latitude: 59.380187
  longitude: 13.500813

- location:
  caption: Akademibokhandeln Kista Galleria
  city: Kista
  latitude: 59.402687
  longitude: 17.946562

- location:
  caption: Akademibokhandeln Kristianstad C4
  city: Kristianstad
  latitude: 56.025312
  longitude: 14.205438

- location:
  caption: Akademibokhandeln Kristianstad Centrum
  city: Kristianstad
  latitude: 56.029937
  longitude: 14.155812

- location:
  caption: Akademibokhandeln Kungsbacka Kungsmässan
  city: Kungsbacka
  latitude: 57.492687
  longitude: 12.074813

- location:
  caption: Akademibokhandeln Kungälv Kongahälla
  city: Kungälv
  latitude: 57.873562
  longitude: 11.968063

- location:
  caption: Akademibokhandeln Landskrona
  city: Landskrona
  latitude: 55.870562
  longitude: 12.831188

- location:
  caption: Akademibokhandeln Lerum Solkatten
  city: Lerum
  latitude: 57.769687
  longitude: 12.269687

- location:
  caption: Akademibokhandeln Lidingö Centrum
  city: Lidingö
  latitude: 59.365687
  longitude: 18.134062

- location:
  caption: Akademibokhandeln Linköping Storgatan
  city: Linköping
  latitude: 58.410937
  longitude: 15.625563

- location:
  caption: Akademibokhandeln Linköping Tornby i-Huset
  city: Linköping
  latitude: 58.433187
  longitude: 15.585562

- location:
  caption: Akademibokhandeln Luleå C Smedjan
  city: Luleå
  latitude: 65.583938
  longitude: 22.153188

- location:
  caption: Akademibokhandeln Lund Nova
  city: Lund
  latitude: 55.714437
  longitude: 13.160687

- location:
  caption: Akademibokhandeln Lund Stortorget
  city: Lund
  latitude: 55.703063
  longitude: 13.192438

- location:
  caption: Akademibokhandeln Löddeköpinge Center Syd
  city: Löddeköpinge
  latitude: 55.769312
  longitude: 12.987813

- location:
  caption: Akademibokhandeln Malmö Emporia
  city: Malmö
  latitude: 55.564312
  longitude: 12.973313

- location:
  caption: Akademibokhandeln Malmö Hansa
  city: Malmö
  latitude: 55.603188
  longitude: 13.004687

- location:
  caption: Akademibokhandeln Malmö Mobilia
  city: Malmö
  latitude: 55.580437
  longitude: 13.002813

- location:
  caption: Akademibokhandeln Malmö Triangeln
  city: Malmö
  latitude: 55.595062
  longitude: 13.001563

- location:
  caption: Akademibokhandeln Mörby Centrum
  city: Danderyd
  latitude: 59.397687
  longitude: 18.036938

- location:
  caption: Akademibokhandeln Mora
  city: Mora
  latitude: 61.006187
  longitude: 14.540188

- location:
  caption: Akademibokhandeln Mölndal Galleria
  city: Mölndal
  latitude: 57.655187
  longitude: 12.013813

- location:
  caption: Akademibokhandeln Nacka Forum
  city: Nacka
  latitude: 59.309812
  longitude: 18.164813

- location:
  caption: Akademibokhandeln Nacka Sickla Köpkvarter
  city: Nacka
  latitude: 59.306062
  longitude: 18.126438

- location:
  caption: Akademibokhandeln Norrköping Galleria Domino
  city: Norrköping
  latitude: 58.588437
  longitude: 16.190438

- location:
  caption: Akademibokhandeln Norrköping Ingelsta Shopping
  city: Norrköping
  latitude: 58.619187
  longitude: 16.157688

- location:
  caption: Akademibokhandeln Nyköping
  city: Nyköping
  latitude: 58.752437
  longitude: 17.007188

- location:
  caption: Akademibokhandeln Partille Allum
  city: Partille
  latitude: 57.737063
  longitude: 12.105438

- location:
  caption: Akademibokhandeln Piteå Småstaden
  city: Piteå
  latitude: 65.317062
  longitude: 21.477688

- location:
  caption: Akademibokhandeln Skellefteå
  city: Skellefteå
  latitude: 64.750563
  longitude: 20.951813

- location:
  caption: Akademibokhandeln Skövde Commerce
  city: Skövde
  latitude: 58.390062
  longitude: 13.844812

- location:
  caption: Akademibokhandeln Sollentuna Centrum
  city: Sollentuna
  latitude: 59.428562
  longitude: 17.952188

- location:
  caption: Akademibokhandeln Solna Centrum
  city: Solna
  latitude: 59.358937
  longitude: 18.000312

- location:
  caption: Akademibokhandeln Stenungsund
  city: Stenungsund
  latitude: 58.069312
  longitude: 11.817187

- location:
  caption: Akademibokhandeln Stockholm Centralen
  city: Stockholm
  latitude: 59.334187
  longitude: 18.067312

- location:
  caption: Akademibokhandeln Stockholm Frescati
  city: Stockholm
  latitude: 59.363563
  longitude: 18.058062

- location:
  caption: Akademibokhandeln Stockholm Fältöversten
  city: Stockholm
  latitude: 59.340312
  longitude: 18.090313

- location:
  caption: Akademibokhandeln Stockholm Gallerian
  city: Stockholm
  latitude: 59.332187
  longitude: 18.066688

- location:
  caption: Akademibokhandeln Stockholm Hornstull
  city: Stockholm
  latitude: 59.316437
  longitude: 18.034062

- location:
  caption: Akademibokhandeln Stockholm Kungsholmen
  city: Stockholm
  latitude: 59.333687
  longitude: 18.032438

- location:
  caption: Akademibokhandeln Stockholm Liljeholmen
  city: Stockholm
  latitude: 59.309438
  longitude: 18.022562

- location:
  caption: Akademibokhandeln Stockholm Mäster Samuelsgatan
  city: Stockholm
  latitude: 59.334187
  longitude: 18.067312

- location:
  caption: Akademibokhandeln Stockholm Odenplan
  city: Stockholm
  latitude: 59.342813
  longitude: 18.051313

- location:
  caption: Akademibokhandeln Stockholm Ringen
  city: Stockholm
  latitude: 59.308437
  longitude: 18.075688

- location:
  caption: Akademibokhandeln Strängnäs
  city: Strängnäs
  latitude: 59.376312
  longitude: 17.027062

- location:
  caption: Akademibokhandeln Sundsvall Birsta City
  city: Sundsvall
  latitude: 62.447063
  longitude: 17.336188

- location:
  caption: Akademibokhandeln Sundsvall Storgatan
  city: Sundsvall
  latitude: 62.390937
  longitude: 17.309438

- location:
  caption: Akademibokhandeln Södertälje Kringlan
  city: Södertälje
  latitude: 59.195812
  longitude: 17.628813

- location:
  caption: Akademibokhandeln Trollhättan Överby
  city: Trollhättan
  latitude: 58.312438
  longitude: 12.307937

- location:
  caption: Akademibokhandeln Täby Centrum
  city: Täby
  latitude: 59.443938
  longitude: 18.071937

- location:
  caption: Akademibokhandeln Ulricehamn
  city: Ulricehamn
  latitude: 57.791812
  longitude: 13.412313

- location:
  caption: Akademibokhandeln Umeå Avion Shopping
  city: Umeå
  latitude: 63.806812
  longitude: 20.255187

- location:
  caption: Akademibokhandeln Umeå Rådhustorget
  city: Umeå
  latitude: 63.825187
  longitude: 20.263813

- location:
  caption: Akademibokhandeln Uppsala Gränbystaden
  city: Uppsala
  latitude: 59.876812
  longitude: 17.673187

- location:
  caption: Akademibokhandeln Uppsala Stora Torget
  city: Uppsala
  latitude: 59.858187
  longitude: 17.639187

- location:
  caption: Akademibokhandeln Vänersborg
  city: Vänersborg
  latitude: 58.380688
  longitude: 12.322062

- location:
  caption: Akademibokhandeln Västerås Erikslund
  city: Västerås
  latitude: 59.609063
  longitude: 16.453562

- location:
  caption: Akademibokhandeln Västerås Igor
  city: Västerås
  latitude: 59.611812
  longitude: 16.544438

- location:
  caption: Akademibokhandeln Växjö City
  city: Växjö
  latitude: 56.877562
  longitude: 14.806687

- location:
  caption: Akademibokhandeln Växjö Grand Samarkand
  city: Växjö
  latitude: 56.884937
  longitude: 14.766938

- location:
  caption: Akademibokhandeln Westfield Mall of Scandinavia
  city: Solna
  latitude: 59.370687
  longitude: 18.004562

- location:
  caption: Akademibokhandeln Ängelholm
  city: Ängelholm
  latitude: 56.245438
  longitude: 12.863563

- location:
  caption: Akademibokhandeln Åkersberga Centrum
  city: Åkersberga
  latitude: 59.479937
  longitude: 18.297187

- location:
  caption: Akademibokhandeln Örebro Krämaren
  city: Örebro
  latitude: 59.269188
  longitude: 15.210187

- location:
  caption: Akademibokhandeln Örebro Marieberg Galleria
  city: Örebro
  latitude: 59.217062
  longitude: 15.136938

- location:
  caption: Akademibokhandeln Örnsköldsvik Oskargallerian
  city: Örnsköldsvik
  latitude: 63.290937
  longitude: 18.713687

- location:
  caption: Akademibokhandeln Östersund Kärnan
  city: Östersund
  latitude: 63.176313
  longitude: 14.638562
