locations:

- location:
  caption: Guldfynd BIRSTA SUNDSVALL
  city: Sundsvall
  latitude: 62.446813
  longitude: 17.337313

- location:
  caption: Guldfynd BOLLNÄS
  city: Bollnäs
  latitude: 61.348813
  longitude: 16.396313

- location:
  caption: Guldfynd FLANÖR GÄVLE
  city: Gävle
  latitude: 60.675438
  longitude: 17.141438

- location:
  caption: Guldfynd HUDIKSVALL
  city: Hudiksvall
  latitude: 61.727563
  longitude: 17.105812

- location:
  caption: Guldfynd LULEÅ
  city: Luleå
  latitude: 65.584437
  longitude: 22.156438

- location:
  caption: Guldfynd PITEÅ
  city: Piteå
  latitude: 65.315938
  longitude: 21.481813

- location:
  caption: Guldfynd SANDVIKEN
  city: Sandviken
  latitude: 60.620687
  longitude: 16.776438

- location:
  caption: Guldfynd SKELLEFTEÅ
  city: Skellefteå
  latitude: 64.750812
  longitude: 20.952188

- location:
  caption: Guldfynd SUNDSVALL
  city: Sundsvall
  latitude: 62.446813
  longitude: 17.337313

- location:
  caption: Guldfynd UTOPIA UMEÅ
  city: Umeå
  latitude: 63.825812
  longitude: 20.264063

- location:
  caption: Guldfynd AVION SHOPPING UMEÅ
  city: Umeå
  latitude: 63.806687
  longitude: 20.253937

- location:
  caption: Guldfynd VALBO GÄVLE
  city: Gävle
  latitude: 60.633688
  longitude: 16.994687

- location:
  caption: Guldfynd ÖRNSKÖLDSVIK
  city: Örnsköldsvik
  latitude: 63.290312
  longitude: 18.715438

- location:
  caption: Guldfynd ARVIKA
  city: Arvika
  latitude: 59.654812
  longitude: 12.592187

- location:
  caption: Guldfynd AVESTA
  city: Avesta
  latitude: 60.145937
  longitude: 16.168312

- location:
  caption: Guldfynd BERGVIK KÖPCENTER KARLSTAD
  city: Karlstad
  latitude: 59.377938
  longitude: 13.425812

- location:
  caption: Guldfynd BORLÄNGE
  city: Borlänge
  latitude: 60.484063
  longitude: 15.417938

- location:
  caption: Guldfynd CHARLOTTENBERG
  city: Charlottenberg
  latitude: 59.881312
  longitude: 12.291062

- location:
  caption: Guldfynd ENKÖPING
  city: Enköping
  latitude: 59.635687
  longitude: 17.078688

- location:
  caption: Guldfynd ESKILSTUNA
  city: Eskilstuna
  latitude: 59.371313
  longitude: 16.470062

- location:
  caption: Guldfynd FALUN 
  city: Falun
  latitude: 60.605563
  longitude: 15.632062

- location:
  caption: Guldfynd FORUM GALLERIAN UPPSALA
  city: Uppsala
  latitude: 59.857687
  longitude: 17.640813

- location:
  caption: Guldfynd GRÄNBY UPPSALA
  city: Uppsala
  latitude: 59.877437
  longitude: 17.673063

- location:
  caption: Guldfynd HÄLLA VÄSTERÅS
  city: Västerås
  latitude: 59.611312
  longitude: 16.613312

- location:
  caption: Guldfynd KARLSKOGA
  city: Karlskoga
  latitude: 59.327438
  longitude: 14.522438

- location:
  caption: Guldfynd KATRINEHOLM
  city: Katrineholm
  latitude: 58.994813
  longitude: 16.208813

- location:
  caption: Guldfynd KRÄMAREN ÖREBRO
  city: Örebro
  latitude: 59.269063
  longitude: 15.209938

- location:
  caption: Guldfynd LUDVIKA
  city: Ludvika
  latitude: 60.150188
  longitude: 15.185562

- location:
  caption: Guldfynd MARIEBERG ÖREBRO
  city: Örebro
  latitude: 59.217687
  longitude: 15.138063

- location:
  caption: Guldfynd MITT I CITY KARLSTAD
  city: Karlstad
  latitude: 59.379438
  longitude: 13.500687

- location:
  caption: Guldfynd MORA
  city: Mora
  latitude: 61.004562
  longitude: 14.538563

- location:
  caption: Guldfynd NYKÖPING
  city: Nyköping
  latitude: 58.752063
  longitude: 17.005562

- location:
  caption: Guldfynd ERIKSLUND VÄSTERÅS
  city: Västerås
  latitude: 59.611187
  longitude: 16.457937

- location:
  caption: Guldfynd SALA
  city: Sala
  latitude: 59.919313
  longitude: 16.605812

- location:
  caption: Guldfynd STRÄNGNÄS
  city: Strängnäs
  latitude: 59.377063
  longitude: 17.026313

- location:
  caption: Guldfynd TUNA ESKILSTUNA
  city: Eskilstuna
  latitude: 59.371313
  longitude: 16.470062

- location:
  caption: Guldfynd BURLÖV
  city: Arlöv
  latitude: 55.640187
  longitude: 13.083938

- location:
  caption: Guldfynd EMPORIA MALMÖ
  city: Malmö
  latitude: 55.565188
  longitude: 12.973063

- location:
  caption: Guldfynd HALMSTAD
  city: Halmstad
  latitude: 56.674688
  longitude: 12.856562

- location:
  caption: Guldfynd HALMSTAD HALLARNA
  city: Halmstad
  latitude: 56.674688
  longitude: 12.856562

- location:
  caption: Guldfynd HÄSSLEHOLM
  city: Hässleholm
  latitude: 56.158062
  longitude: 13.767437

- location:
  caption: Guldfynd JÄGERSRO MALMÖ
  city: Malmö
  latitude: 55.570313
  longitude: 13.057562

- location:
  caption: Guldfynd KARLSHAMN
  city: Karlshamn
  latitude: 56.172562
  longitude: 14.860563

- location:
  caption: Guldfynd KARLSKRONA
  city: Karlskrona
  latitude: 56.162063
  longitude: 15.583687

- location:
  caption: Guldfynd KRISTIANSTAD
  city: Kristianstad
  latitude: 56.029063
  longitude: 14.156813

- location:
  caption: Guldfynd LANDSKRONA
  city: Landskrona
  latitude: 55.870687
  longitude: 12.830813

- location:
  caption: Guldfynd LJUNGBY
  city: Ljungby
  latitude: 56.834563
  longitude: 13.941063

- location:
  caption: Guldfynd LUND
  city: Lund
  latitude: 55.713563
  longitude: 13.159562

- location:
  caption: Guldfynd LÖDDEKÖPINGE
  city: Löddeköpinge
  latitude: 55.768812
  longitude: 12.990188

- location:
  caption: Guldfynd MELLBYSTRAND
  city: Mellbystrand
  latitude: 56.502938
  longitude: 12.956563

- location:
  caption: Guldfynd MOBILIA MALMÖ
  city: Malmö
  latitude: 55.580437
  longitude: 13.004563

- location:
  caption: Guldfynd NOVA LUND
  city: Lund
  latitude: 55.713563
  longitude: 13.159562

- location:
  caption: Guldfynd SÖDERGATAN MALMÖ
  city: Malmö
  latitude: 55.603687
  longitude: 13.001188

- location:
  caption: Guldfynd TRELLEBORG
  city: Trelleborg
  latitude: 55.374562
  longitude: 13.158313

- location:
  caption: Guldfynd TRIANGELN MALMÖ
  city: Malmö
  latitude: 55.595312
  longitude: 13.003063

- location:
  caption: Guldfynd VÄLA C
  city: Ödåkra
  latitude: 56.092062
  longitude: 12.756687

- location:
  caption: Guldfynd VÄXJÖ
  city: Växjö
  latitude: 56.878937
  longitude: 14.806437

- location:
  caption: Guldfynd YSTAD
  city: Ystad
  latitude: 55.429688
  longitude: 13.821188

- location:
  caption: Guldfynd A6 JÖNKÖPING
  city: Jönköping
  latitude: 57.773812
  longitude: 14.203812

- location:
  caption: Guldfynd GIRAFFEN KALMAR
  city: Kalmar
  latitude: 56.670437
  longitude: 16.336813

- location:
  caption: Guldfynd GRÄNDEN LINKÖPING
  city: Linköping
  latitude: 58.410062
  longitude: 15.626938

- location:
  caption: Guldfynd IKEAHUSET LINKÖPING
  city: Linköping
  latitude: 58.432562
  longitude: 15.585562

- location:
  caption: Guldfynd JÖNKÖPING
  city: Jönköping
  latitude: 57.781813
  longitude: 14.172438

- location:
  caption: Guldfynd KALMAR
  city: Kalmar
  latitude: 56.670437
  longitude: 16.336813

- location:
  caption: Guldfynd MAXI NORRKÖPING
  city: Norrköping
  latitude: 58.618313
  longitude: 16.157063

- location:
  caption: Guldfynd MOTALA
  city: Motala
  latitude: 58.537063
  longitude: 15.035312

- location:
  caption: Guldfynd SPIRALEN NORRKÖPING
  city: Norrköping
  latitude: 58.586938
  longitude: 16.190438

- location:
  caption: Guldfynd VISBY
  city: Visby
  latitude: 57.637687
  longitude: 18.300812

- location:
  caption: Guldfynd VÄSTERVIK
  city: Västervik
  latitude: 57.758063
  longitude: 16.639063

- location:
  caption: Guldfynd BORÅS
  city: Borås
  latitude: 57.720437
  longitude: 12.938937

- location:
  caption: Guldfynd LIDKÖPING
  city: Lidköping
  latitude: 58.504562
  longitude: 13.155188

- location:
  caption: Guldfynd MARIESTAD
  city: Mariestad
  latitude: 58.709063
  longitude: 13.823438

- location:
  caption: Guldfynd NORDBY STRÖMSTAD
  city: Strömstad
  latitude: 59.064812
  longitude: 11.205438

- location:
  caption: Guldfynd ODEN TROLLHÄTTAN
  city: Trollhättan
  latitude: 58.285187
  longitude: 12.291062

- location:
  caption: Guldfynd SKÖVDE
  city: Skövde
  latitude: 58.389938
  longitude: 13.845063

- location:
  caption: Guldfynd STENUNGSUND
  city: Stenungsund
  latitude: 58.069063
  longitude: 11.816813

- location:
  caption: Guldfynd TORP UDDEVALLA
  city: Uddevalla
  latitude: 58.353313
  longitude: 11.812188

- location:
  caption: Guldfynd VARBERG
  city: Varberg
  latitude: 57.105312
  longitude: 12.248563

- location:
  caption: Guldfynd VÄRNAMO
  city: Värnamo
  latitude: 57.184562
  longitude: 14.041562

- location:
  caption: Guldfynd ÖVERBY TROLLHÄTTAN
  city: Trollhättan
  latitude: 58.312812
  longitude: 12.305813

- location:
  caption: Guldfynd DROTTNINGGATAN STOCKHOLM
  city: Stockholm
  latitude: 59.333312
  longitude: 18.062438

- location:
  caption: Guldfynd FARSTA C
  city: Farsta
  latitude: 59.243063
  longitude: 18.091437

- location:
  caption: Guldfynd FORUM NACKA
  city: Nacka
  latitude: 59.309812
  longitude: 18.164063

- location:
  caption: Guldfynd FÄLTÖVERSTEN
  city: Stockholm
  latitude: 59.339687
  longitude: 18.091188

- location:
  caption: Guldfynd GALLERIAN STOCKHOLM
  city: Stockholm
  latitude: 59.331187
  longitude: 18.067188

- location:
  caption: Guldfynd GLOBEN STOCKHOLM
  city: Stockholm
  latitude: 59.293188
  longitude: 18.080937

- location:
  caption: Guldfynd HALLUNDA
  city: Norsborg
  latitude: 59.244187
  longitude: 17.827813

- location:
  caption: Guldfynd HANINGE
  city: Haninge
  latitude: 59.169313
  longitude: 18.139688

- location:
  caption: Guldfynd HUDDINGE
  city: Huddinge
  latitude: 59.236312
  longitude: 17.980688

- location:
  caption: Guldfynd JAKOBSBERG C
  city: Järfälla
  latitude: 59.422812
  longitude: 17.837438

- location:
  caption: Guldfynd KISTA GALLERIA
  city: Kista
  latitude: 59.403063
  longitude: 17.944437

- location:
  caption: Guldfynd KRINGLAN SÖDERTÄLJE
  city: Södertälje
  latitude: 59.196062
  longitude: 17.628062

- location:
  caption: Guldfynd LILJEHOLMEN STOCKHOLM
  city: stockholm
  latitude: 59.309812
  longitude: 18.023187

- location:
  caption: Guldfynd MALL OF SCANDINAVIA
  city: Solna
  latitude: 59.370188
  longitude: 18.002812

- location:
  caption: Guldfynd MÖRBY C
  city: Danderyd
  latitude: 59.397437
  longitude: 18.037062

- location:
  caption: Guldfynd RINGEN STOCKHOLM
  city: Stockholm
  latitude: 59.308312
  longitude: 18.075938

- location:
  caption: Guldfynd SERGEL STOCKHOLM
  city: Stockholm
  latitude: 59.333562
  longitude: 18.063063

- location:
  caption: Guldfynd SICKLA NACKA
  city: Nacka
  latitude: 59.305813
  longitude: 18.125437

- location:
  caption: Guldfynd SKÄRHOLMEN C
  city: Skärholmen
  latitude: 59.275312
  longitude: 17.907688

- location:
  caption: Guldfynd SOLLENTUNA C
  city: Sollentuna
  latitude: 59.428313
  longitude: 17.951563

- location:
  caption: Guldfynd SOLNA C
  city: Solna
  latitude: 59.360563
  longitude: 17.999063

- location:
  caption: Guldfynd ST.ERIKSGATAN STOCKHOLM
  city: Stockholm
  latitude: 59.333813
  longitude: 18.032438

- location:
  caption: Guldfynd TYRESÖ
  city: Tyresö
  latitude: 59.244937
  longitude: 18.229438

- location:
  caption: Guldfynd TÄBY C
  city: Täby
  latitude: 59.444312
  longitude: 18.072313

- location:
  caption: Guldfynd VÄLLINGBY C
  city: Vällingby
  latitude: 59.363062
  longitude: 17.873312

- location:
  caption: Guldfynd VÄSBY C
  city: Väsby
  latitude: 59.519063
  longitude: 17.911812

- location:
  caption: Guldfynd ÅKERSBERGA
  city: Åkersberga
  latitude: 59.480187
  longitude: 18.298313

- location:
  caption: Guldfynd ALINGSÅS
  city: Alingsås
  latitude: 57.930312
  longitude: 12.537063

- location:
  caption: Guldfynd BACKAPLAN
  city: Göteborg
  latitude: 57.721812
  longitude: 11.951187

- location:
  caption: Guldfynd FRÖLUNDA
  city: Västra Frölunda
  latitude: 57.651937
  longitude: 11.911812

- location:
  caption: Guldfynd KUNGSBACKA
  city: Kungsbacka
  latitude: 57.492687
  longitude: 12.073937

- location:
  caption: Guldfynd KUNGSPASSAGEN
  city: Göteborg
  latitude: 57.704687
  longitude: 11.967813

- location:
  caption: Guldfynd KUNGÄLV
  city: Kungälv
  latitude: 57.873438
  longitude: 11.968187

- location:
  caption: Guldfynd MÖLNDAL
  city: Mölndal
  latitude: 57.655062
  longitude: 12.012937

- location:
  caption: Guldfynd NORDSTAN
  city: Göteborg
  latitude: 57.708062
  longitude: 11.969313

- location:
  caption: Guldfynd PARTILLE
  city: Partille
  latitude: 57.737938
  longitude: 12.105313

