locations:

- location:
  caption: Max i Alingsås
  city: Alingsås
  latitude: 57.923283
  longitude: 12.529585

- location:
  caption: Max i Boden
  city: Boden
  latitude: 65.81734
  longitude: 21.70799

- location:
  caption: Max i Bollnäs
  city: Bollnäs
  latitude: 61.348635
  longitude: 16.38843

- location:
  caption: Max i Borlänge
  city: Borlänge
  latitude: 60.477048
  longitude: 15.436252

- location:
  caption: Max i Borås
  city: Borås
  latitude: 57.734085
  longitude: 12.935977

- location:
  caption: Max i Enköping
  city: Enköping
  latitude: 59.65295
  longitude: 17.081303

- location:
  caption: Max i Eskilstuna
  city: Eskilstuna
  latitude: 59.37484
  longitude: 16.47011

- location:
  caption: Max i Eskilstuna
  city: Eskilstuna
  latitude: 59.3925
  longitude: 16.46639

- location:
  caption: Max i Falkenberg
  city: Falkenberg
  latitude: 56.9313908
  longitude: 12.5176369

- location:
  caption: Max i Falun 
  city: Falun
  latitude: 60.60444
  longitude: 15.64167

- location:
  caption: Max i Gävle
  city: Gävle
  latitude: 60.6393834
  longitude: 17.1424889

- location:
  caption: Max i Gävle
  city: Gävle
  latitude: 60.66007
  longitude: 17.16041

- location:
  caption: Max i Gävle
  city: Gävle
  latitude: 60.68083
  longitude: 17.13691

- location:
  caption: Max i Bäckebol
  city: Göteborg
  latitude: 57.7584746
  longitude: 11.9931884

- location:
  caption: Max i Partille
  city: Göteborg
  latitude: 57.73754
  longitude: 12.10513

- location:
  caption: Max i Gamla Ullevi
  city: Göteborg
  latitude: 57.706
  longitude: 11.98

- location:
  caption: Max på Landvetter
  city: Göteborg
  latitude: 57.668799
  longitude: 12.292314

- location:
  caption: Max på Liseberg - Balder
  city: Göteborg
  latitude: 57.6935
  longitude: 11.9951

- location:
  caption: Max på Liseberg - Storgatan
  city: Göteborg
  latitude: 57.6951
  longitude: 11.994

- location:
  caption: Max på Liseberg - Tornet
  city: Göteborg
  latitude: 57.6952
  longitude: 11.9911

- location:
  caption: Max i Göteborg
  city: Göteborg
  latitude: 57.72397
  longitude: 12.02963

- location:
  caption: Max i Halmstad
  city: Halmstad
  latitude: 56.67801
  longitude: 12.80364

- location:
  caption: Max i Halmstad
  city: Halmstad
  latitude: 56.65844
  longitude: 12.90812

- location:
  caption: Max i Haparanda
  city: Haparanda
  latitude: 65.84106
  longitude: 24.13335

- location:
  caption: Max i Helsingborg 
  city: Helsingborg
  latitude: 56.04054
  longitude: 12.70213

- location:
  caption: Max i Väla
  city: Helsingborg
  latitude: 56.09213
  longitude: 12.76485

- location:
  caption: Max i Hyllinge
  city: Helsingborg
  latitude: 56.09957
  longitude: 12.85204

- location:
  caption: Max i Hudiksvall
  city: Hudiksvall
  latitude: 61.7145
  longitude: 17.046834

- location:
  caption: Max i Jönköping
  city: Jönköping
  latitude: 57.78056
  longitude: 14.22667

- location:
  caption: Max i Jönköping
  city: Jönköping
  latitude: 57.77349
  longitude: 14.17614

- location:
  caption: Max i Jönköping
  city: Jönköping
  latitude: 57.76517
  longitude: 14.15294

- location:
  caption: Max i Kalmar
  city: Kalmar
  latitude: 56.69138
  longitude: 16.31586

- location:
  caption: Max i Kalmar
  city: Kalmar
  latitude: 56.6675
  longitude: 16.35389

- location:
  caption: Max i Karlskoga
  city: Karlskoga
  latitude: 59.32497
  longitude: 14.52571

- location:
  caption: Max i Karlskrona
  city: Karlskrona
  latitude: 56.19543
  longitude: 15.63229

- location:
  caption: Max i Karlstad
  city: Karlstad
  latitude: 59.37901
  longitude: 13.42536

- location:
  caption: Max i Karlstad
  city: Karlstad
  latitude: 59.38142
  longitude: 13.46839

- location:
  caption: Max i Kristianstad
  city: Kristianstad
  latitude: 56.02249
  longitude: 14.14483

- location:
  caption: Max i Köping 
  city: Köping
  latitude: 59.52036
  longitude: 15.97279

- location:
  caption: Max i Linköping
  city: Linköping
  latitude: 58.41762
  longitude: 15.65716

- location:
  caption: Max i Linköping 
  city: Linköping
  latitude: 58.43483
  longitude: 15.59313

- location:
  caption: Max i Ljungby
  city: Ljungby
  latitude: 56.8125
  longitude: 13.90722

- location:
  caption: Max i Luleå
  city: Luleå
  latitude: 65.58531
  longitude: 22.1544

- location:
  caption: Max i Luleå
  city: Luleå
  latitude: 65.60239
  longitude: 22.13859

- location:
  caption: Max i Luleå
  city: Luleå
  latitude: 65.61809
  longitude: 22.04153

- location:
  caption: Max i Luleå
  city: Luleå
  latitude: 65.59006
  longitude: 22.14797

- location:
  caption: Max i Lund 
  city: Lund
  latitude: 55.71622
  longitude: 13.15624

- location:
  caption: Max i Lund
  city: Lund
  latitude: 55.71144
  longitude: 13.18172

- location:
  caption: Max i Löddeköpinge
  city: Löddeköpinge
  latitude: 55.77137
  longitude: 12.98831

- location:
  caption: Max i Malmö
  city: Malmö
  latitude: 55.56361
  longitude: 12.97194

- location:
  caption: Max i Malmö
  city: Malmö
  latitude: 55.60554
  longitude: 13.00011

- location:
  caption: Max i Malmö
  city: Malmö
  latitude: 55.57195
  longitude: 13.03861

- location:
  caption: Max i Mjölby
  city: Mjölby
  latitude: 58.32389
  longitude: 15.08972

- location:
  caption: Max i Mora
  city: Mora
  latitude: 61.006738
  longitude: 14.5982427

- location:
  caption: Max i Norrköping
  city: Norrköping
  latitude: 58.61194
  longitude: 16.15944

- location:
  caption: Max i Norrköping
  city: Norrköping
  latitude: 58.59741
  longitude: 16.1898

- location:
  caption: Max i Nyköping
  city: Nyköping
  latitude: 58.74833
  longitude: 16.97857

- location:
  caption: Max i Nyköping
  city: Nyköping
  latitude: 58.77317
  longitude: 17.02339

- location:
  caption: Max i Piteå
  city: Piteå
  latitude: 65.32063
  longitude: 21.47412

- location:
  caption: Max i Skellefteå
  city: Skellefteå
  latitude: 64.75089
  longitude: 20.95988

- location:
  caption: Krysset gatukök
  city: Skellefteå
  latitude: 64.7376643
  longitude: 20.9640529

- location:
  caption: Max i Skövde
  city: Skövde
  latitude: 58.40839
  longitude: 13.87419

- location:
  caption: Max på Arlanda
  city: Stockholm
  latitude: 59.64765
  longitude: 17.92853

- location:
  caption: Max på Arlanda
  city: Stockholm
  latitude: 59.65177
  longitude: 17.93443

- location:
  caption: Max på Arlanda
  city: Stockholm
  latitude: 59.651127
  longitude: 17.930795

- location:
  caption: Max i Arninge
  city: Stockholm
  latitude: 59.46
  longitude: 18.12889

- location:
  caption: Max i Barkarby
  city: Stockholm
  latitude: 59.4207
  longitude: 17.85438

- location:
  caption: Max i Hammarby Sjöstad
  city: Stockholm
  latitude: 59.30215
  longitude: 18.10321

- location:
  caption: Max i Häggvik
  city: Stockholm
  latitude: 59.4454448
  longitude: 17.9422731

- location:
  caption: Max Infra City
  city: Stockholm
  latitude: 59.49583
  longitude: 17.92417

- location:
  caption: Max i Kista
  city: Stockholm
  latitude: 59.40244
  longitude: 17.94658

- location:
  caption: Max Hamngatan
  city: Stockholm
  latitude: 59.33274
  longitude: 18.07174

- location:
  caption: Max i Lidingö
  city: Stockholm
  latitude: 59.3483756
  longitude: 18.1530999

- location:
  caption: Max i Länna
  city: Stockholm
  latitude: 59.2
  longitude: 18.12944

- location:
  caption: Max i Mall of Scandinavia
  city: Stockholm
  latitude: 59.3694981
  longitude: 18.0054078

- location:
  caption: Max i Märsta
  city: Märsta
  latitude: 59.6163672
  longitude: 17.8493643

- location:
  caption: Max i Roslags-Näsby
  city: Stockholm
  latitude: 59.434331
  longitude: 18.066365

- location:
  caption: Max i Rotebro
  city: Stockholm
  latitude: 59.47065
  longitude: 17.917537

- location:
  caption: Max i Slagsta
  city: Stockholm
  latitude: 59.253163
  longitude: 17.854166

- location:
  caption: Max i Solna
  city: Stockholm
  latitude: 59.36046
  longitude: 17.99429

- location:
  caption: Max på Torsplan
  city: Stockholm
  latitude: 59.346746
  longitude: 18.032167

- location:
  caption: Max i Bromma
  city: Stockholm
  latitude: 59.35056
  longitude: 17.95695

- location:
  caption: Max Vasagatan
  city: Stockholm
  latitude: 59.33234
  longitude: 18.05735

- location:
  caption: Max i Vårby
  city: Stockholm
  latitude: 59.25138
  longitude: 17.8766

- location:
  caption: Max i Värmdö
  city: Stockholm
  latitude: 59.31207
  longitude: 18.42505

- location:
  caption: Max i Strömstad
  city: Strömstad
  latitude: 59.06511
  longitude: 11.20562

- location:
  caption: Max i Sundsvall
  city: Sundsvall
  latitude: 62.44239
  longitude: 17.34406

- location:
  caption: Max i Sundsvall
  city: Sundsvall
  latitude: 62.38698
  longitude: 17.31938

- location:
  caption: Max i Södertälje
  city: Södertälje
  latitude: 59.20225
  longitude: 17.60931

- location:
  caption: Max i Trollhättan
  city: Trollhättan
  latitude: 58.28535
  longitude: 12.29134

- location:
  caption: Max i Trollhättan
  city: Trollhättan
  latitude: 58.31553
  longitude: 12.30583

- location:
  caption: Max i Uddevalla
  city: Uddevalla
  latitude: 58.35169
  longitude: 11.81156

- location:
  caption: Max i Umeå - Utopia
  city: Umeå
  latitude: 63.8257
  longitude: 20.2645

- location:
  caption: Max i Umeå
  city: Umeå
  latitude: 63.82979
  longitude: 20.25942

- location:
  caption: Max i Umeå
  city: Umeå
  latitude: 63.804002
  longitude: 20.254753

- location:
  caption: Max i Uppsala
  city: Uppsala
  latitude: 59.85037
  longitude: 17.69103

- location:
  caption: Max i Uppsala
  city: Uppsala
  latitude: 59.88565
  longitude: 17.66553

- location:
  caption: Max i Uppsala
  city: Uppsala
  latitude: 59.86868
  longitude: 17.65777

- location:
  caption: Max i Uppsala
  city: Uppsala
  latitude: 59.85886
  longitude: 17.63865

- location:
  caption: Max i Visby
  city: Visby
  latitude: 57.63749
  longitude: 18.30357

- location:
  caption: Max i Värnamo
  city: Värnamo
  latitude: 57.16323
  longitude: 14.07426

- location:
  caption: Max i Västerås
  city: Västerås
  latitude: 59.6129
  longitude: 16.46757

- location:
  caption: Max i Västerås
  city: Västerås
  latitude: 59.61269
  longitude: 16.6135

- location:
  caption: Max i Västerås
  city: Västerås
  latitude: 59.61333
  longitude: 16.57

- location:
  caption: Max i Växjö
  city: Växjö
  latitude: 56.87803
  longitude: 14.77521

- location:
  caption: Max i Växjö
  city: Växjö
  latitude: 56.8607832
  longitude: 14.8193192

- location:
  caption: Max i Ystad
  city: Ystad
  latitude: 55.4291
  longitude: 13.82101

- location:
  caption: Max i Åre
  city: Åre
  latitude: 63.40041
  longitude: 13.07803

- location:
  caption: Max i Örebro
  city: Örebro
  latitude: 59.26692
  longitude: 15.22371

- location:
  caption: Max i Örebro
  city: Örebro
  latitude: 59.21289
  longitude: 15.13431

- location:
  caption: Max i Örebro
  city: Örebro
  latitude: 59.29738
  longitude: 15.20349

- location:
  caption: Max i Örnsköldsvik
  city: Örnsköldsvik
  latitude: 63.29073
  longitude: 18.7051

- location:
  caption: Max i Östersund
  city: Östersund
  latitude: 63.16759
  longitude: 14.64362

]