locations:

- location:
  caption: McDonald's Jönköping
  city: Jönköping
  latitude: 57.77224
  longitude: 14.19821

- location:
  caption: McDonald's Jönköping
  city: Jönköping
  latitude: 57.77422
  longitude: 14.20401

- location:
  caption: McDonald's Kista
  city: Kista
  latitude: 59.41382
  longitude: 17.92978

- location:
  caption: McDonald's Nödinge
  city: Nödinge
  latitude: 57.8952
  longitude: 12.0464

- location:
  caption: McDonald's Alingsås
  city: Alingsås
  latitude: 57.92543
  longitude: 12.52961

- location:
  caption: McDonald's Bromma
  city: Bromma
  latitude: 59.33288
  longitude: 17.97978

- location:
  caption: McDonald's Angered
  city: Angered
  latitude: 57.79639
  longitude: 12.05020

- location:
  caption: McDonald's Göteborg
  city: Göteborg
  latitude: 57.69938
  longitude: 11.97684

- location:
  caption: McDonald's Göteborg
  city: Göteborg
  latitude: 57.72129
  longitude: 11.95278

- location:
  caption: McDonald's Järfälla
  city: Järfälla
  latitude: 59.41825
  longitude: 17.85689

- location:
  caption: McDonald's Kalmar
  city: Kalmar
  latitude: 56.66110
  longitude: 16.36407

- location:
  caption: McDonald's Nyköping
  city: Nyköping
  latitude: 58.74879
  longitude: 16.98062

- location:
  caption: McDonald's Karlstad
  city: Karlstad
  latitude: 59.37765
  longitude: 13.42287

- location:
  caption: McDonald's Sundsvall
  city: Sundsvall
  latitude: 62.44823
  longitude: 17.33765

- location:
  caption: McDonald's Borås
  city: Borås
  latitude: 57.72034
  longitude: 12.93853

- location:
  caption: McDonald's Linköping
  city: Linköping
  latitude: 58.39898
  longitude: 15.65372

- location:
  caption: McDonald's Bromma
  city: Bromma
  latitude: 59.33843
  longitude: 17.93831

- location:
  caption: McDonald's Kumla
  city: Kumla
  latitude: 59.0644
  longitude: 15.0040

- location:
  caption: McDonald's Burlöv
  city: Burlöv
  latitude: 55.6397
  longitude: 13.0856

- location:
  caption: McDonald's Hisings Backa
  city: Hisings Backa
  latitude: 57.77328
  longitude: 11.99924

- location:
  caption: McDonald's Stockholm
  city: Stockholm
  latitude: 59.32973
  longitude: 18.05921

- location:
  caption: McDonald's Sundsvall
  city: Sundsvall
  latitude: 62.38673
  longitude: 17.31747

- location:
  caption: McDonald's Charlottenberg
  city: Charlottenberg
  latitude: 59.88070
  longitude: 12.29022

- location:
  caption: McDonald's Sollentuna
  city: Sollentuna
  latitude: 59.46999
  longitude: 17.91601

- location:
  caption: McDonald's Karlshamn
  city: Karlshamn
  latitude: 56.18793
  longitude: 14.84704

- location:
  caption: McDonald's Norsborg
  city: Norsborg
  latitude: 59.23666
  longitude: 17.83136

- location:
  caption: McDonald's Västerås
  city: Västerås
  latitude: 59.61322
  longitude: 16.46965

- location:
  caption: McDonald's Umeå
  city: Umeå
  latitude: 63.85232
  longitude: 20.29569

- location:
  caption: McDonald's Eskilstuna
  city: Eskilstuna
  latitude: 59.37162
  longitude: 16.51150

- location:
  caption: McDonald's Eslöv
  city: Eslöv
  latitude: 55.84011
  longitude: 13.32799

- location:
  caption: McDonald's Arlandastad
  city: Arlandastad
  latitude: 59.60686
  longitude: 17.89550

- location:
  caption: McDonald's Halmstad
  city: Halmstad
  latitude: 56.65612
  longitude: 12.90761

- location:
  caption: McDonald's Falkenberg
  city: Falkenberg
  latitude: 56.93158
  longitude: 12.51732

- location:
  caption: McDonald's Falköping
  city: Falköping
  latitude: 58.15944
  longitude: 13.57251

- location:
  caption: McDonald's Falun
  city: Falun
  latitude: 60.60781
  longitude: 15.65321

- location:
  caption: McDonald's Farsta
  city: Farsta
  latitude: 59.24275
  longitude: 18.09025

- location:
  caption: McDonald's Norrköping
  city: Norrköping
  latitude: 58.58696
  longitude: 16.18879

- location:
  caption: McDonald's Oskarshamn
  city: Oskarshamn
  latitude: 57.26318
  longitude: 16.43030

- location:
  caption: McDonald's Stockholm
  city: Stockholm
  latitude: 59.31424
  longitude: 18.07452

- location:
  caption: McDonald's Uppsala
  city: Uppsala
  latitude: 59.85747
  longitude: 17.64110

- location:
  caption: McDonald's Västra Frölunda
  city: Västra Frölunda
  latitude: 57.64673
  longitude: 11.91617

- location:
  caption: McDonald's Västra Frölunda
  city: Västra Frölunda
  latitude: 57.65147
  longitude: 11.91068

- location:
  caption: McDonald's Enköping
  city: Enköping
  latitude: 59.65385
  longitude: 17.08429

- location:
  caption: McDonald's Uppsala
  city: Uppsala
  latitude: 59.85842
  longitude: 17.68053

- location:
  caption: McDonald's Upplands Väsby
  city: Upplands Väsby
  latitude: 59.54929
  longitude: 17.90090

- location:
  caption: McDonald's Malmö
  city: Malmö
  latitude: 55.60295
  longitude: 13.00144

- location:
  caption: McDonald's Arvika
  city: Arvika
  latitude: 59.66132
  longitude: 12.61313

- location:
  caption: McDonald's Kalmar
  city: Kalmar
  latitude: 56.67157
  longitude: 16.33614

- location:
  caption: McDonald's Johanneshov
  city: Johanneshov
  latitude: 59.29318
  longitude: 18.08189

- location:
  caption: McDonald's Visby
  city: Visby
  latitude: 57.63769
  longitude: 18.30068

- location:
  caption: McDonald's Gävle
  city: Gävle
  latitude: 60.673912
  longitude: 17.141039

- location:
  caption: McDonald's Sandviken
  city: Sandviken
  latitude: 60.62332
  longitude: 16.77083

- location:
  caption: McDonald's Göteborg
  city: Göteborg
  latitude: 57.70755
  longitude: 11.96961

- location:
  caption: McDonald's Stockholm
  city: Stockholm
  latitude: 59.30899
  longitude: 18.07600

- location:
  caption: McDonald's Norrköping
  city: Norrköping
  latitude: 58.57397
  longitude: 16.21198

- location:
  caption: McDonald's Norsborg
  city: Norsborg
  latitude: 59.24000
  longitude: 17.82924

- location:
  caption: McDonald's Halmstad
  city: Halmstad
  latitude: 56.67447
  longitude: 12.85815

- location:
  caption: McDonald's Stockholm
  city: Stockholm
  latitude: 59.33309
  longitude: 18.07215

- location:
  caption: McDonald's Haninge
  city: Haninge
  latitude: 59.16835
  longitude: 18.13958

- location:
  caption: McDonald's Hedemora
  city: Hedemora
  latitude: 60.2847
  longitude: 15.9914

- location:
  caption: McDonald's Malmö
  city: Malmö
  latitude: 55.58237
  longitude: 13.01152

- location:
  caption: McDonald's Gävle
  city: Gävle
  latitude: 60.65899
  longitude: 17.16345

- location:
  caption: McDonald's Kungens Kurva
  city: Kungens Kurva
  latitude: 59.26635
  longitude: 17.91044

- location:
  caption: McDonald's Stockholm
  city: Stockholm
  latitude: 59.31784
  longitude: 18.05306

- location:
  caption: McDonald's Huddinge
  city: Huddinge
  latitude: 59.23456
  longitude: 17.98191

- location:
  caption: McDonald's Hudiksvall
  city: Hudiksvall
  latitude: 61.73266
  longitude: 17.09981

- location:
  caption: McDonald's Borås
  city: Borås
  latitude: 57.72034
  longitude: 12.97327

- location:
  caption: McDonald's Hyllinge
  city: Hyllinge
  latitude: 56.0991
  longitude: 12.8600

- location:
  caption: McDonald's Täby
  city: Täby
  latitude: 59.44542
  longitude: 18.12185

- location:
  caption: McDonald's Sollentuna
  city: Sollentuna
  latitude: 59.438911
  longitude: 17.935406

- location:
  caption: McDonald's Västerås
  city: Västerås
  latitude: 59.60934
  longitude: 16.62444

- location:
  caption: McDonald's Stockholm
  city: Stockholm
  latitude: 59.334978
  longitude: 18.061158

- location:
  caption: McDonald's Norrköping
  city: Norrköping
  latitude: 58.61936
  longitude: 16.15409

- location:
  caption: McDonald's Jönköping
  city: Jönköping
  latitude: 57.76304
  longitude: 14.15240

- location:
  caption: McDonald's Säffle
  city: Säffle
  latitude: 59.13552
  longitude: 12.91809

- location:
  caption: McDonald's Jönköping
  city: Jönköping
  latitude: 57.78233
  longitude: 14.17248

- location:
  caption: McDonald's Stockholm
  city: Stockholm
  latitude: 59.33812
  longitude: 18.09093

- location:
  caption: McDonald's Karlskoga
  city: Karlskoga
  latitude: 59.32514
  longitude: 14.52687

- location:
  caption: McDonald's Karlstad
  city: Karlstad
  latitude: 59.37920
  longitude: 13.49700

- location:
  caption: McDonald's Kinna
  city: Kinna
  latitude: 57.50471
  longitude: 12.69912

- location:
  caption: McDonald's Kista
  city: Kista
  latitude: 59.40403
  longitude: 17.94304

- location:
  caption: McDonald's Norrköping
  city: Norrköping
  latitude: 58.56871
  longitude: 16.07959

- location:
  caption: McDonald's Helsingborg
  city: Helsingborg
  latitude: 56.04451
  longitude: 12.69374

- location:
  caption: McDonald's Kristinehamn
  city: Kristinehamn
  latitude: 59.31469
  longitude: 14.14822

- location:
  caption: McDonald's Karlskrona
  city: Karlskrona
  latitude: 56.16255
  longitude: 15.58491

- location:
  caption: McDonald's Huddinge
  city: Huddinge
  latitude: 59.27411
  longitude: 17.91977

- location:
  caption: McDonald's Kungsbacka
  city: Kungsbacka
  latitude: 57.49199
  longitude: 12.07110

- location:
  caption: McDonald's Kungsbacka
  city: Kungsbacka
  latitude: 57.47399
  longitude: 12.05994

- location:
  caption: McDonald's Stockholm
  city: Stockholm
  latitude: 59.3362
  longitude: 18.0704

- location:
  caption: McDonald's Göteborg
  city: Göteborg
  latitude: 57.70454
  longitude: 11.96781

- location:
  caption: McDonald's Kungälv
  city: Kungälv
  latitude: 57.87528
  longitude: 11.97209

- location:
  caption: McDonald's Borlänge
  city: Borlänge
  latitude: 60.48569
  longitude: 15.41686

- location:
  caption: McDonald's Kållered
  city: Kållered
  latitude: 57.60205
  longitude: 12.05023

- location:
  caption: McDonald's Landskrona
  city: Landskrona
  latitude: 55.87122
  longitude: 12.85256

- location:
  caption: McDonald's Varberg
  city: Varberg
  latitude: 57.12408
  longitude: 12.26284

- location:
  caption: McDonald's Stockholm
  city: Stockholm
  latitude: 59.31049
  longitude: 18.02302

- location:
  caption: McDonald's Östersund
  city: Östersund
  latitude: 63.17704
  longitude: 14.69205

- location:
  caption: McDonald's Sälen
  city: Sälen
  latitude: 61.15458
  longitude: 13.20341

- location:
  caption: McDonald's Kungens Kurva
  city: Kungens Kurva
  latitude: 59.26503
  longitude: 17.89723

- location:
  caption: McDonald's Linköping
  city: Linköping
  latitude: 58.40911
  longitude: 15.62529

- location:
  caption: McDonald's Malmö
  city: Malmö
  latitude: 55.55075
  longitude: 13.03298

- location:
  caption: McDonald's Lomma
  city: Lomma
  latitude: 55.68459
  longitude: 13.09063

- location:
  caption: McDonald's Löddeköpinge
  city: Löddeköpinge
  latitude: 55.76785
  longitude: 12.98934

- location:
  caption: McDonald's Göteborg
  city: Göteborg
  latitude: 57.70985
  longitude: 11.96848

- location:
  caption: McDonald's Malmö
  city: Malmö
  latitude: 55.56265
  longitude: 12.97647

- location:
  caption: McDonald's Södertälje
  city: Södertälje
  latitude: 59.19488
  longitude: 17.62928

- location:
  caption: McDonald's Örebro
  city: Örebro
  latitude: 59.2180
  longitude: 15.1367

- location:
  caption: McDonald's Mariestad
  city: Mariestad
  latitude: 58.67844
  longitude: 13.81728

- location:
  caption: McDonald's Ludvika
  city: Ludvika
  latitude: 60.15150
  longitude: 15.19061

- location:
  caption: McDonald's Mora
  city: Mora
  latitude: 61.00882
  longitude: 14.59051

- location:
  caption: McDonald's Haninge
  city: Haninge
  latitude: 59.17686
  longitude: 18.14830

- location:
  caption: McDonald's Katrineholm
  city: Katrineholm
  latitude: 58.99576
  longitude: 16.21193

- location:
  caption: McDonald's Mellbystrand 
  city: Mellbystrand 
  latitude: 56.50194
  longitude: 12.95675

- location:
  caption: McDonald's Malmö
  city: Malmö
  latitude: 55.60839
  longitude: 13.02886

- location:
  caption: McDonald's Mjölby
  city: Mjölby
  latitude: 58.32372
  longitude: 15.09217

- location:
  caption: McDonald's Luleå
  city: Luleå
  latitude: 65.60276
  longitude: 22.13344

- location:
  caption: McDonald's Malmö
  city: Malmö
  latitude: 55.58110
  longitude: 13.00396

- location:
  caption: McDonald's Södertälje
  city: Södertälje
  latitude: 59.20040
  longitude: 17.66267

- location:
  caption: McDonald's Motala
  city: Motala
  latitude: 58.53103
  longitude: 15.04390

- location:
  caption: McDonald's Lund
  city: Lund
  latitude: 55.70127
  longitude: 13.19640

- location:
  caption: McDonald's Mölndal
  city: Mölndal
  latitude: 57.64619
  longitude: 11.98506

- location:
  caption: McDonald's Nacka
  city: Nacka
  latitude: 59.31294
  longitude: 18.16089

- location:
  caption: McDonald's Strömstad
  city: Strömstad
  latitude: 59.06009
  longitude: 11.21374

- location:
  caption: McDonald's Lund
  city: Lund
  latitude: 55.72066
  longitude: 13.20147

- location:
  caption: McDonald's Växjö
  city: Växjö
  latitude: 56.90210
  longitude: 14.82823

- location:
  caption: McDonald's Skövde
  city: Skövde
  latitude: 58.40664
  longitude: 13.85493

- location:
  caption: McDonald's Norrtälje
  city: Norrtälje
  latitude: 59.74796
  longitude: 18.68659

- location:
  caption: McDonald's Nybro
  city: Nybro
  latitude: 56.73511
  longitude: 15.93372

- location:
  caption: McDonald's Stockholm
  city: Stockholm
  latitude: 59.33503
  longitude: 18.07790

- location:
  caption: McDonald's Sköndal
  city: Sköndal
  latitude: 59.26252
  longitude: 18.10016

- location:
  caption: McDonald's Upplands Väsby
  city: Upplands Väsby
  latitude: 59.54964
  longitude: 17.89814

- location:
  caption: McDonald's Göteborg
  city: Göteborg
  latitude: 57.70856
  longitude: 11.96986

- location:
  caption: McDonald's Göteborg
  city: Göteborg
  latitude: 57.7195
  longitude: 11.9333

- location:
  caption: McDonald's Stockholm
  city: Stockholm
  latitude: 59.33083
  longitude: 18.06852

- location:
  caption: McDonald's Malmö
  city: Malmö
  latitude: 55.58390
  longitude: 13.05514

- location:
  caption: McDonald's Sundbyberg
  city: Sundbyberg
  latitude: 59.37997
  longitude: 17.94404

- location:
  caption: McDonald's Borås
  city: Borås
  latitude: 57.73281
  longitude: 12.93512

- location:
  caption: McDonald's Skövde
  city: Skövde
  latitude: 58.39031
  longitude: 13.84617

- location:
  caption: McDonald's Växjö
  city: Växjö
  latitude: 56.88293
  longitude: 14.76413

- location:
  caption: McDonald's Göteborg
  city: Göteborg
  latitude: 57.69983
  longitude: 11.98695

- location:
  caption: McDonald's Stockholm
  city: Stockholm
  latitude: 59.33356
  longitude: 18.06385

- location:
  caption: McDonald's Nacka
  city: Nacka
  latitude: 59.3056
  longitude: 18.1287

- location:
  caption: McDonald's Skara
  city: Skara
  latitude: 58.39019
  longitude: 13.46068

- location:
  caption: McDonald's Västerås
  city: Västerås
  latitude: 59.61064
  longitude: 16.54956

- location:
  caption: McDonald's Partille
  city: Partille
  latitude: 57.74116
  longitude: 12.12537

- location:
  caption: McDonald's Arlanda
  city: Arlanda
  latitude: 59.64889
  longitude: 17.93039

- location:
  caption: McDonald's Skärholmen
  city: Skärholmen
  latitude: 59.27617
  longitude: 17.90709

- location:
  caption: McDonald's Stockholm
  city: Stockholm
  latitude: 59.31922
  longitude: 18.07379

- location:
  caption: McDonald's Solna
  city: Solna
  latitude: 59.35282
  longitude: 18.01664

- location:
  caption: McDonald's Staffanstorp
  city: Staffanstorp
  latitude: 55.64253
  longitude: 13.23692

- location:
  caption: McDonald's Helsingborg
  city: Helsingborg
  latitude: 56.05767
  longitude: 12.70483

- location:
  caption: McDonald's Västerås
  city: Västerås
  latitude: 59.63641
  longitude: 16.56363

- location:
  caption: McDonald's Uppsala
  city: Uppsala
  latitude: 59.84972
  longitude: 17.56102

- location:
  caption: McDonald's Stenungsund
  city: Stenungsund
  latitude: 58.06186
  longitude: 11.81754

- location:
  caption: McDonald's Hisings Backa
  city: Hisings Backa
  latitude: 57.7470
  longitude: 11.9921

- location:
  caption: McDonald's Hässleholm
  city: Hässleholm
  latitude: 56.17062
  longitude: 13.81885

- location:
  caption: McDonald's Norrköping
  city: Norrköping
  latitude: 58.60275
  longitude: 16.16553

- location:
  caption: McDonald's Sundsvall
  city: Sundsvall
  latitude: 62.39145
  longitude: 17.30416

- location:
  caption: McDonald's Borås
  city: Borås
  latitude: 57.73210
  longitude: 12.93844

- location:
  caption: McDonald's Strängnäs
  city: Strängnäs
  latitude: 59.3285
  longitude: 17.0174

- location:
  caption: McDonald's Köping
  city: Köping
  latitude: 59.51785
  longitude: 15.96640

- location:
  caption: McDonald's Järfälla
  city: Järfälla
  latitude: 59.46917
  longitude: 17.81084

- location:
  caption: McDonald's Sundbyberg
  city: Sundbyberg
  latitude: 59.36206
  longitude: 17.96879

- location:
  caption: McDonald's Sundsvall
  city: Sundsvall
  latitude: 62.4415
  longitude: 17.3302

- location:
  caption: McDonald's Stockholm
  city: Stockholm
  latitude: 59.34345
  longitude: 18.05589

- location:
  caption: McDonald's Svedala
  city: Svedala
  latitude: 55.51567
  longitude: 13.24537

- location:
  caption: McDonald's Arboga
  city: Arboga
  latitude: 59.42578
  longitude: 15.82736

- location:
  caption: McDonald's Haninge
  city: Haninge
  latitude: 59.18097
  longitude: 18.16063

- location:
  caption: McDonald's Söderhamn
  city: Söderhamn
  latitude: 61.29840
  longitude: 17.02815

- location:
  caption: McDonald's Örebro
  city: Örebro
  latitude: 59.26456
  longitude: 15.19817

- location:
  caption: McDonald's Ljungby
  city: Ljungby
  latitude: 56.81418
  longitude: 13.90632

- location:
  caption: McDonald's Stockholm
  city: Stockholm
  latitude: 59.33373
  longitude: 18.03226

- location:
  caption: McDonald's Linköping
  city: Linköping
  latitude: 58.43264
  longitude: 15.59008

- location:
  caption: McDonald's Uddevalla
  city: Uddevalla
  latitude: 58.3524
  longitude: 11.8092

- location:
  caption: McDonald's Värnamo
  city: Värnamo
  latitude: 57.16311
  longitude: 14.07376

- location:
  caption: McDonald's Trelleborg
  city: Trelleborg
  latitude: 55.37322
  longitude: 13.15617

- location:
  caption: McDonald's Malmö
  city: Malmö
  latitude: 55.59581
  longitude: 13.00270

- location:
  caption: McDonald's Tumba
  city: Tumba
  latitude: 59.19859
  longitude: 17.84152

- location:
  caption: McDonald's Tyresö
  city: Tyresö
  latitude: 59.24928
  longitude: 18.23099

- location:
  caption: McDonald's Täby
  city: Täby
  latitude: 59.44490
  longitude: 18.07110

- location:
  caption: McDonald's Töcksfors
  city: Töcksfors
  latitude: 59.510201
  longitude: 11.819100

- location:
  caption: McDonald's Uddevalla
  city: Uddevalla
  latitude: 58.34957
  longitude: 11.93268

- location:
  caption: McDonald's Umeå
  city: Umeå
  latitude: 63.82600
  longitude: 20.26189

- location:
  caption: McDonald's Upplands Väsby
  city: Upplands Väsby
  latitude: 59.51494
  longitude: 17.92701

- location:
  caption: McDonald's Uppsala
  city: Uppsala
  latitude: 59.86809
  longitude: 17.66113

- location:
  caption: McDonald's Valbo
  city: Valbo
  latitude: 60.63233
  longitude: 16.99072

- location:
  caption: McDonald's Linköping
  city: Linköping
  latitude: 58.40655
  longitude: 15.57794

- location:
  caption: McDonald's Varberg
  city: Varberg
  latitude: 57.17048
  longitude: 12.23556

- location:
  caption: McDonald's Västerås
  city: Västerås
  latitude: 59.60934
  longitude: 16.54652

- location:
  caption: McDonald's Stockholm
  city: Stockholm
  latitude: 59.33108
  longitude: 18.05915

- location:
  caption: McDonald's Karlskrona
  city: Karlskrona
  latitude: 56.20409
  longitude: 15.64363

- location:
  caption: McDonald's Vetlanda
  city: Vetlanda
  latitude: 57.41573
  longitude: 15.09122

- location:
  caption: McDonald's Kristianstad
  city: Kristianstad
  latitude: 56.02319
  longitude: 14.14385

- location:
  caption: McDonald's Vårgårda
  city: Vårgårda
  latitude: 58.0410
  longitude: 12.8008

- location:
  caption: McDonald's Karlstad
  city: Karlstad
  latitude: 59.38373
  longitude: 13.47575

- location:
  caption: McDonald's Ödåkra
  city: Ödåkra
  latitude: 56.0907
  longitude: 12.7565

- location:
  caption: McDonald's Vällingby
  city: Vällingby
  latitude: 59.36277
  longitude: 17.87512

- location:
  caption: McDonald's Gustavsberg
  city: Gustavsberg
  latitude: 59.3130
  longitude: 18.4270

- location:
  caption: McDonald's Hägersten
  city: Hägersten
  latitude: 59.29292
  longitude: 18.00039

- location:
  caption: McDonald's Eskilstuna
  city: Eskilstuna
  latitude: 59.39331
  longitude: 16.46705

- location:
  caption: McDonald's Nyköping
  city: Nyköping
  latitude: 58.75176
  longitude: 17.00447

- location:
  caption: McDonald's Västervik
  city: Västervik
  latitude: 57.75969
  longitude: 16.63685

- location:
  caption: McDonald's Örebro
  city: Örebro
  latitude: 59.27341
  longitude: 15.17602

- location:
  caption: McDonald's Växjö
  city: Växjö
  latitude: 56.87907
  longitude: 14.80273

- location:
  caption: McDonald's Ystad, Ystad
  city: Ystad, Ystad
  latitude: 55.43859
  longitude: 13.79134

- location:
  caption: McDonald's Lidköping
  city: Lidköping
  latitude: 58.49307
  longitude: 13.13872

- location:
  caption: McDonald's Åkersberga
  city: Åkersberga
  latitude: 59.48065
  longitude: 18.28469

- location:
  caption: McDonald's Årsta
  city: Årsta
  latitude: 59.28648
  longitude: 18.04978

- location:
  caption: McDonald's Älvsjö
  city: Älvsjö
  latitude: 59.27231
  longitude: 18.01251

- location:
  caption: McDonald's Ängelholm
  city: Ängelholm
  latitude: 56.25035
  longitude: 12.89303

- location:
  caption: McDonald's Helsingborg
  city: Helsingborg
  latitude: 56.01679
  longitude: 12.76108

- location:
  caption: McDonald's Örebro
  city: Örebro
  latitude: 59.26983
  longitude: 15.20980

- location:
  caption: McDonald's Örkelljunga
  city: Örkelljunga
  latitude: 56.2842
  longitude: 13.3377

- location:
  caption: McDonald's Östersund
  city: Östersund
  latitude: 63.17867
  longitude: 14.63657

- location:
  caption: McDonald's Trollhättan
  city: Trollhättan
  latitude: 58.31444
  longitude: 12.30698
