loctions:

- location:
  caption: Scandic Arvika
  city: Arvika
  latitude: 59.6556618
  longitude: 12.592489

- location:
  caption: Scandic Bollnäs
  city: Bollnäs
  latitude: 61.351147
  longitude: 16.401241

- location:
  caption: Scandic Borlänge
  city: Borlänge
  latitude: 60.484199
  longitude: 15.434925

- location:
  caption: Scandic Plaza Borås
  city: Borås
  latitude: 57.7240730349846
  longitude: 12.9404783248901

- location:
  caption: Scandic Lugnet
  city:
  latitude: 60.613062
  longitude: 15.65553

- location:
  caption: Scandic CH
  city:
  latitude: 60.676981
  longitude: 17.148667

- location:
  caption: Scandic Gävle Väst
  city: Gävle
  latitude: 60.671223
  longitude: 17.087377

- location:
  caption: Scandic Backadal
  city:
  latitude: 57.749104
  longitude: 11.988975

- location:
  caption: Scandic Crown
  city:
  latitude: 57.708042
  longitude: 11.977901

- location:
  caption: Scandic Europa
  city:
  latitude: 57.707911
  longitude: 11.970033

- location:
  caption: Scandic Mölndal
  city: Mölndal
  latitude: 57.653745
  longitude: 12.013694

- location:
  caption: Scandic Opalen
  city:
  latitude: 57.701704
  longitude: 11.984483

- location:
  caption: Scandic Rubinen
  city:
  latitude: 57.699709
  longitude: 11.976065

- location:
  caption: Scandic Hallandia
  city:
  latitude: 56.672426
  longitude: 12.858087

- location:
  caption: Scandic Helsingborg Nord
  city: Helsingborg
  latitude: 56.076704
  longitude: 12.729943

- location:
  caption: Scandic Elmia
  city: Jönköping
  latitude: 57.787108
  longitude: 14.227745

- location:
  caption: Scandic Portalen
  city:
  latitude: 57.783155
  longitude: 14.163094

- location:
  caption: Scandic Kalmar Väst
  city: Kalmar
  latitude: 56.673578
  longitude: 16.319357

- location:
  caption: Scandic Karlshamn
  city: Karlshamn
  latitude: 56.189618
  longitude: 14.846315

- location:
  caption: Scandic Karlskrona
  city: Karlskrona
  latitude: 56.162012
  longitude: 15.578369

- location:
  caption: Scandic Karlstad City
  city: Karlstad
  latitude: 59.379223
  longitude: 13.505974

- location:
  caption: Scandic Klarälven
  city: Karlstad
  latitude: 59.391268
  longitude: 13.495586

- location:
  caption: Scandic Winn
  city:
  latitude: 59.383036
  longitude: 13.504843

- location:
  caption: Scandic Ferrum
  city:
  latitude: 67.855552
  longitude: 20.223593

- location:
  caption: Scandic Frimurarehotellet
  city:
  latitude: 58.414622
  longitude: 15.623231

- location:
  caption: Scandic Linköping City
  city: Linköping
  latitude: 58.4121885598163
  longitude: 15.6329441070557

- location:
  caption: Scandic Linköping Väst
  city: Linköping
  latitude: 58.4058825633305
  longitude: 15.5596232414246

- location:
  caption: Scandic Luleå
  city: Luleå
  latitude: 65.603585
  longitude: 22.132816

- location:
  caption: Scandic Star
  city:
  latitude: 55.694733
  longitude: 13.224837

- location:
  caption: Scandic Kramer
  city:
  latitude: 55.6066551
  longitude: 12.999662

- location:
  caption: Scandic Malmö City
  city: Malmö
  latitude: 55.600966
  longitude: 13.004079

- location:
  caption: Scandic S:t Jörgen
  city:
  latitude: 55.6036186
  longitude: 13.0020918

- location:
  caption: Scandic Segevång
  city:
  latitude: 55.617194
  longitude: 13.063056

- location:
  caption: Scandic Triangeln
  city:
  latitude: 55.5964845
  longitude: 13.0015222

- location:
  caption: Scandic Norrköping City
  city: Norrköping
  latitude: 58.594972
  longitude: 16.185435

- location:
  caption: Scandic Norrköping Nord
  city: Norrköping
  latitude: 58.617434
  longitude: 16.162385

- location:
  caption: Scandic Nyköping City
  city: Nyköping
  latitude: 58.7525
  longitude: 17.0047

- location:
  caption: Scandic Skellefteå
  city: Skellefteå
  latitude: 64.751248
  longitude: 20.963368

- location:
  caption: Scandic Billingen
  city:
  latitude: 58.38963
  longitude: 13.850043

- location:
  caption: Scandic Alvik
  city:
  latitude: 59.332203
  longitude: 17.983895

- location:
  caption: Scandic Anglais
  city:
  latitude: 59.337164
  longitude: 18.072765

- location:
  caption: Scandic Ariadne
  city:
  latitude: 59.348749
  longitude: 18.113945

- location:
  caption: Scandic Bromma
  city: Bromma
  latitude: 59.337709
  longitude: 17.93679

- location:
  caption: Scandic Continental Stockholm
  city: Stockholm
  latitude: 59.330943
  longitude: 18.059593

- location:
  caption: Scandic Foresta
  city:
  latitude: 59.359927
  longitude: 18.120489

- location:
  caption: Scandic Grand Central
  city:
  latitude: 59.333862
  longitude: 18.05603

- location:
  caption: Scandic Hasselbacken
  city:
  latitude: 59.325758
  longitude: 18.099139

- location:
  caption: Scandic Infra City
  city:
  latitude: 59.49893
  longitude: 17.927577

- location:
  caption: Scandic Järva Krog
  city:
  latitude: 59.380129
  longitude: 18.008735

- location:
  caption: Scandic Kungens Kurva
  city:
  latitude: 59.272657
  longitude: 17.917285

- location:
  caption: Scandic Malmen
  city:
  latitude: 59.314592
  longitude: 18.072992

- location:
  caption: Scandic Norra Bantorget
  city:
  latitude: 59.336626
  longitude: 18.055773

- location:
  caption: Scandic Park
  city:
  latitude: 59.340723
  longitude: 18.07562

- location:
  caption: Scandic Sergel Plaza
  city:
  latitude: 59.331281
  longitude: 18.065668

- location:
  caption: Scandic Sjöfartshotellet
  city:
  latitude: 59.318867
  longitude: 18.07567

- location:
  caption: Scandic Star Sollentuna
  city: Sollentuna
  latitude: 59.4264713159936
  longitude: 17.951477766037

- location:
  caption: Scandic Täby
  city: Täby
  latitude: 59.433731
  longitude: 18.064778

- location:
  caption: Scandic Upplands Väsby
  city: Upplands Väsby
  latitude: 59.51508
  longitude: 17.921329

- location:
  caption: Scandic Victoria Tower
  city: Kista
  latitude: 59.407
  longitude: 17.9575

- location:
  caption: Scandic Sundsvall City
  city: Sundsvall
  latitude: 62.3895689
  longitude: 17.3053098

- location:
  caption: Scandic Sundsvall Nord
  city: Sundsvall
  latitude: 62.413628
  longitude: 17.348272

- location:
  caption: Scandic Skogshöjd
  city:
  latitude: 59.194681
  longitude: 17.618766

- location:
  caption: Scandic Södertälje
  city: Södertälje
  latitude: 59.172848
  longitude: 17.644626

- location:
  caption: Scandic Swania
  city:
  latitude: 58.28458
  longitude: 12.285825

- location:
  caption: Scandic Plaza Umeå
  city: Umeå
  latitude: 63.825697
  longitude: 20.258168

- location:
  caption: Scandic Umeå Syd
  city: Umeå
  latitude: 63.815876
  longitude: 20.251108

- location:
  caption: Scandic Uplandia
  city: Uppsala
  latitude: 59.860422
  longitude: 17.63821

- location:
  caption: Scandic Uppsala Nord
  city: Uppsala
  latitude: 59.8757473541907
  longitude: 17.6403093338013

- location:
  caption: Scandic Värnamo
  city: Värnamo
  latitude: 57.185204
  longitude: 14.041042

- location:
  caption: Scandic Västerås
  city: Västerås
  latitude: 59.61459
  longitude: 16.568444

- location:
  caption: Scandic Växjö
  city: Växjö
  latitude: 56.884792
  longitude: 14.761273

- location:
  caption: Scandic Grand Hotel
  city:
  latitude: 59.268929
  longitude: 15.205851

- location:
  caption: Scandic Örebro Väst
  city: Örebro
  latitude: 59.274942
  longitude: 15.176659

- location:
  caption: Scandic Örnsköldsvik
  city: Örnsköldsvik
  latitude: 63.303015
  longitude: 18.732712

- location:
  caption: Scandic Östersund City
  city: Östersund
  latitude: 63.175143
  longitude: 14.63851

- location:
  caption: Scandic Östersund Syd
  city: Östersund
  latitude: 63.159965
  longitude: 14.670342
