meta:
  name: AB Karl Hedin Bygghandel
  web: https://www.abkarlhedin.se/
  wikipedia: https://sv.wikipedia.org/wiki/AB_Karl_Hedin_Bygghandel
  category: Byggnadsmaterial
  locations: 50

locations:
- location: AB Karl Hedin Bygghandel
  city: Kungshamn
  country: Sverige
  latitude: 58.383187
  longitude: 11.301312

- location: AB Karl Hedin Bygghandel
  city: Munkedal
  country: Sverige
  latitude: 58.481437
  longitude: 11.637562

- location: AB Karl Hedin Bygghandel
  city: Trollhättan
  country: Sverige
  latitude: 58.276063
  longitude: 12.318812

- location: AB Karl Hedin Bygghandel
  city: Vänersborg
  country: Sverige
  latitude: 58.377688
  longitude: 12.338563

- location: AB Karl Hedin Bygghandel
  city: Torsby
  country: Sverige
  latitude: 60.151562
  longitude: 13.000687

- location: AB Karl Hedin Bygghandel
  city: Sunne
  country: Sverige
  latitude: 59.850188
  longitude: 13.123437

- location: AB Karl Hedin Bygghandel
  city: Sälen
  country: Sverige
  latitude: 61.166812
  longitude: 13.197437

- location: AB Karl Hedin Bygghandel
  city: Kil
  country: Sverige
  latitude: 59.501687
  longitude: 13.333687

- location: AB Karl Hedin Bygghandel
  city: Karlstad
  country: Sverige
  latitude: 59.373312
  longitude: 13.445313

- location: AB Karl Hedin Bygghandel
  city: Hagfors
  country: Sverige
  latitude: 60.011187
  longitude: 13.670438

- location: AB Karl Hedin Bygghandel
  city: Vemdalen
  country: Sverige
  latitude: 62.464562
  longitude: 13.866312

- location: AB Karl Hedin Bygghandel
  city: Kristinehamn
  country: Sverige
  latitude: 59.321938
  longitude: 14.099312

- location: AB Karl Hedin Bygghandel
  city: Filipstad
  country: Sverige
  latitude: 59.712312
  longitude: 14.153562

- location: AB Karl Hedin Bygghandel
  city: Sveg
  country: Sverige
  latitude: 62.032312
  longitude: 14.353063

- location: AB Karl Hedin Bygghandel
  city: Karlskoga
  country: Sverige
  latitude: 59.330188
  longitude: 14.486688

- location: AB Karl Hedin Bygghandel
  city: Mora
  country: Sverige
  latitude: 61.035937
  longitude: 14.522312

- location: AB Karl Hedin Bygghandel
  city: Orsa
  country: Sverige
  latitude: 61.116687
  longitude: 14.625187

- location: AB Karl Hedin Bygghandel
  city: Laxå
  country: Sverige
  latitude: 58.986562
  longitude: 14.635938

- location: AB Karl Hedin Bygghandel
  city: Östersund
  country: Sverige
  latitude: 63.161812
  longitude: 14.654687

- location: AB Karl Hedin Bygghandel
  city: Leksand
  country: Sverige
  latitude: 60.725188
  longitude: 14.996063

- location: AB Karl Hedin Bygghandel
  city: Rättvik
  country: Sverige
  latitude: 60.895187
  longitude: 15.147562

- location: AB Karl Hedin Bygghandel
  city: Örebro
  country: Sverige
  latitude: 59.264312
  longitude: 15.165188

- location: AB Karl Hedin Bygghandel
  city: Ludvika
  country: Sverige
  latitude: 60.129687
  longitude: 15.176813

- location: AB Karl Hedin Bygghandel
  city: Lindesberg
  country: Sverige
  latitude: 59.603687
  longitude: 15.192937

- location: AB Karl Hedin Bygghandel
  city: Borlänge
  country: Sverige
  latitude: 60.473188
  longitude: 15.420063

- location: AB Karl Hedin Bygghandel
  city: Falun
  country: Sverige
  latitude: 60.597313
  longitude: 15.655188

- location: AB Karl Hedin Bygghandel
  city: Säter
  country: Sverige
  latitude: 60.345312
  longitude: 15.740687

- location: AB Karl Hedin Bygghandel
  city: Edsbyn
  country: Sverige
  latitude: 61.371063
  longitude: 15.841313

- location: AB Karl Hedin Bygghandel
  city: Arboga
  country: Sverige
  latitude: 59.401438
  longitude: 15.870062

- location: AB Karl Hedin Bygghandel
  city: Hedemora
  country: Sverige
  latitude: 60.288438
  longitude: 15.985938

- location: AB Karl Hedin Bygghandel
  city: Köping
  country: Sverige
  latitude: 59.509187
  longitude: 15.994937

- location: AB Karl Hedin Bygghandel
  city: Ljusdal
  country: Sverige
  latitude: 61.836813
  longitude: 16.102313

- location: AB Karl Hedin Bygghandel
  city: Avesta
  country: Sverige
  latitude: 60.147963
  longitude: 16.178797

- location: AB Karl Hedin Bygghandel
  city: Fagersta
  country: Sverige
  latitude: 60.119062
  longitude: 16.208188

- location: AB Karl Hedin Bygghandel
  city: Hallstahammar
  country: Sverige
  latitude: 59.607563
  longitude: 16.248063

- location: AB Karl Hedin Bygghandel
  city: Hofors
  country: Sverige
  latitude: 60.539313
  longitude: 16.285812

- location: AB Karl Hedin Bygghandel
  city: Eskilstuna
  country: Sverige
  latitude: 59.381312
  longitude: 16.502812

- location: AB Karl Hedin Bygghandel
  city: Sala
  country: Sverige
  latitude: 59.919062
  longitude: 16.632562

- location: AB Karl Hedin Bygghandel
  city: Sandviken
  country: Sverige
  latitude: 60.612687
  longitude: 16.752437

- location: AB Karl Hedin Bygghandel
  city: Strängnäs
  country: Sverige
  latitude: 59.353687
  longitude: 17.030938

- location: AB Karl Hedin Bygghandel
  city: Söderhamn
  country: Sverige
  latitude: 61.327813
  longitude: 17.054063

- location: AB Karl Hedin Bygghandel
  city: Enköping
  country: Sverige
  latitude: 59.653213
  longitude: 17.075047

- location: AB Karl Hedin Bygghandel
  city: Hudiksvall
  country: Sverige
  latitude: 61.748062
  longitude: 17.118563

- location: AB Karl Hedin Bygghandel
  city: Gävle
  country: Sverige
  latitude: 60.665563
  longitude: 17.174437

- location: AB Karl Hedin Bygghandel
  city: Timrå
  country: Sverige
  latitude: 62.500812
  longitude: 17.339688

- location: AB Karl Hedin Bygghandel
  city: Sundsvall
  country: Sverige
  latitude: 62.379312
  longitude: 17.363687

- location: AB Karl Hedin Bygghandel
  city: Bålsta
  country: Sverige
  latitude: 59.559812
  longitude: 17.547187

- location: AB Karl Hedin Bygghandel
  city: Härnösand
  country: Sverige
  latitude: 62.648562
  longitude: 17.898562

- location: AB Karl Hedin Bygghandel
  city: Rimbo
  country: Sverige
  latitude: 59.744937
  longitude: 18.376562

- location: AB Karl Hedin Bygghandel
  city: Norrtälje
  country: Sverige
  latitude: 59.740188
  longitude: 18.691812
