meta:
  name: Byggmax
  web: https://www.byggmax.se/
  wikipedia: https://sv.wikipedia.org/wiki/Byggmax
  category: Byggnadsmaterial
  locations: 36

locations:
- location: Byggmax Fossumsbergsvägen 1
  city: Uddevalla
  country: Sverige
  latitude: 58.35222
  longitude: 11.95917

- location: Byggmax Transportgatan 39
  city: Hisings Backa
  country: Sverige
  latitude: 57.78
  longitude: 12.00028

- location: Byggmax Gamla Riksvägen 10-12
  city: Kållered
  country: Sverige
  latitude: 57.61667
  longitude: 12.04583

- location: Byggmax Annebergsvägen 6
  city: Varberg
  country: Sverige
  latitude: 57.16472
  longitude: 12.27667

- location: Byggmax Garnisonsgatan 46
  city: Helsingborg
  country: Sverige
  latitude: 56.08222
  longitude: 12.71222

- location: Byggmax Verkstadsgatan 2
  city: Halmstad
  country: Sverige
  latitude: 56.65778
  longitude: 12.89333

- location: Byggmax Getängsvägen 36
  city: Borås
  country: Sverige
  latitude: 57.73306
  longitude: 12.925

- location: Byggmax Fraktvägen 1
  city: Löddeköpinge
  country: Sverige
  latitude: 55.76778
  longitude: 12.99694

- location: Byggmax Vellingevägen
  city: Vellinge
  country: Sverige
  latitude: 55.48278
  longitude: 13.015

- location: Byggmax Maskinvägen 7
  city: Staffanstorp
  country: Sverige
  latitude: 55.65083
  longitude: 13.22833

- location: Byggmax Faktorigatan 5
  city: Karlstad
  country: Sverige
  latitude: 59.38028
  longitude: 13.52556

- location: Byggmax Norregårdsvägen 25
  city: Skövde
  country: Sverige
  latitude: 58.39583
  longitude: 13.89139

- location: Byggmax Industrigatan 2
  city: Kristianstad
  country: Sverige
  latitude: 56.0425
  longitude: 14.15694

- location: Byggmax Bultvägen 1
  city: Jönköping
  country: Sverige
  latitude: 57.75417
  longitude: 14.16944

- location: Byggmax Odenskogsv. 35
  city: Östersund
  country: Sverige
  latitude: 63.16444
  longitude: 14.68444

- location: Byggmax Ljungadalsgatan 17
  city: Växjö
  country: Sverige
  latitude: 56.89333
  longitude: 14.76556

- location: Byggmax Stångjärnsgatan 8
  city: Örebro
  country: Sverige
  latitude: 59.28944
  longitude: 15.2075

- location: Byggmax Yxhammargatan 5
  city: Falun
  country: Sverige
  latitude: 60.60611
  longitude: 15.62056

- location: Byggmax Uranvägen
  city: Karlskrona
  country: Sverige
  latitude: 56.21528
  longitude: 15.63611

- location: Byggmax Hagalundsvägen 3
  city: Linköping
  country: Sverige
  latitude: 58.41278
  longitude: 15.64472

- location: Byggmax Lindåkersgatan 12
  city: Norrköping
  country: Sverige
  latitude: 58.60194
  longitude: 16.18556

- location: Byggmax Tyska vägen 2
  city: Kalmar
  country: Sverige
  latitude: 56.69472
  longitude: 16.32833

- location: Byggmax Torestavägen 4
  city: Eskilstuna
  country: Sverige
  latitude: 59.40194
  longitude: 16.42111

- location: Byggmax Brandthovdagatan 10
  city: Västerås
  country: Sverige
  latitude: 59.61556
  longitude: 16.60556

- location: Byggmax Skogsta 22
  city: Hudiksvall
  country: Sverige
  latitude: 61.76944
  longitude: 17.09056

- location: Byggmax Atlasgatan 11
  city: Gävle
  country: Sverige
  latitude: 60.67611
  longitude: 17.18278

- location: Byggmax Lärlingsvägen 6
  city: Sundsvall
  country: Sverige
  latitude: 62.44056
  longitude: 17.32778

- location: Byggmax Hållnäsgatan 6A
  city: Uppsala
  country: Sverige
  latitude: 59.87889
  longitude: 17.58667

- location: Byggmax Tunabergsvägen 1
  city: Tumba
  country: Sverige
  latitude: 59.21472
  longitude: 17.82694

- location: Byggmax Kranvägen 8
  city: Upplands Väsby
  country: Sverige
  latitude: 59.50083
  longitude: 17.92333

- location: Byggmax Länna
  city: Skogås
  country: Sverige
  latitude: 59.1975
  longitude: 18.11861

- location: Byggmax Måttbandsvägen 3-5
  city: Täby
  country: Sverige
  latitude: 59.46626
  longitude: 18.12901

- location: Byggmax Sågvägen 22
  city: Åkersberga
  country: Sverige
  latitude: 59.47917
  longitude: 18.28611

- location: Byggmax Mätarvägen 2 B
  city: Umeå
  country: Sverige
  latitude: 63.85139
  longitude: 20.21333

- location: Byggmax Uppfinnarvägen 5
  city: Skellefteå
  country: Sverige
  latitude: 64.75889
  longitude: 20.90028

- location: Byggmax Betongvägen 5
  city: Luleå
  country: Sverige
  latitude: 65.61306
  longitude: 22.05333
