meta:
  name: Carlings
  web: https://carlings.com/
  wikipedia: https://sv.wikipedia.org/wiki/Carlings
  category: Kläder och konfektion
  locations: 159

locations:
- location: Carlings - Straume Sartor
  urn: urn:carlings:store:id:54B
  city: Straume
  latitude: 60.359424
  longitude: 5.124457

- location: Carlings - Loddefjord Vestkanten
  urn: urn:carlings:store:id:513
  city: Loddefjord
  latitude: 60.364148
  longitude: 5.23344

- location: Carlings - Haugesund Markedet
  urn: urn:carlings:store:id:N58
  city: Haugesund
  latitude: 59.41094
  longitude: 5.2737

- location: Carlings - Karmsund Oasen
  urn: urn:carlings:store:id:51B
  city: Karmsund
  latitude: 59.37736
  longitude: 5.307105

- location: Carlings - Ulset Åsane Senter
  urn: urn:carlings:store:id:50E
  city: Ulset
  latitude: 60.466337
  longitude: 5.322533

- location: Carlings - Bergen Strandgt. 10
  urn: urn:carlings:store:id:496
  city: Bergen
  latitude: 60.394671
  longitude: 5.323133

- location: Carlings - Nyborg Horisont
  urn: urn:carlings:store:id:N65
  city: Nyborg
  latitude: 60.469412
  longitude: 5.32321

- location: Carlings - Bergen Torgallmenningen 7
  urn: urn:carlings:store:id:54E
  city: Bergen
  latitude: 60.392932
  longitude: 5.323305

- location: Carlings - Bergen Storsenter
  urn: urn:carlings:store:id:50C
  city: Bergen
  latitude: 60.389688
  longitude: 5.331073

- location: Carlings - Bergen Lagunen Storsenter
  urn: urn:carlings:store:id:542
  city: Rådal
  latitude: 60.29688
  longitude: 5.331143

- location: Carlings - Haugesund Amanda Storsenter
  urn: urn:carlings:store:id:528
  city: Haugesund
  latitude: 59.395297
  longitude: 5.331631

- location: Carlings - Bryne M44
  urn: urn:carlings:store:id:N57
  city: Bryne
  latitude: 58.735596
  longitude: 5.640127

- location: Carlings - Hafrsfjord Madla
  urn: urn:carlings:store:id:53B
  city: Hafrsfjord
  latitude: 58.951412
  longitude: 5.67692

- location: Carlings - Sandnes Kvadrat Kjøpesenter 2
  urn: urn:carlings:store:id:533
  city: Sandnes
  latitude: 58.853447
  longitude: 5.731674

- location: Carlings - Stavanger
  urn: urn:carlings:store:id:532
  city: Stavanger
  latitude: 58.971115
  longitude: 5.736171

- location: Carlings - Førde Elvetorget
  urn: urn:carlings:store:id:494
  city: Førde
  latitude: 61.45277
  longitude: 5.849073

- location: Carlings - Ålesund AMFI Moa
  urn: urn:carlings:store:id:523
  city: Ålesund
  latitude: 62.465187
  longitude: 6.35161

- location: Carlings - Sogndal Sogningen Storsenter
  urn: urn:carlings:store:id:N51
  city: Sogndal
  latitude: 61.229851
  longitude: 7.100493

- location: Carlings - Molde AMFI Roseby
  urn: urn:carlings:store:id:535
  city: Molde
  latitude: 62.739299
  longitude: 7.178321

- location: Carlings - Alti Mandal
  urn: urn:carlings:store:id:N64
  city: Mandal
  latitude: 58.028947
  longitude: 7.460845

- location: Carlings - Kristiansund Storkaia
  urn: urn:carlings:store:id:51E
  city: Kristiansund
  latitude: 63.109591
  longitude: 7.732487

- location: Carlings - Kristiansand
  urn: urn:carlings:store:id:53F
  city: Kristiansand
  latitude: 58.145201
  longitude: 7.99577

- location: Carlings - Kristiansand Sørlandssenteret
  urn: urn:carlings:store:id:520
  city: Kristiansand
  latitude: 58.180026
  longitude: 8.129497

- location: Carlings - Arendal Amfi Arena
  urn: urn:carlings:store:id:51D
  city: Arendal
  latitude: 58.459655
  longitude: 8.763399

- location: Carlings - Skien Herkules
  urn: urn:carlings:store:id:52E
  city: Skien
  latitude: 59.19567
  longitude: 9.601493

- location: Carlings - Porsgrunn Down Town
  urn: urn:carlings:store:id:516
  city: Porsgrunn
  latitude: 59.138371
  longitude: 9.642348

- location: Carlings - Kongsberg Stortorvet Senter
  urn: urn:carlings:store:id:N67
  city: Kongsberg
  latitude: 59.668851
  longitude: 9.651861

- location: Carlings - Larvik
  urn: urn:carlings:store:id:52A
  city: Larvik
  latitude: 59.068427
  longitude: 10.046782

- location: Carlings - Drammen Gulskogen Senter
  urn: urn:carlings:store:id:53C
  city: Drammen
  latitude: 59.742645
  longitude: 10.157933

- location: Carlings - Sandefjord Hvaltorvet Kjøpesenter
  urn: urn:carlings:store:id:54A
  city: Sandefjord
  latitude: 59.130205
  longitude: 10.226147

- location: Carlings - Hønefoss
  urn: urn:carlings:store:id:53D
  city: Hønefoss
  latitude: 60.164828
  longitude: 10.254579

- location: Carlings - Trondheim City Syd
  urn: urn:carlings:store:id:536
  city: Tiller
  latitude: 63.361963
  longitude: 10.378904

- location: Carlings - Trondheim Torg
  urn: urn:carlings:store:id:493
  city: Trondheim
  latitude: 63.429382
  longitude: 10.392809

- location: Carlings - Trondheim Nordre gate
  urn: urn:carlings:store:id:51A
  city: Trondheim
  latitude: 63.432261
  longitude: 10.397143

- location: Carlings - Tønsberg Farmandstredet
  urn: urn:carlings:store:id:50F
  city: Tønsberg
  latitude: 59.269435
  longitude: 10.411695

- location: Carlings - Trondheim City Lade
  urn: urn:carlings:store:id:N61
  city: Trondheim
  latitude: 63.44487
  longitude: 10.44626

- location: Carlings - Lillehammer Strandtorget
  urn: urn:carlings:store:id:55D
  city: Lillehammer
  latitude: 61.11453
  longitude: 10.450493

- location: Carlings - Trondheim Sirkus Shopping
  urn: urn:carlings:store:id:N52
  city: Trondheim
  latitude: 63.436799
  longitude: 10.455548

- location: Carlings - Sandvika Storsenter
  urn: urn:carlings:store:id:518
  city: Sandvika
  latitude: 59.890681
  longitude: 10.520525

- location: Carlings - Fornebu Senter
  urn: urn:carlings:store:id:N62
  city: Fornebu
  latitude: 59.892406
  longitude: 10.621475

- location: Carlings - Oslo CC-Vest
  urn: urn:carlings:store:id:522
  city: Oslo
  latitude: 59.917654
  longitude: 10.636356

- location: Carlings - Moss
  urn: urn:carlings:store:id:537
  city: Moss
  latitude: 59.435384
  longitude: 10.660284

- location: Carlings - Gjøvik
  urn: urn:carlings:store:id:51F
  city: Gjøvik
  latitude: 60.800096
  longitude: 10.693603

- location: Carlings - Moss Mosseporten
  urn: urn:carlings:store:id:495
  city: Moss
  latitude: 59.44625
  longitude: 10.703232

- location: Carlings - Oslo Bogstadveien 22
  urn: urn:carlings:store:id:547
  city: Oslo
  latitude: 59.925543
  longitude: 10.722219

- location: Carlings - Oslo Arkaden
  urn: urn:carlings:store:id:503
  city: Oslo
  latitude: 59.911679
  longitude: 10.747856

- location: Carlings - Oslo City
  urn: urn:carlings:store:id:50A
  city: Oslo
  latitude: 59.912571
  longitude: 10.752367

- location: Carlings - Oslo Grünerløkka
  urn: urn:carlings:store:id:540
  city: Oslo
  latitude: 59.923813
  longitude: 10.759097

- location: Carlings - Vinterbro
  urn: urn:carlings:store:id:526
  city: Vinterbro
  latitude: 59.739509
  longitude: 10.770893

- location: Carlings - Storo Storsenter
  urn: urn:carlings:store:id:498
  city: Oslo
  latitude: 59.947339
  longitude: 10.773768

- location: Carlings - Ski Storsenter
  urn: urn:carlings:store:id:50B
  city: Ski
  latitude: 59.718492
  longitude: 10.837744

- location: Carlings - Fredrikstad Torvbyen
  urn: urn:carlings:store:id:514
  city: Fredrikstad
  latitude: 59.214663
  longitude: 10.939893

- location: Carlings - Lørenskog Triaden Storsenter
  urn: urn:carlings:store:id:N60
  city: Lørenskog
  latitude: 59.918618
  longitude: 10.953516

- location: Carlings - Lørenskog Metro
  urn: urn:carlings:store:id:506
  city: Lørenskog
  latitude: 59.928098
  longitude: 10.957403

- location: Carlings - Strømmen Storsenter
  urn: urn:carlings:store:id:511
  city: Strømmen
  latitude: 59.947102
  longitude: 11.005425

- location: Carlings - CC Hamar
  urn: urn:carlings:store:id:N63
  city: Hamar
  latitude: 60.79494
  longitude: 11.078642

- location: Carlings - Sarpsborg Amfi Borg
  urn: urn:carlings:store:id:52F
  city: Sarpsborg
  latitude: 59.274258
  longitude: 11.08233

- location: Carlings - Sarpsborg
  urn: urn:carlings:store:id:538
  city: Sarpsborg
  latitude: 59.2834
  longitude: 11.107564

- location: Carlings - Jessheim
  urn: urn:carlings:store:id:53E
  city: Jessheim
  latitude: 60.142851
  longitude: 11.171765

- location: Carlings - Strömstad Nordby Köpcentrum
  urn: urn:carlings:store:id:N09
  city: Strömstad
  latitude: 59.063286
  longitude: 11.213222

- location: Carlings - Levanger Magneten
  urn: urn:carlings:store:id:54F
  city: Levanger
  latitude: 63.742036
  longitude: 11.277637

- location: Carlings - Steinkjer
  urn: urn:carlings:store:id:54C
  city: Steinkjer
  latitude: 64.011299
  longitude: 11.49157

- location: Carlings - Namsos Storsenter
  urn: urn:carlings:store:id:543
  city: Namsos
  latitude: 64.467704
  longitude: 11.491601

- location: Carlings - Elverum Kremmertorget
  urn: urn:carlings:store:id:530
  city: Elverum
  latitude: 60.878588
  longitude: 11.566189

- location: Carlings - Uddevalla Torp Köpcentrum
  urn: urn:carlings:store:id:56A
  city: Uddevalla
  latitude: 58.350902
  longitude: 11.832533

- location: Carlings - Göteborg Frölunda Torg
  urn: urn:carlings:store:id:575
  city: Västra Frölunda
  latitude: 57.651337
  longitude: 11.910768

- location: Carlings - Göteborg Femman
  urn: urn:carlings:store:id:570
  city: Göteborg
  latitude: 57.708721
  longitude: 11.96954

- location: Carlings - Göteborg Kompassen
  urn: urn:carlings:store:id:557
  city: Göteborg
  latitude: 57.705626
  longitude: 11.970634

- location: Carlings - Partille Allum Köpcentrum
  urn: urn:carlings:store:id:58C
  city: Partille
  latitude: 57.739487
  longitude: 12.104058

- location: Carlings - Varberg Galleria
  urn: urn:carlings:store:id:58E
  city: Varberg
  latitude: 57.106268
  longitude: 12.247503

- location: Carlings - Charlottenberg
  urn: urn:carlings:store:id:59A
  city: Charlottenberg
  latitude: 59.882736
  longitude: 12.29001

- location: Carlings - Trollhättan Överby Köpcentrum
  urn: urn:carlings:store:id:N07
  city: Trollhättan
  latitude: 58.312081
  longitude: 12.306576

- location: Carlings - Helsingborg Väla, Ödåkra
  urn: urn:carlings:store:id:572
  city: Ödåkra
  latitude: 56.09251
  longitude: 12.756929

- location: Carlings - Halmstad Hallarna
  urn: urn:carlings:store:id:N23
  city: Halmstad
  latitude: 56.655329
  longitude: 12.911351

- location: Carlings - Borås Knalleland
  urn: urn:carlings:store:id:59C
  city: Borås
  latitude: 57.733084
  longitude: 12.939684

- location: Carlings - Malmö Emporia
  urn: urn:carlings:store:id:593
  city: Malmö
  latitude: 55.564354
  longitude: 12.974096

- location: Carlings - Malmö Triangeln
  urn: urn:carlings:store:id:591
  city: Malmö
  latitude: 55.596074
  longitude: 13.002427

- location: Carlings - Lund Nova
  urn: urn:carlings:store:id:596
  city: Lund
  latitude: 55.714275
  longitude: 13.160033

- location: Carlings - Karlstad Bergvik Köpcentrum
  urn: urn:carlings:store:id:552
  city: Karlstad
  latitude: 59.379649
  longitude: 13.42337

- location: Carlings - Karlstad Mitt i City
  urn: urn:carlings:store:id:58B
  city: Karlstad
  latitude: 59.379649
  longitude: 13.500652

- location: Carlings - Skövde Galleria Commerce
  urn: urn:carlings:store:id:N03
  city: Skövde
  latitude: 58.390107
  longitude: 13.844962

- location: Carlings - Mo i Rana
  urn: urn:carlings:store:id:508
  city: Mo i Rana
  latitude: 66.30815
  longitude: 14.136809

- location: Carlings - Jönköping Östra Storgatan
  urn: urn:carlings:store:id:58F
  city: Jönköping
  latitude: 57.782538
  longitude: 14.173436

- location: Carlings - Jönköping A6
  urn: urn:carlings:store:id:N02
  city: Jönköping
  latitude: 57.773168
  longitude: 14.201911

- location: Carlings - Kristianstad C4 Shopping
  urn: urn:carlings:store:id:555
  city: Kristianstad
  latitude: 56.025219
  longitude: 14.20293

- location: Carlings - Bodø Glasshuset
  urn: urn:carlings:store:id:55A
  city: Bodø
  latitude: 67.283845
  longitude: 14.379795

- location: Carlings - Bodø City Nord
  urn: urn:carlings:store:id:55F
  city: Bodø
  latitude: 67.277128
  longitude: 14.422569

- location: Carlings - Amfi Svolvær
  urn: urn:carlings:store:id:N55
  city: Svolvær
  latitude: 68.233312
  longitude: 14.559217

- location: Carlings - Östersund
  urn: urn:carlings:store:id:574
  city: Östersund
  latitude: 63.177166
  longitude: 14.637265

- location: Carlings - Växjö Samarkand
  urn: urn:carlings:store:id:N12
  city: Växjö
  latitude: 56.884828
  longitude: 14.765173

- location: Carlings - Örebro Mariebergs köpcentrum
  urn: urn:carlings:store:id:562
  city: Örebro
  latitude: 59.215696
  longitude: 15.137851

- location: Carlings - Örebro City
  urn: urn:carlings:store:id:567
  city: Örebro
  latitude: 59.27099
  longitude: 15.212266

- location: Carlings - Sortland Storsenter
  urn: urn:carlings:store:id:55E
  city: Sortland
  latitude: 68.694257
  longitude: 15.415899

- location: Carlings - Borlänge Kupolen
  urn: urn:carlings:store:id:565
  city: Borlänge
  latitude: 60.484482
  longitude: 15.417981

- location: Carlings - Linköping I-Huset
  urn: urn:carlings:store:id:56B
  city: Linköping
  latitude: 58.417269
  longitude: 15.616894

- location: Carlings - Linköping Gränden
  urn: urn:carlings:store:id:587
  city: Linköping
  latitude: 58.409532
  longitude: 15.626746

- location: Carlings - Falun Holmgatan
  urn: urn:carlings:store:id:N11
  city: Falun
  latitude: 60.607131
  longitude: 15.630455

- location: Carlings - Norrköping Ingelstad Köpcentrum
  urn: urn:carlings:store:id:N08
  city: Norrköping
  latitude: 58.61895
  longitude: 16.154494

- location: Carlings - Norrköping Spiralens Galleria
  urn: urn:carlings:store:id:573
  city: Norrköping
  latitude: 58.587083
  longitude: 16.190135

- location: Carlings - Kalmar Modehuset
  urn: urn:carlings:store:id:N10
  city: Kalmar
  latitude: 56.68728
  longitude: 16.320126

- location: Carlings - Västerås Erikslunds Köpcentrum
  urn: urn:carlings:store:id:N16
  city: Västerås
  latitude: 59.609976
  longitude: 16.454807

- location: Carlings - Eskilstuna Tuna Park
  urn: urn:carlings:store:id:57C
  city: Eskilstuna
  latitude: 59.371604
  longitude: 16.470115

- location: Carlings - Harstad
  urn: urn:carlings:store:id:527
  city: Harstad
  latitude: 68.798039
  longitude: 16.545024

- location: Carlings - Gävle Valbo
  urn: urn:carlings:store:id:558
  city: Valbo
  latitude: 60.634858
  longitude: 16.990185

- location: Carlings - Nyköping
  urn: urn:carlings:store:id:N17
  city: Nyköping
  latitude: 58.752387
  longitude: 17.005721

- location: Carlings - Hudiksvall Guldsmeden
  urn: urn:carlings:store:id:579
  city: Hudiksvall
  latitude: 61.728578
  longitude: 17.104039

- location: Carlings - Gävle Nian
  urn: urn:carlings:store:id:556
  city: Gävle
  latitude: 60.67414
  longitude: 17.140724

- location: Carlings - Sundsvall Birsta Köpcentrum
  urn: urn:carlings:store:id:59D
  city: Sundsvall
  latitude: 62.447178
  longitude: 17.335825

- location: Carlings - Narvik Storsenter
  urn: urn:carlings:store:id:539
  city: Narvik
  latitude: 68.441262
  longitude: 17.435292

- location: Carlings - Stockholm Södertälje Kringlan
  urn: urn:carlings:store:id:N06
  city: Stockholm
  latitude: 59.195604
  longitude: 17.628164

- location: Carlings - Uppsala Forum
  urn: urn:carlings:store:id:58D
  city: Uppsala
  latitude: 59.858335
  longitude: 17.641994

- location: Carlings - Uppsala Gränby
  urn: urn:carlings:store:id:N19
  city: Uppsala
  latitude: 59.877019
  longitude: 17.672659

- location: Carlings - Stockholm Vällingby
  urn: urn:carlings:store:id:57A
  city: Stockholm
  latitude: 59.363271
  longitude: 17.873994

- location: Carlings - Stockholm Skärholmen Centrum
  urn: urn:carlings:store:id:59B
  city: Stockholm
  latitude: 59.275888
  longitude: 17.906477

- location: Carlings - Stockholm Mall Of Scandinavia
  urn: urn:carlings:store:id:N21
  city: Stockholm
  latitude: 59.368879
  longitude: 18.008433

- location: Carlings - Stockholm Drottninggatan
  urn: urn:carlings:store:id:571
  city: Stockholm
  latitude: 59.331293
  longitude: 18.064124

- location: Carlings - Stockholm Gallerian
  urn: urn:carlings:store:id:588
  city: Stockholm
  latitude: 59.33122
  longitude: 18.067468

- location: Carlings - Stockholm Götgatan
  urn: urn:carlings:store:id:N01
  city: Stockholm
  latitude: 59.317645
  longitude: 18.071523

- location: Carlings - Stockholm Täby Cenrtum
  urn: urn:carlings:store:id:584
  city: Stockholm
  latitude: 59.443605
  longitude: 18.071685

- location: Carlings - Stockholm Farsta
  urn: urn:carlings:store:id:554
  city: Farsta
  latitude: 59.242885
  longitude: 18.091442

- location: Carlings - Visby
  urn: urn:carlings:store:id:56F
  city: Visby
  latitude: 57.638085
  longitude: 18.299532

- location: Carlings - Tromsø Jekta Storsenter
  urn: urn:carlings:store:id:529
  city: Tromsø
  latitude: 69.674594
  longitude: 18.921075

- location: Carlings - Umeå Avion
  urn: urn:carlings:store:id:N22
  city: Umeå
  latitude: 63.806702
  longitude: 20.253928

- location: Carlings - Umeå Utopia
  urn: urn:carlings:store:id:580
  city: Umeå
  latitude: 63.824759
  longitude: 20.264278

- location: Carlings - Skellefteå Citykompaniet
  urn: urn:carlings:store:id:599
  city: Skellefteå
  latitude: 64.750155
  longitude: 20.954361

- location: Carlings - Vaasa Espen
  urn: urn:carlings:store:id:F17
  city: Vaasa
  latitude: 63.096584
  longitude: 21.613841

- location: Carlings - Pori Puuvilla
  urn: urn:carlings:store:id:F08
  city: Pori
  latitude: 61.492495
  longitude: 21.798674

- location: Carlings - Luleå Storgatan
  urn: urn:carlings:store:id:N15
  city: Luleå
  latitude: 65.584593
  longitude: 22.154699

- location: Carlings - Raisio Mylly
  urn: urn:carlings:store:id:F41
  city: Raisio
  latitude: 60.491753
  longitude: 22.201016

- location: Carlings - Turku Hansakortteli
  urn: urn:carlings:store:id:F10
  city: Turku
  latitude: 60.45103
  longitude: 22.26412

- location: Carlings - Turku Skanssi
  urn: urn:carlings:store:id:F18
  city: Turku
  latitude: 60.429719
  longitude: 22.319354

- location: Carlings - Seinäjoki Ideapark
  urn: urn:carlings:store:id:F49
  city: Seinäjoki
  latitude: 62.792293
  longitude: 22.801414

- location: Carlings - Amfi Alta
  urn: urn:carlings:store:id:54D
  city: Alta
  latitude: 69.966585
  longitude: 23.272734

- location: Carlings - Tampere Koskikeskus
  urn: urn:carlings:store:id:F19
  city: Tampere
  latitude: 61.496799
  longitude: 23.767312

- location: Carlings - Lempäälä Ideapark
  urn: urn:carlings:store:id:F21
  city: Lempäälä
  latitude: 61.362614
  longitude: 23.7985

- location: Carlings - Tornio Rajalla
  urn: urn:carlings:store:id:F43
  city: Tornio
  latitude: 65.842977
  longitude: 24.14387

- location: Carlings - Hämeenlinna Goodman
  urn: urn:carlings:store:id:F06
  city: Hämeenlinna
  latitude: 60.996666
  longitude: 24.455864

- location: Carlings - Espoo Iso Omena
  urn: urn:carlings:store:id:F45
  city: Espoo
  latitude: 60.161697
  longitude: 24.737949

- location: Carlings - Espoo Sello
  urn: urn:carlings:store:id:F13
  city: Espoo
  latitude: 60.217426
  longitude: 24.811635

- location: Carlings - Hyvinkää Willa
  urn: urn:carlings:store:id:F27
  city: Hyvinkää
  latitude: 60.632156
  longitude: 24.865502

- location: Carlings - Helsinki Kamppi
  urn: urn:carlings:store:id:F15
  city: Helsinki
  latitude: 60.168596
  longitude: 24.931669

- location: Carlings - Helsinki Tripla
  urn: urn:carlings:store:id:F48
  city: Helsinki
  latitude: 60.19919
  longitude: 24.93739

- location: Carlings - Helsinki Forum
  urn: urn:carlings:store:id:F11
  city: Helsinki
  latitude: 60.169834
  longitude: 24.938514

- location: Carlings - Vantaa Jumbo
  urn: urn:carlings:store:id:F25
  city: Vantaa
  latitude: 60.291829
  longitude: 24.960837

- location: Carlings - Helsinki Redi
  urn: urn:carlings:store:id:F47
  city: Helsinki
  latitude: 60.188244
  longitude: 24.977225

- location: Carlings - Helsinki Itis
  urn: urn:carlings:store:id:F02
  city: Helsinki
  latitude: 60.209914
  longitude: 25.082984

- location: Carlings - Oulu Ideapark
  urn: urn:carlings:store:id:F07
  city: Oulu
  latitude: 65.076172
  longitude: 25.447315

- location: Carlings - Oulu Valkea
  urn: urn:carlings:store:id:F44
  city: Oulu
  latitude: 65.011422
  longitude: 25.472096

- location: Carlings - Kempele Zeppelin
  urn: urn:carlings:store:id:F22
  city: Kempele
  latitude: 64.901302
  longitude: 25.537599

- location: Carlings - Lahti Trio
  urn: urn:carlings:store:id:F29
  city: Lahti
  latitude: 60.982652
  longitude: 25.662222

- location: Carlings - Rovaniemi Revontuli
  urn: urn:carlings:store:id:F40
  city: Rovaniemi
  latitude: 66.503798
  longitude: 25.724181

- location: Carlings - Lahti Karisma
  urn: urn:carlings:store:id:F23
  city: Lahti
  latitude: 60.982529
  longitude: 25.736307

- location: Carlings - Jyväskylä Forum
  urn: urn:carlings:store:id:F16
  city: Jyväskylä
  latitude: 62.241421
  longitude: 25.743134

- location: Carlings - Jyväskylä Seppä
  urn: urn:carlings:store:id:F46
  city: Jyväskylä
  latitude: 62.256755
  longitude: 25.775558

- location: Carlings - Kouvola Veturi
  urn: urn:carlings:store:id:F26
  city: Kuusankoski
  latitude: 60.875829
  longitude: 26.654208

- location: Carlings - Kotka Pasaati
  urn: urn:carlings:store:id:F05
  city: Kotka
  latitude: 60.46618
  longitude: 26.944604

- location: Carlings - Kuopio Matkus
  urn: urn:carlings:store:id:F28
  city: Kuopio
  latitude: 62.839512
  longitude: 27.600896

- location: Carlings - Lappeenranta Galleria
  urn: urn:carlings:store:id:F01
  city: Lappeenranta
  latitude: 61.057543
  longitude: 28.186276

- location: Carlings - Joensuu Iso Myy
  urn: urn:carlings:store:id:F03
  city: Joensuu
  latitude: 62.601774
  longitude: 29.763915
