meta:
  name: Deichmann
  web: https://www.deichmann.com/
  wikipedia: https://sv.wikipedia.org/wiki/Deichmann
  category: Kläder och konfektion
  locations: 33

locations:
- location: Deichmann Torp Köpcentrum
  city: Uddevalla
  country: Sverige
  latitude: 58.354263
  longitude: 11.810047

- location: Deichmann Töcksfors
  city: Töcksfors
  country: Sverige
  latitude: 59.507813
  longitude: 11.842562

- location: Deichmann Frölunda Torg
  city: Göteborg
  country: Sverige
  latitude: 57.651063
  longitude: 11.912937

- location: Deichmann Kongahälla Shopping
  city: Kungälv
  country: Sverige
  latitude: 57.874437
  longitude: 11.966938

- location: Deichmann Angered Centrum
  city: Angered
  country: Sverige
  latitude: 57.796188
  longitude: 12.050562

- location: Deichmann Charlottenbergs Shoppingcenter
  city: Charlottenberg
  country: Sverige
  latitude: 59.881187
  longitude: 12.290688

- location: Deichmann Etage Shopping
  city: Trollhättan
  country: Sverige
  latitude: 58.312062
  longitude: 12.307187

- location: Deichmann Väla Centrum
  city: Ödåkra
  country: Sverige
  latitude: 56.091563
  longitude: 12.756937

- location: Deichmann Knalleland
  city: Borås
  country: Sverige
  latitude: 57.733812
  longitude: 12.938437

- location: Deichmann Emporia
  city: Malmö
  country: Sverige
  latitude: 55.564563
  longitude: 12.972437

- location: Deichmann Löddeköpinge
  city: Löddeköpinge
  country: Sverige
  latitude: 55.770063
  longitude: 12.989937

- location: Deichmann Mobilia
  city: Malmö
  country: Sverige
  latitude: 55.581437
  longitude: 13.003937

- location: Deichmann Valen Köpcentrum
  city: Trelleborg
  country: Sverige
  latitude: 55.374688
  longitude: 13.158188

- location: Deichmann Mitt I City
  city: Karlstad
  country: Sverige
  latitude: 59.380063
  longitude: 13.499937

- location: Deichmann C4 Shopping
  city: Kristianstad
  country: Sverige
  latitude: 56.025312
  longitude: 14.205312

- location: Deichmann Växjö
  city: Växjö
  country: Sverige
  latitude: 56.884563
  longitude: 14.766312

- location: Deichmann Marieberg Galleria
  city: Örebro
  country: Sverige
  latitude: 59.217437
  longitude: 15.137562

- location: Deichmann Vågen Galleria
  city: Örebro
  country: Sverige
  latitude: 59.269463
  longitude: 15.212484

- location: Deichmann Galleria Falun
  city: Falun
  country: Sverige
  latitude: 60.606813
  longitude: 15.628438

- location: Deichmann Mirum Galleria
  city: Norrköping
  country: Sverige
  latitude: 58.572938
  longitude: 16.209187

- location: Deichmann Hansa City
  city: Kalmar
  country: Sverige
  latitude: 56.687188
  longitude: 16.319688

- location: Deichmann Erikslund
  city: Västerås
  country: Sverige
  latitude: 59.609063
  longitude: 16.455062

- location: Deichmann Eskilstuna City
  city: Eskilstuna
  country: Sverige
  latitude: 59.371688
  longitude: 16.510438

- location: Deichmann Valbo Köpcentrum
  city: Gävle
  country: Sverige
  latitude: 60.633612
  longitude: 16.993234

- location: Deichmann Gottsunda Centrum
  city: Uppsala
  country: Sverige
  latitude: 59.810437
  longitude: 17.629688

- location: Deichmann Skärholmen Centrum
  city: Skärholmen
  country: Sverige
  latitude: 59.275562
  longitude: 17.906188

- location: Deichmann Upplands Väsby
  city: Upplands Väsby
  country: Sverige
  latitude: 59.518563
  longitude: 17.912188

- location: Deichmann Kista Galleria
  city: Kista
  country: Sverige
  latitude: 59.403063
  longitude: 17.944812

- location: Deichmann Liljeholmstorget
  city: Liljeholmen
  country: Sverige
  latitude: 59.309687
  longitude: 18.022188

- location: Deichmann Stockholm City
  city: Stockholm
  country: Sverige
  latitude: 59.332463
  longitude: 18.068484

- location: Deichmann Port 73
  city: Haninge
  country: Sverige
  latitude: 59.180062
  longitude: 18.151063

- location: Deichmann Nacka Forum
  city: Nacka
  country: Sverige
  latitude: 59.309287
  longitude: 18.164266

- location: Deichmann Avion Shopping
  city: Umeå
  country: Sverige
  latitude: 63.806687
  longitude: 20.253937
