meta:
  name: Hemtex
  web: https://www.hemtex.se/
  wikipedia: https://sv.wikipedia.org/wiki/Hemtex
  category: Heminredning
  locations: 115

locations:
- location: Hemtex Göteborg, Amhult
  urn: urn:hemtex:store:id:4714
  city: Torslanda
  country: Sweden
  latitude: 57.7118
  longitude: 11.7794

- location: Hemtex Stenungsund
  urn: urn:hemtex:store:id:4665
  city: Stenungsund
  country: Sweden
  latitude: 58.0667
  longitude: 11.8175

- location: Hemtex Uddevalla Torp
  urn: urn:hemtex:store:id:4618
  city: Uddevalla
  country: Sweden
  latitude: 58.3486
  longitude: 11.8496

- location: Hemtex Frölunda torg
  urn: urn:hemtex:store:id:4688
  city: Västra Frölunda
  country: Sweden
  latitude: 57.6541
  longitude: 11.9163

- location: Hemtex Göteborg, Eriksberg
  urn: urn:hemtex:store:id:4743
  city: Göteborg
  country: Sweden
  latitude: 57.7085
  longitude: 11.92

- location: Hemtex Södra Högsbo, 421
  urn: urn:hemtex:store:id:4734
  city: Västra Frölunda
  country: Sweden
  latitude: 57.6462
  longitude: 11.9551

- location: Hemtex Göteborg, Kungsgatan
  urn: urn:hemtex:store:id:4678
  city: Göteborg
  country: Sweden
  latitude: 57.704284
  longitude: 11.965721

- location: Hemtex Kungälv Kongahälla
  urn: urn:hemtex:store:id:4793
  city: Kungälv
  country: Sweden
  latitude: 57.8732
  longitude: 11.9685

- location: Hemtex Göteborg Bäckebol
  urn: urn:hemtex:store:id:4741
  city: Hisingsbacka
  country: Sweden
  latitude: 57.7473
  longitude: 11.9942

- location: Hemtex Kungsbacka Kungsmässan
  urn: urn:hemtex:store:id:4606
  city: Kungsbacka
  country: Sweden
  latitude: 57.4935
  longitude: 12.0705

- location: Hemtex Partille, Allum
  urn: urn:hemtex:store:id:4677
  city: Partille
  country: Sweden
  latitude: 57.7375
  longitude: 12.1137

- location: Hemtex Varberg
  urn: urn:hemtex:store:id:4630
  city: Varberg
  country: Sweden
  latitude: 57.1073
  longitude: 12.2522

- location: Hemtex Trollhättan, Överby
  urn: urn:hemtex:store:id:4702
  city: Trollhättan
  country: Sweden
  latitude: 58.3209
  longitude: 12.3005

- location: Hemtex Falkenberg
  urn: urn:hemtex:store:id:4632
  city: Falkenberg
  country: Sweden
  latitude: 56.903
  longitude: 12.4922

- location: Hemtex Alingsås, Vimpeln
  urn: urn:hemtex:store:id:4634
  city: Alingsås
  country: Sweden
  latitude: 57.9242
  longitude: 12.5447

- location: Hemtex Arvika
  urn: urn:hemtex:store:id:4724
  city: Arvika
  country: Sweden
  latitude: 59.6555
  longitude: 12.5931

- location: Hemtex Helsingborg Väla
  urn: urn:hemtex:store:id:4646
  city: Ödåkra
  country: Sweden
  latitude: 56.0913
  longitude: 12.7535

- location: Hemtex Halmstad
  urn: urn:hemtex:store:id:4669
  city: Halmstad
  country: Sweden
  latitude: 56.6756
  longitude: 12.8582

- location: Hemtex Ängelholm
  urn: urn:hemtex:store:id:4667
  city: Ängelholm
  country: Sweden
  latitude: 56.2436
  longitude: 12.8615

- location: Hemtex Halmstad Hallarna
  urn: urn:hemtex:store:id:4697
  city: Halmstad
  country: Sweden
  latitude: 56.65352
  longitude: 12.90789

- location: Hemtex Borås Knallerian
  urn: urn:hemtex:store:id:4693
  city: Borås
  country: Sweden
  latitude: 57.7325
  longitude: 12.9374

- location: Hemtex Borås City
  urn: urn:hemtex:store:id:4707
  city: Borås
  country: Sweden
  latitude: 57.7208
  longitude: 12.9379

- location: Hemtex Höllviken, Toppengallerian
  urn: urn:hemtex:store:id:4776
  city: Höllviken
  country: Sweden
  latitude: 55.424
  longitude: 12.9681

- location: Hemtex Malmö Emporia
  urn: urn:hemtex:store:id:4771
  city: Malmö
  country: Sweden
  latitude: 55.5657
  longitude: 12.9695

- location: Hemtex Gustav Adolfs Torg
  urn: urn:hemtex:store:id:4798
  city: Malmö
  country: Sweden
  latitude: 55.58028
  longitude: 12.970422

- location: Hemtex Löddeköpinge, Center Syd
  urn: urn:hemtex:store:id:4620
  city: Löddeköpinge
  country: Sweden
  latitude: 55.7702
  longitude: 12.9943

- location: Hemtex Malmö Triangeln
  urn: urn:hemtex:store:id:4649
  city: Malmö
  country: Sweden
  latitude: 55.5973
  longitude: 13.0019

- location: Hemtex Malmö Mobilia
  urn: urn:hemtex:store:id:4650
  city: Malmö
  country: Sweden
  latitude: 55.5746
  longitude: 13.0047

- location: Hemtex Lidköping
  urn: urn:hemtex:store:id:4614
  city: Lidköping
  country: Sweden
  latitude: 58.5037
  longitude: 13.1553

- location: Hemtex Lund, Nova
  urn: urn:hemtex:store:id:4658
  city: Lund
  country: Sweden
  latitude: 55.7144
  longitude: 13.1553

- location: Hemtex Lund
  urn: urn:hemtex:store:id:4728
  city: Lund
  country: Sweden
  latitude: 55.7026
  longitude: 13.1982

- location: Hemtex Karlstad Bergvik
  urn: urn:hemtex:store:id:4694
  city: Karlstad
  country: Sweden
  latitude: 59.3826
  longitude: 13.4131

- location: Hemtex Karlstad, Duvan
  urn: urn:hemtex:store:id:4601
  city: Karlstad
  country: Sweden
  latitude: 59.3797
  longitude: 13.4973

- location: Hemtex Falköping
  urn: urn:hemtex:store:id:4742
  city: Falköping
  country: Sweden
  latitude: 58.1611
  longitude: 13.5548

- location: Hemtex Ystad
  urn: urn:hemtex:store:id:4668
  city: Ystad
  country: Sweden
  latitude: 55.4309
  longitude: 13.8212

- location: Hemtex Skövde Commerce
  urn: urn:hemtex:store:id:4613
  city: Skövde
  country: Sweden
  latitude: 58.3908
  longitude: 13.8464

- location: Hemtex Skövde, Elins Esplanad
  urn: urn:hemtex:store:id:4751
  city: Skövde
  country: Sweden
  latitude: 58.4005
  longitude: 13.8586

- location: Hemtex Värnamo, Flanaden
  urn: urn:hemtex:store:id:4670
  city: Värnamo
  country: Sweden
  latitude: 57.1862
  longitude: 14.0407

- location: Hemtex Jönköping
  urn: urn:hemtex:store:id:4655
  city: Jönköping
  country: Sweden
  latitude: 57.7848
  longitude: 14.1832

- location: Hemtex Kristianstad C4
  urn: urn:hemtex:store:id:4790
  city: Kristianstad
  country: Sweden
  latitude: 56.023064
  longitude: 14.197162

- location: Hemtex Jönköping Asecs
  urn: urn:hemtex:store:id:4679
  city: Jönköping
  country: Sweden
  latitude: 57.7694
  longitude: 14.2009

- location: Hemtex Östersund
  urn: urn:hemtex:store:id:4609
  city: Östersund
  country: Sweden
  latitude: 63.178418
  longitude: 14.635218

- location: Hemtex Växjö Samarkand
  urn: urn:hemtex:store:id:4764
  city: Växjö
  country: Sweden
  latitude: 56.8902
  longitude: 14.7764

- location: Hemtex Karlshamn
  urn: urn:hemtex:store:id:4709
  city: Karlshamn
  country: Sweden
  latitude: 56.1714
  longitude: 14.8636

- location: Hemtex Tranås
  urn: urn:hemtex:store:id:4651
  city: Tranås
  country: Sweden
  latitude: 58.032
  longitude: 14.9833

- location: Hemtex Örebro Marieberg
  urn: urn:hemtex:store:id:4683
  city: Örebro
  country: Sweden
  latitude: 59.2197
  longitude: 15.1512

- location: Hemtex Örebro, Krämaren
  urn: urn:hemtex:store:id:4621
  city: Örebro
  country: Sweden
  latitude: 59.2673
  longitude: 15.2067

- location: Hemtex Borlänge, Kupolen
  urn: urn:hemtex:store:id:4684
  city: Borlänge
  country: Sweden
  latitude: 60.479
  longitude: 15.4102

- location: Hemtex Linköping I-Huset
  urn: urn:hemtex:store:id:4647
  city: Linköping
  country: Sweden
  latitude: 58.4323
  longitude: 15.5853

- location: Hemtex Linköping, Gränden
  urn: urn:hemtex:store:id:4602
  city: Linköping
  country: Sweden
  latitude: 58.4103
  longitude: 15.6227

- location: Hemtex Falun
  urn: urn:hemtex:store:id:4656
  city: Falun
  country: Sweden
  latitude: 60.6073
  longitude: 15.6315

- location: Hemtex Karlskrona Amiralen Shopping
  urn: urn:hemtex:store:id:4797
  city: Karlskrona
  country: Sweden
  latitude: 56.196945
  longitude: 15.639513

- location: Hemtex Vimmerby
  urn: urn:hemtex:store:id:4789
  city: Vimmerby
  country: Sweden
  latitude: 57.6659
  longitude: 15.8527

- location: Hemtex Norrköping, Ingelsta
  urn: urn:hemtex:store:id:4753
  city: Norrköping
  country: Sweden
  latitude: 58.6079
  longitude: 16.1723

- location: Hemtex Norrköping Domino
  urn: urn:hemtex:store:id:4660
  city: Norrköping
  country: Sweden
  latitude: 58.5874
  longitude: 16.1878

- location: Hemtex Katrineholm
  urn: urn:hemtex:store:id:4775
  city: Katrineholm
  country: Sweden
  latitude: 58.9946
  longitude: 16.203

- location: Hemtex Kalmar Hansa City
  urn: urn:hemtex:store:id:4754
  city: Kalmar
  country: Sweden
  latitude: 56.695
  longitude: 16.3227

- location: Hemtex Kalmar Giraffen
  urn: urn:hemtex:store:id:4794
  city: Kalmar
  country: Sweden
  latitude: 56.6717
  longitude: 16.3359

- location: Hemtex Hemtex Folkesta Handel
  urn: urn:hemtex:store:id:4800
  city: Eskilstuna
  country: Sweden
  latitude: 59.402025
  longitude: 16.424221

- location: Hemtex Oskarshamn
  urn: urn:hemtex:store:id:4792
  city: Oskarshamn
  country: Sweden
  latitude: 57.265817
  longitude: 16.446414

- location: Hemtex Eskilstuna Tuna Park
  urn: urn:hemtex:store:id:4767
  city: Eskilstuna
  country: Sweden
  latitude: 59.3714
  longitude: 16.4494

- location: Hemtex Västerås Erikslund
  urn: urn:hemtex:store:id:4768
  city: Västerås
  country: Sweden
  latitude: 59.614
  longitude: 16.4627

- location: Hemtex Västerås City
  urn: urn:hemtex:store:id:4639
  city: Västerås
  country: Sweden
  latitude: 59.609984
  longitude: 16.543319

- location: Hemtex Västervik
  urn: urn:hemtex:store:id:4624
  city: Västervik
  country: Sweden
  latitude: 57.759
  longitude: 16.6358

- location: Hemtex Sandviken
  urn: urn:hemtex:store:id:4756
  city: Sandviken
  country: Sweden
  latitude: 60.6189
  longitude: 16.7793

- location: Hemtex Valbo
  urn: urn:hemtex:store:id:4796
  city: Valbo
  country: Sweden
  latitude: 60.6337
  longitude: 16.9934

- location: Hemtex Nyköping
  urn: urn:hemtex:store:id:4770
  city: Nyköping
  country: Sweden
  latitude: 58.748
  longitude: 17.0081

- location: Hemtex Strängnäs
  urn: urn:hemtex:store:id:4615
  city: Strängnäs
  country: Sweden
  latitude: 59.3736
  longitude: 17.0297

- location: Hemtex Gävle
  urn: urn:hemtex:store:id:4671
  city: Gävle
  country: Sweden
  latitude: 60.6746
  longitude: 17.1396

- location: Hemtex Sundsvall Birsta
  urn: urn:hemtex:store:id:4627
  city: Sundsvall
  country: Sweden
  latitude: 62.4287
  longitude: 17.2819

- location: Hemtex Sundsvall City
  urn: urn:hemtex:store:id:4699
  city: Sundsvall
  country: Sweden
  latitude: 62.3952
  longitude: 17.301

- location: Hemtex Södertälje, Kringlan
  urn: urn:hemtex:store:id:4666
  city: Södertälje
  country: Sweden
  latitude: 59.1964
  longitude: 17.626

- location: Hemtex Uppsala City
  urn: urn:hemtex:store:id:4631
  city: Uppsala
  country: Sweden
  latitude: 59.8589
  longitude: 17.6398

- location: Hemtex Uppsala Gränbystaden
  urn: urn:hemtex:store:id:4672
  city: Uppsala
  country: Sweden
  latitude: 59.8716
  longitude: 17.6631

- location: Hemtex Uppsala Boländerna
  urn: urn:hemtex:store:id:4760
  city: Uppsala
  country: Sweden
  latitude: 59.8516
  longitude: 17.6686

- location: Hemtex Tumba Centrum
  urn: urn:hemtex:store:id:4733
  city: Tumba
  country: Sweden
  latitude: 59.1984
  longitude: 17.8316

- location: Hemtex Jakobsberg Centrum
  urn: urn:hemtex:store:id:4700
  city: Järfälla
  country: Sweden
  latitude: 59.423
  longitude: 17.8374

- location: Hemtex Barkarby
  urn: urn:hemtex:store:id:4717
  city: Järfälla
  country: Sweden
  latitude: 59.4217
  longitude: 17.8603

- location: Hemtex Vällingby
  urn: urn:hemtex:store:id:4740
  city: Vällingby
  country: Sweden
  latitude: 59.3633
  longitude: 17.8741

- location: Hemtex Upplands Väsby
  urn: urn:hemtex:store:id:4713
  city: Upplands Väsby
  country: Sweden
  latitude: 59.5175
  longitude: 17.8907

- location: Hemtex Kungens Kurva
  urn: urn:hemtex:store:id:4782
  city: Kungens Kurva
  country: Sweden
  latitude: 59.2667
  longitude: 17.9167

- location: Hemtex Nynäshamn
  urn: urn:hemtex:store:id:4746
  city: Nynäshamn
  country: Sweden
  latitude: 58.9066
  longitude: 17.942

- location: Hemtex Sollentuna Centrum
  urn: urn:hemtex:store:id:4791
  city: Sollentuna
  country: Sweden
  latitude: 59.42907
  longitude: 17.9517

- location: Hemtex Bromma
  urn: urn:hemtex:store:id:4765
  city: Bromma
  country: Sweden
  latitude: 59.3513
  longitude: 17.961

- location: Hemtex Huddinge
  urn: urn:hemtex:store:id:4720
  city: Huddinge
  country: Sweden
  latitude: 59.2354
  longitude: 17.9827

- location: Hemtex Mall of Scandinavia
  urn: urn:hemtex:store:id:4881
  city: Solna
  country: Sweden
  latitude: 59.3732
  longitude: 17.9982

- location: Hemtex Solna Centrum
  urn: urn:hemtex:store:id:4687
  city: Solna
  country: Sweden
  latitude: 59.3599
  longitude: 18.0005

- location: Hemtex Liljeholmen
  urn: urn:hemtex:store:id:4759
  city: Stockholm
  country: Sweden
  latitude: 59.3092
  longitude: 18.0195

- location: Hemtex Sthlm Västermalmsgallerian
  urn: urn:hemtex:store:id:4695
  city: Stockholm
  country: Sweden
  latitude: 59.3357
  longitude: 18.0335

- location: Hemtex Danderyd, Mörby Centrum
  urn: urn:hemtex:store:id:4674
  city: Danderyd
  country: Sweden
  latitude: 59.3975
  longitude: 18.0366

- location: Hemtex Drottninggatan
  urn: urn:hemtex:store:id:4801
  city: Stockholm
  country: Sweden
  latitude: 59.33447
  longitude: 18.0607

- location: Hemtex Regeringsgatan
  urn: urn:hemtex:store:id:4617
  city: Stockholm
  country: Sweden
  latitude: 59.3352
  longitude: 18.0665

- location: Hemtex Täby
  urn: urn:hemtex:store:id:4661
  city: Täby
  country: Sweden
  latitude: 59.4426
  longitude: 18.0677

- location: Hemtex Stockholm, Götgatan
  urn: urn:hemtex:store:id:4654
  city: Stockholm
  country: Sweden
  latitude: 59.3129
  longitude: 18.0741

- location: Hemtex Globen
  urn: urn:hemtex:store:id:4604
  city: Johanneshov
  country: Sweden
  latitude: 59.2934
  longitude: 18.0826

- location: Hemtex Stockholm, Fältöversten
  urn: urn:hemtex:store:id:4706
  city: Stockholm
  country: Sweden
  latitude: 59.3369
  longitude: 18.0917

- location: Hemtex Farsta Centrum
  urn: urn:hemtex:store:id:4629
  city: Farsta
  country: Sweden
  latitude: 59.2425
  longitude: 18.0918

- location: Hemtex Sickla
  urn: urn:hemtex:store:id:4664
  city: Nacka
  country: Sweden
  latitude: 59.3036
  longitude: 18.125

- location: Hemtex Länna, Skogås
  urn: urn:hemtex:store:id:4718
  city: Länna
  country: Sweden
  latitude: 59.1981
  longitude: 18.126

- location: Hemtex Lidingö Centrum
  urn: urn:hemtex:store:id:4686
  city: Lidingö
  country: Sweden
  latitude: 59.3631
  longitude: 18.1367

- location: Hemtex Port 73, Haninge
  urn: urn:hemtex:store:id:4802
  city: Haninge
  country: Sweden
  latitude: 59.179427
  longitude: 18.147794

- location: Hemtex Nacka Forum
  urn: urn:hemtex:store:id:4628
  city: Nacka
  country: Sweden
  latitude: 59.3107
  longitude: 18.1656

- location: Hemtex Tyresö
  urn: urn:hemtex:store:id:4744
  city: Tyresö
  country: Sweden
  latitude: 59.2448
  longitude: 18.2265

- location: Hemtex Åkersberga
  urn: urn:hemtex:store:id:4762
  city: Åkersberga
  country: Sweden
  latitude: 59.475
  longitude: 18.3001

- location: Hemtex Visby
  urn: urn:hemtex:store:id:4788
  city: Visby
  country: Sweden
  latitude: 57.623097
  longitude: 18.324893

- location: Hemtex Värmdö
  urn: urn:hemtex:store:id:4698
  city: Gustavsberg
  country: Sweden
  latitude: 59.3071
  longitude: 18.4023

- location: Hemtex Örnsköldsvik
  urn: urn:hemtex:store:id:4635
  city: Örnsköldsvik
  country: Sweden
  latitude: 63.2893
  longitude: 18.7187

- location: Hemtex Umeå City
  urn: urn:hemtex:store:id:4607
  city: Umeå
  country: Sweden
  latitude: 63.8257
  longitude: 20.2611

- location: Hemtex Umeå Avion Shopping
  urn: urn:hemtex:store:id:4783
  city: Umeå
  country: Sweden
  latitude: 63.7847
  longitude: 20.2841

- location: Hemtex Kiruna
  urn: urn:hemtex:store:id:4773
  city: Kiruna
  country: Sweden
  latitude: 67.849272
  longitude: 20.305429

- location: Hemtex Skellefteå
  urn: urn:hemtex:store:id:4642
  city: Skellefteå
  country: Sweden
  latitude: 64.7499
  longitude: 20.951

- location: Hemtex Piteå
  urn: urn:hemtex:store:id:4641
  city: Piteå
  country: Sweden
  latitude: 65.316801
  longitude: 21.47796

- location: Hemtex Boden
  urn: urn:hemtex:store:id:4680
  city: Boden
  country: Sweden
  latitude: 65.8238
  longitude: 21.6851

- location: Hemtex Luleå Storheden
  urn: urn:hemtex:store:id:4708
  city: Luleå
  country: Sweden
  latitude: 65.6154
  longitude: 22.0446

- location: Hemtex Luleå
  urn: urn:hemtex:store:id:4644
  city: Luleå
  country: Sweden
  latitude: 65.5856
  longitude: 22.1565
