meta:
  name: Indiska Magasinet
  web: https://www.indiska.com/
  wikipedia: https://sv.wikipedia.org/wiki/Indiska_Magasinet
  category: Kläder och konfektion
  locations: 40

locations:
- location: Nordby
  city: Strömstad
  latitude: 59.064158
  longitude: 11.208232

- location: Torp
  city: Uddevalla
  latitude: 58.354714
  longitude: 11.812218

- location: Kungsgatan Göteborg
  city: Göteborg
  latitude: 57.704259
  longitude: 11.96625

- location: Femmanhuset
  city: Göteborg
  latitude: 57.7085
  longitude: 11.969754

- location: Mölndal Galleria
  city: Mölndal
  latitude: 57.65403
  longitude: 12.014714

- location: Överby Etage
  city: Trollhättan
  latitude: 58.312606
  longitude: 12.30813

- location: Halmstad
  city: Halmstad
  latitude: 56.675273
  longitude: 12.857322

- location: Borås
  city: Borås
  latitude: 57.72009
  longitude: 12.939553

- location: Malmö
  city: Malmö
  latitude: 55.604082
  longitude: 13.001387

- location: Lund
  city: Lund
  latitude: 55.701695
  longitude: 13.19231

- location: Mitt i City
  city: Karlstad
  latitude: 59.379376
  longitude: 13.500737

- location: Kristianstad
  city: Kristianstad
  latitude: 56.029113
  longitude: 14.157033

- location: Jönköping
  city: Jönköping
  latitude: 57.782333
  longitude: 14.171754

- location: Östersund
  city: Östersund
  latitude: 63.178368
  longitude: 14.636646

- location: Växjö
  city: Växjö
  latitude: 56.878657
  longitude: 14.805412

- location: Örebro
  city: Örebro
  latitude: 59.270398
  longitude: 15.209755

- location: Kupolen
  city: Borlänge
  latitude: 60.48443
  longitude: 15.418356

- location: Karlskrona
  city: Karlskrona
  latitude: 56.161487
  longitude: 15.583538

- location: Falun
  city: Falun
  latitude: 60.60616
  longitude: 15.632152

- location: Giraffen
  city: Kalmar
  latitude: 56.6705
  longitude: 16.337711

- location: Erikslund
  city: Västerås
  latitude: 59.609688
  longitude: 16.455784

- location: Västerås
  city: Västerås
  latitude: 59.610788
  longitude: 16.545381

- location: Gävle
  city: Gävle
  latitude: 60.675112
  longitude: 17.142165

- location: Birsta City
  city: Sundsvall
  latitude: 62.446999
  longitude: 17.335938

- location: Uppsala City
  city: Uppsala
  latitude: 59.8595
  longitude: 17.636918

- location: Gränby
  city: Uppsala
  latitude: 59.876764
  longitude: 17.671213

- location: Liljeholmstorget
  city: Stockholm
  latitude: 59.309421
  longitude: 18.022606

- location: Odenplan
  city: Stockholm
  latitude: 59.342169
  longitude: 18.048677

- location: Indiska Kungsgatan Stockholm
  city: Stockholm
  latitude: 59.335113
  longitude: 18.060976

- location: Täby Centrum
  city: Täby
  latitude: 59.444121
  longitude: 18.069789

- location: Götgatan
  city: Stockholm
  latitude: 59.316429
  longitude: 18.072104

- location: Ringen
  city: Stockholm
  latitude: 59.308984
  longitude: 18.075535

- location: Nacka Forum
  city: Nacka
  latitude: 59.310769
  longitude: 18.163958

- location: Avion
  city: Umeå
  latitude: 63.809779
  longitude: 20.253921

- location: Umeå
  city: Umeå
  latitude: 63.826545
  longitude: 20.259947

- location: Skellefteå
  city: Skellefteå
  latitude: 64.75077
  longitude: 20.954994

- location: Småstaden
  city: Piteå
  latitude: 65.316635
  longitude: 21.478167

- location: Luleå
  city: Luleå
  latitude: 65.584349
  longitude: 22.150381

- location: Linköping
  city: Linköping
  latitude: 15.623224
  longitude: 58.410332

- location: Sturegallerian
  city: Stockholm
  latitude: 18.073313
  longitude: 59.336767
