meta:
  name: Kappahl
  web: https://www.kappahl.com/
  wikipedia: https://sv.wikipedia.org/wiki/Kappahl
  category: Kläder och konfektion
  locations: 161

locations:
- location: Kappahl - Nordby Shoppingcenter
  city: Strömstad
  country: Sverige
  latitude: 58.939454
  longitude: 11.172654

- location: Kappahl - Lysekil
  city: Lysekil
  country: Sverige
  latitude: 58.274669
  longitude: 11.43693

- location: Kappahl - Stenungs Torg
  city: Stenungsund
  country: Sverige
  latitude: 58.069862
  longitude: 11.818911

- location: Kappahl - Töcksfors Shoppingcenter
  city: Töcksfors
  country: Sverige
  latitude: 59.506454
  longitude: 11.844788

- location: Kappahl - Torp Köpcentrum
  city: Uddevalla
  country: Sverige
  latitude: 58.346764
  longitude: 11.845055

- location: Kappahl - Frölunda Torg
  city: Västra Frölunda
  country: Sverige
  latitude: 57.650909
  longitude: 11.909324

- location: Kappahl - Newbie Frölunda Torg
  city: Västra Frölunda
  country: Sverige
  latitude: 57.65106
  longitude: 11.91301

- location: Kappahl - Köpcentra 421
  city: Västra Frölunda
  country: Sverige
  latitude: 57.650574
  longitude: 11.948439

- location: Kappahl - Backaplan Köpcenter
  city: Göteborg
  country: Sverige
  latitude: 57.72258
  longitude: 11.951388

- location: Kappahl - Kongahälla Center
  city: Kungälv
  country: Sverige
  latitude: 57.874129
  longitude: 11.967966

- location: Kappahl - Newbie, Femman
  city: Göteborg
  country: Sverige
  latitude: 57.70925
  longitude: 11.96892

- location: Kappahl - Nordstan
  city: Göteborg
  country: Sverige
  latitude: 57.70816
  longitude: 11.96911

- location: Kappahl - Avenyn
  city: Göteborg
  country: Sverige
  latitude: 57.699463
  longitude: 11.976454

- location: Kappahl - Bäckebols Köpcenter
  city: Hisings Backa
  country: Sverige
  latitude: 57.76881
  longitude: 12.00092

- location: Kappahl - Mölndal Galleria
  city: Mölndal
  country: Sverige
  latitude: 57.654141
  longitude: 12.013936

- location: Kappahl - K-Center
  city: Kållered
  country: Sverige
  latitude: 57.60817
  longitude: 12.044566

- location: Kappahl - Angereds Torg
  city: Angered
  country: Sverige
  latitude: 57.793857
  longitude: 12.055663

- location: Kappahl - Kungsmässan
  city: Kungsbacka
  country: Sverige
  latitude: 57.492614
  longitude: 12.074083

- location: Kappahl - Allum Köpcenter
  city: Partille
  country: Sverige
  latitude: 57.737502
  longitude: 12.105132

- location: Kappahl - Galleria Trädgården
  city: Varberg
  country: Sverige
  latitude: 57.105975
  longitude: 12.24751

- location: Kappahl - Solkatten Köpcentrum
  city: Lerum
  country: Sverige
  latitude: 57.7695
  longitude: 12.2688

- location: Kappahl - Charlottenberg Shoppingcenter
  city: Charlottenberg
  country: Sverige
  latitude: 59.881886
  longitude: 12.289806

- location: Kappahl - Trollhättan City
  city: Trollhättan
  country: Sverige
  latitude: 58.284893
  longitude: 12.290492

- location: Kappahl - SIBA-Huset Överby
  city: Trollhättan
  country: Sverige
  latitude: 58.312007
  longitude: 12.306572

- location: Kappahl - Kronan Shopping
  city: Falkenberg
  country: Sverige
  latitude: 56.902555
  longitude: 12.491486

- location: Kappahl - Affärshuset Storken
  city: Alingsås
  country: Sverige
  latitude: 57.930093
  longitude: 12.535328

- location: Kappahl - Arvika
  city: Arvika
  country: Sverige
  latitude: 59.655637
  longitude: 12.593072

- location: Kappahl - Kinna
  city: Kinna
  country: Sverige
  latitude: 57.507276
  longitude: 12.691882

- location: Kappahl - Helsingborg City
  city: Helsingborg
  country: Sverige
  latitude: 56.048047
  longitude: 12.693646

- location: Kappahl - Väla Köpcenter
  city: Ödåkra
  country: Sverige
  latitude: 56.093467
  longitude: 12.755498

- location: Kappahl - Newbie Väla Köpcenter
  city: Ödåkra
  country: Sverige
  latitude: 56.09205
  longitude: 12.75683

- location: Kappahl - Landskrona
  city: Landskrona
  country: Sverige
  latitude: 55.871257
  longitude: 12.833114

- location: Kappahl - Halmstad City
  city: Halmstad
  country: Sverige
  latitude: 56.675523
  longitude: 12.856386

- location: Kappahl - Ängelholm
  city: Ängelholm
  country: Sverige
  latitude: 56.243777
  longitude: 12.862731

- location: Kappahl - Hallarna
  city: Halmstad
  country: Sverige
  latitude: 56.657226
  longitude: 12.908388

- location: Kappahl - Köpcentrum 45
  city: Säffle
  country: Sverige
  latitude: 59.134202
  longitude: 12.92018

- location: Kappahl - Knalleland
  city: Borås
  country: Sverige
  latitude: 57.735241
  longitude: 12.938371

- location: Kappahl - Borås City
  city: Borås
  country: Sverige
  latitude: 57.720368
  longitude: 12.939967

- location: Kappahl - Mellbystrand
  city: Mellbystrand
  country: Sverige
  latitude: 56.503095
  longitude: 12.956364

- location: Kappahl - Emporia Shoppingcenter
  city: Malmö
  country: Sverige
  latitude: 55.56429
  longitude: 12.97313

- location: Kappahl - Center Syd
  city: Löddeköpinge
  country: Sverige
  latitude: 55.769552
  longitude: 12.990519

- location: Kappahl - Triangeln
  city: Malmö
  country: Sverige
  latitude: 55.595973
  longitude: 13.001723

- location: Kappahl - Mobilia
  city: Malmö
  country: Sverige
  latitude: 55.580381
  longitude: 13.003861

- location: Kappahl - Burlövs Centrum
  city: Arlöv
  country: Sverige
  latitude: 55.639528
  longitude: 13.083846

- location: Kappahl - Lidköping
  city: Lidköping
  country: Sverige
  latitude: 58.508319
  longitude: 13.147354

- location: Kappahl - Valen Köpcenter
  city: Trelleborg
  country: Sverige
  latitude: 55.374173
  longitude: 13.158432

- location: Kappahl - Nova Köpcenter
  city: Lund
  country: Sverige
  latitude: 55.71394
  longitude: 13.159958

- location: Kappahl - Lund
  city: Lund
  country: Sverige
  latitude: 55.701905
  longitude: 13.197777

- location: Kappahl - Eslöv
  city: Eslöv
  country: Sverige
  latitude: 55.838247
  longitude: 13.303176

- location: Kappahl - Ulricehamn
  city: Ulricehamn
  country: Sverige
  latitude: 57.79308
  longitude: 13.4137

- location: Kappahl - Bergviks köpcenter
  city: Karlstad
  country: Sverige
  latitude: 59.376355
  longitude: 13.423343

- location: Kappahl - Gallerian Duvan
  city: Karlstad
  country: Sverige
  latitude: 59.379151
  longitude: 13.499663

- location: Kappahl - Gislaved
  city: Gislaved
  country: Sverige
  latitude: 57.302038
  longitude: 13.539983

- location: Kappahl - Varuhuset Ryttaren
  city: Falköping
  country: Sverige
  latitude: 58.160732
  longitude: 13.554706

- location: Kappahl - Gallerian
  city: Hässleholm
  country: Sverige
  latitude: 56.158922
  longitude: 13.767285

- location: Kappahl - Ystad
  city: Ystad
  country: Sverige
  latitude: 55.429875
  longitude: 13.82178

- location: Kappahl - Varuhuset Knallen
  city: Mariestad
  country: Sverige
  latitude: 58.709007
  longitude: 13.823695

- location: Kappahl - Commerce Köpcentrum
  city: Skövde
  country: Sverige
  latitude: 58.389996
  longitude: 13.845

- location: Kappahl - Elins Esplanad
  city: Skövde
  country: Sverige
  latitude: 58.405522
  longitude: 13.854527

- location: Kappahl - Ljungby
  city: Ljungby
  country: Sverige
  latitude: 56.834502
  longitude: 13.941061

- location: Kappahl - Värnamo
  city: Värnamo
  country: Sverige
  latitude: 57.184523
  longitude: 14.04336

- location: Kappahl - Kristinehamn
  city: Kristinehamn
  country: Sverige
  latitude: 59.308154
  longitude: 14.110158

- location: Kappahl - Kristianstad, City
  city: Kristianstad
  country: Sverige
  latitude: 56.02956
  longitude: 14.15716

- location: Kappahl - Jönköping City
  city: Jönköping
  country: Sverige
  latitude: 57.782535
  longitude: 14.173476

- location: Kappahl - Kristianstad, C4
  city: Kristianstad
  country: Sverige
  latitude: 56.023607
  longitude: 14.196139

- location: Kappahl - Asecs
  city: Jönköping
  country: Sverige
  latitude: 57.773383
  longitude: 14.202253

- location: Kappahl - Rosengallerian
  city: Huskvarna
  country: Sverige
  latitude: 57.790259
  longitude: 14.27516

- location: Kappahl - K-Center
  city: Karlskoga
  country: Sverige
  latitude: 59.326619
  longitude: 14.524575

- location: Kappahl - Rondellens köpcenter
  city: Mora
  country: Sverige
  latitude: 61.008518
  longitude: 14.587762

- location: Kappahl - Östersund City
  city: Östersund
  country: Sverige
  latitude: 63.177642
  longitude: 14.636798

- location: Kappahl - Mjällby
  city: Sölvesborg
  country: Sverige
  latitude: 56.04441
  longitude: 14.67357

- location: Kappahl - Lillänge
  city: Östersund
  country: Sverige
  latitude: 63.17519
  longitude: 14.69487

- location: Kappahl - Nässjö
  city: Nässjö
  country: Sverige
  latitude: 57.652962
  longitude: 14.695172

- location: Kappahl - Grand Samarkand
  city: Växjö
  country: Sverige
  latitude: 56.884464
  longitude: 14.761595

- location: Kappahl - Växjö
  city: Växjö
  country: Sverige
  latitude: 56.878837
  longitude: 14.803617

- location: Kappahl - Karlshamn
  city: Karlshamn
  country: Sverige
  latitude: 56.170511
  longitude: 14.864446

- location: Kappahl - Tranås
  city: Tranås
  country: Sverige
  latitude: 58.035995
  longitude: 14.975827

- location: Kappahl - Motala
  city: Motala
  country: Sverige
  latitude: 58.537238
  longitude: 15.035334

- location: Kappahl - Gallerian
  city: Vetlanda
  country: Sverige
  latitude: 57.424797
  longitude: 15.086113

- location: Kappahl - Galleria Kvarnen
  city: Mjölby
  country: Sverige
  latitude: 58.325694
  longitude: 15.12528

- location: Kappahl - Mariebergs Galleria
  city: Örebro
  country: Sverige
  latitude: 59.216501
  longitude: 15.139235

- location: Kappahl - Galleria Engelbrekt
  city: Ludvika
  country: Sverige
  latitude: 60.149394
  longitude: 15.185332

- location: Kappahl - Örebro City
  city: Örebro
  country: Sverige
  latitude: 59.270988
  longitude: 15.212251

- location: Kappahl - KappAhl
  city: Borlänge
  country: Sverige
  latitude: 60.484166
  longitude: 15.417971

- location: Kappahl - Tornby Köpcenter
  city: Linköping
  country: Sverige
  latitude: 58.43295
  longitude: 15.58666

- location: Kappahl - Gyllenhuset
  city: Linköping
  country: Sverige
  latitude: 58.410643
  longitude: 15.62653

- location: Kappahl - Bergströms Galleria
  city: Falun
  country: Sverige
  latitude: 60.605754
  longitude: 15.632101

- location: Kappahl - Amiralen Köpcenter
  city: Lyckeby
  country: Sverige
  latitude: 56.196978
  longitude: 15.641813

- location: Kappahl - Köping
  city: Köping
  country: Sverige
  latitude: 59.513505
  longitude: 15.997337

- location: Kappahl - Ingelsta Köpcenter
  city: Norrköping
  country: Sverige
  latitude: 58.618416
  longitude: 16.154663

- location: Kappahl - Avesta
  city: Avesta
  country: Sverige
  latitude: 60.14588
  longitude: 16.16825

- location: Kappahl - Norrköping
  city: Norrköping
  country: Sverige
  latitude: 58.585993
  longitude: 16.189591

- location: Kappahl - Violen Gallerian
  city: Katrineholm
  country: Sverige
  latitude: 58.994301
  longitude: 16.20972

- location: Kappahl - Hansa City
  city: Kalmar
  country: Sverige
  latitude: 56.693715
  longitude: 16.34763

- location: Kappahl - Kalmar
  city: Kalmar
  country: Sverige
  latitude: 56.663838
  longitude: 16.364405

- location: Kappahl - Bollnäs
  city: Bollnäs
  country: Sverige
  latitude: 61.347705
  longitude: 16.394972

- location: Kappahl - Oskarshamn
  city: Oskarshamn
  country: Sverige
  latitude: 57.263773
  longitude: 16.447877

- location: Kappahl - Erikslunds Shopping Center
  city: Västerås
  country: Sverige
  latitude: 59.611242
  longitude: 16.462113

- location: Kappahl - Tuna Park
  city: Eskilstuna
  country: Sverige
  latitude: 59.371344
  longitude: 16.470114

- location: Kappahl - Ölands Köpstad
  city: Färjestaden
  country: Sverige
  latitude: 56.655743
  longitude: 16.477915

- location: Kappahl - Västerås City
  city: Västerås
  country: Sverige
  latitude: 59.611817
  longitude: 16.544552

- location: Kappahl - Sala
  city: Sala
  country: Sverige
  latitude: 59.919726
  longitude: 16.605803

- location: Kappahl - Västerport
  city: Västervik
  country: Sverige
  latitude: 57.757727
  longitude: 16.639654

- location: Kappahl - Sandviken
  city: Sandviken
  country: Sverige
  latitude: 60.619703
  longitude: 16.778278

- location: Kappahl - Valbo Köpcentrum
  city: Valbo
  country: Sverige
  latitude: 60.63369
  longitude: 16.99337

- location: Kappahl - Nyköping
  city: Nyköping
  country: Sverige
  latitude: 58.751965
  longitude: 17.006303

- location: Kappahl - Strängnäs
  city: Strängnäs
  country: Sverige
  latitude: 59.376321
  longitude: 17.027038

- location: Kappahl - Söderhamn
  city: Söderhamn
  country: Sverige
  latitude: 61.302968
  longitude: 17.056994

- location: Kappahl - Hudiksvall
  city: Hudiksvall
  country: Sverige
  latitude: 61.7274
  longitude: 17.104363

- location: Kappahl - KappAhl
  city: Gävle
  country: Sverige
  latitude: 60.67402
  longitude: 17.140977

- location: Kappahl - Sollefteå
  city: Sollefteå
  country: Sverige
  latitude: 63.16736
  longitude: 17.268868

- location: Kappahl - IN:Gallerian
  city: Sundsvall
  country: Sverige
  latitude: 62.391289
  longitude: 17.306657

- location: Kappahl - Birsta
  city: Sundsvall
  country: Sverige
  latitude: 62.447125
  longitude: 17.335877

- location: Kappahl - Bålsta
  city: Bålsta
  country: Sverige
  latitude: 59.566189
  longitude: 17.529126

- location: Kappahl - Rinken
  city: Södertälje
  country: Sverige
  latitude: 59.187468
  longitude: 17.574141

- location: Kappahl - Uppsala City
  city: Uppsala
  country: Sverige
  latitude: 59.859175
  longitude: 17.637966

- location: Kappahl - Gränby Centrum
  city: Uppsala
  country: Sverige
  latitude: 59.877019
  longitude: 17.672659

- location: Kappahl - Boländerna
  city: Uppsala
  country: Sverige
  latitude: 59.844631
  longitude: 17.690166

- location: Kappahl - Gallerian Christoffer
  city: Kramfors
  country: Sverige
  latitude: 62.93222
  longitude: 17.77788

- location: Kappahl - Ekerö
  city: Ekerö
  country: Sverige
  latitude: 59.290913
  longitude: 17.812188

- location: Kappahl - Tumba Centrum
  city: Tumba
  country: Sverige
  latitude: 59.19939
  longitude: 17.834612

- location: Kappahl - Jakobsbergs Centrum
  city: Järfälla
  country: Sverige
  latitude: 59.423939
  longitude: 17.835652

- location: Kappahl - Märsta Centrum
  city: Märsta
  country: Sverige
  latitude: 59.621473
  longitude: 17.857537

- location: Kappahl - Barkarby
  city: Järfälla
  country: Sverige
  latitude: 59.416177
  longitude: 17.858192

- location: Kappahl - Vällingby City
  city: Vällingby
  country: Sverige
  latitude: 59.362783
  longitude: 17.874147

- location: Kappahl - Skärholmen
  city: Skärholmen
  country: Sverige
  latitude: 59.275101
  longitude: 17.906631

- location: Kappahl - Väsby Centrum
  city: Upplands Väsby
  country: Sverige
  latitude: 59.518665
  longitude: 17.909925

- location: Kappahl - Kungens Kurva Shoppingcenter
  city: Kungens Kurva
  country: Sverige
  latitude: 59.269477
  longitude: 17.917156

- location: Kappahl - Härnösand
  city: Härnösand
  country: Sverige
  latitude: 62.63686
  longitude: 17.92748

- location: Kappahl - Kista Galleria
  city: Kista
  country: Sverige
  latitude: 59.404028
  longitude: 17.942409

- location: Kappahl - Sollentuna Centrum
  city: Sollentuna
  country: Sverige
  latitude: 59.427903
  longitude: 17.952835

- location: Kappahl - Huddinge Centrum
  city: Huddinge
  country: Sverige
  latitude: 59.235651
  longitude: 17.981407

- location: Kappahl - Mall of Scandinavia
  city: Solna
  country: Sverige
  latitude: 59.370894
  longitude: 18.000088

- location: Kappahl - Newbie Mall of Scandinavia
  city: Solna
  country: Sverige
  latitude: 59.371547
  longitude: 18.004264

- location: Kappahl - Liljeholmstorgets Galleria
  city: Stockholm
  country: Sverige
  latitude: 59.309532
  longitude: 18.022421

- location: Kappahl - Drottninggatan
  city: Stockholm
  country: Sverige
  latitude: 59.333296
  longitude: 18.061865

- location: Kappahl - Newbie Sergelgatan
  city: Stockholm
  country: Sverige
  latitude: 59.33439
  longitude: 18.06325

- location: Kappahl - Täby Centrum
  city: Täby
  country: Sverige
  latitude: 59.444922
  longitude: 18.069076

- location: Kappahl - Newbie Fältöversten
  city: Stockholm
  country: Sverige
  latitude: 59.33889
  longitude: 18.09099

- location: Kappahl - Farsta Centrum
  city: Farsta
  country: Sverige
  latitude: 59.24259
  longitude: 18.093019

- location: Kappahl - Sickla
  city: Nacka
  country: Sverige
  latitude: 59.306035
  longitude: 18.124495

- location: Kappahl - Haninge City
  city: Haninge
  country: Sverige
  latitude: 59.16916
  longitude: 18.140268

- location: Kappahl - Haninge Port 73
  city: Haninge
  country: Sverige
  latitude: 59.17949
  longitude: 18.1506

- location: Kappahl - Nacka Forum
  city: Nacka
  country: Sverige
  latitude: 59.309419
  longitude: 18.16439

- location: Kappahl - Tyresö Centrum
  city: Tyresö
  country: Sverige
  latitude: 59.245087
  longitude: 18.228536

- location: Kappahl - Åkersberga
  city: Åkersberga
  country: Sverige
  latitude: 59.481894
  longitude: 18.298111

- location: Kappahl - Visby
  city: Visby
  country: Sverige
  latitude: 57.637433
  longitude: 18.300412

- location: Kappahl - Värmdö
  city: Gustavsberg
  country: Sverige
  latitude: 59.312975
  longitude: 18.429351

- location: Kappahl - Lycksele
  city: Lycksele
  country: Sverige
  latitude: 64.59581
  longitude: 18.67637

- location: Kappahl - Norrtälje City
  city: Norrtälje
  country: Sverige
  latitude: 59.757154
  longitude: 18.700363

- location: Kappahl - Flygfyren
  city: Norrtälje
  country: Sverige
  latitude: 59.759584
  longitude: 18.701358

- location: Kappahl - Örnsköldsvik
  city: Örnsköldsvik
  country: Sverige
  latitude: 63.291
  longitude: 18.71553

- location: Kappahl - Kiruna
  city: Kiruna
  country: Sverige
  latitude: 67.844866
  longitude: 20.253766

- location: Kappahl - Avion Shopping
  city: Umeå
  country: Sverige
  latitude: 63.806484
  longitude: 20.254025

- location: Kappahl - Umeå City
  city: Umeå
  country: Sverige
  latitude: 63.82598
  longitude: 20.261757

- location: Kappahl - Ersboda
  city: Umeå
  country: Sverige
  latitude: 63.850599
  longitude: 20.299914

- location: Kappahl - Vintergatan Köpcenter
  city: Skellefteå
  country: Sverige
  latitude: 64.751568
  longitude: 20.953495

- location: Kappahl - Solbackens Handelsområde
  city: Skellefteå
  country: Sverige
  latitude: 64.76502
  longitude: 21.023522

- location: Kappahl - Piteå
  city: Piteå
  country: Sverige
  latitude: 65.331459
  longitude: 21.447986

- location: Kappahl - Storheden
  city: Luleå
  country: Sverige
  latitude: 65.618551
  longitude: 22.041571

- location: Kappahl - Smedjan
  city: Luleå
  country: Sverige
  latitude: 65.584168
  longitude: 22.152222
