meta:
  name: Lager 157 Sverige
  web: https://www.lager157.com/
  wikipedia: https://sv.wikipedia.org/wiki/Lager_157
  category: Kläder och konfektion
  locations: 51

locations:
- location: Lager 157 Torp
  city: Uddevalla
  urn: urn:lager157:se:store:id:70
  country: Sverige
  latitude: 58.3528
  longitude: 11.8073

- location: Lager 157 Töcksfors Handelspark
  city: Töcksfors
  urn: urn:lager157:se:store:id:40
  country: Sverige
  latitude: 59.5106
  longitude: 11.8207

- location: Lager 157 Backaplan
  city: Göteborg
  urn: urn:lager157:se:store:id:71
  country: Sverige
  latitude: 57.7262
  longitude: 11.9525

- location: Lager 157 Nordstan
  city: Göteborg
  urn: urn:lager157:se:store:id:32
  country: Sverige
  latitude: 57.708
  longitude: 11.9617

- location: Lager 157 Kållered
  city: Kållered
  urn: urn:lager157:se:store:id:13
  country: Sverige
  latitude: 57.6009
  longitude: 12.0473

- location: Lager 157 Charlottenbergs Handelspark
  city: Charlottenberg
  urn: urn:lager157:se:store:id:39
  country: Sverige
  latitude: 59.878
  longitude: 12.2855

- location: Lager 157 Trollhättan
  city: Trollhättan
  urn: urn:lager157:se:store:id:45
  country: Sverige
  latitude: 58.3124
  longitude: 12.3087

- location: Lager 157 Alingsås
  city: Alingsås
  urn: urn:lager157:se:store:id:58
  country: Sverige
  latitude: 57.9401
  longitude: 12.5282

- location: Lager 157 Höganäs
  city: Höganäs
  urn: urn:lager157:se:store:id:9
  country: Sverige
  latitude: 56.2112
  longitude: 12.5562

- location: Lager 157 Väla
  city: Helsingborg
  urn: urn:lager157:se:store:id:59
  country: Sverige
  latitude: 56.0907
  longitude: 12.7462

- location: Lager 157 Borås/Viared
  city: Borås
  urn: urn:lager157:se:store:id:42
  country: Sverige
  latitude: 57.7097
  longitude: 12.8604

- location: Lager 157 Halmstad
  city: Halmstad
  urn: urn:lager157:se:store:id:6
  country: Sverige
  latitude: 56.6609
  longitude: 12.9062

- location: Lager 157 Center Syd
  city: Löddeköpinge
  urn: urn:lager157:se:store:id:3
  country: Sverige
  latitude: 55.7723
  longitude: 12.9859

- location: Lager 157 Svågertorp
  city: Malmö
  urn: urn:lager157:se:store:id:17
  country: Sverige
  latitude: 55.5521
  longitude: 12.9906

- location: Lager 157 Bernstorp Malmö Nord
  city: Burlöv
  urn: urn:lager157:se:store:id:62
  country: Sverige
  latitude: 55.612
  longitude: 13.1009

- location: Lager 157 Nova Lund
  city: Lund
  urn: urn:lager157:se:store:id:36
  country: Sverige
  latitude: 55.7147
  longitude: 13.1546

- location: Lager 157 Gällstad
  city: Gällstad
  urn: urn:lager157:se:store:id:4
  country: Sverige
  latitude: 57.67
  longitude: 13.43

- location: Lager 157 Karlstad
  city: Karlstad
  urn: urn:lager157:se:store:id:11
  country: Sverige
  latitude: 59.3949
  longitude: 13.5749

- location: Lager 157 Stallsiken
  city: Skövde
  urn: urn:lager157:se:store:id:44
  country: Sverige
  latitude: 58.4084
  longitude: 13.8842

- location: Lager 157 Kristianstad
  city: Kristianstad
  urn: urn:lager157:se:store:id:41
  country: Sverige
  latitude: 56.0242
  longitude: 14.1169

- location: Lager 157 Jönköping
  city: Jönköping
  urn: urn:lager157:se:store:id:10
  country: Sverige
  latitude: 57.7602
  longitude: 14.1694

- location: Lager 157 Östersund
  city: Östersund
  urn: urn:lager157:se:store:id:28
  country: Sverige
  latitude: 63.1716
  longitude: 14.6892

- location: Lager 157 Växjö
  city: Växjö
  urn: urn:lager157:se:store:id:22
  country: Sverige
  latitude: 56.8768
  longitude: 14.7685

- location: Lager 157 Örebro
  city: Örebro
  urn: urn:lager157:se:store:id:23
  country: Sverige
  latitude: 59.2583
  longitude: 15.169

- location: Lager 157 Kupolen Borlänge
  city: Borlänge
  urn: urn:lager157:se:store:id:2
  country: Sverige
  latitude: 60.4851
  longitude: 15.4167

- location: Lager 157 Linköping
  city: Linköping
  urn: urn:lager157:se:store:id:14
  country: Sverige
  latitude: 58.4341
  longitude: 15.6004

- location: Lager 157 Amiralen Karlskrona
  city: Karlskrona
  urn: urn:lager157:se:store:id:52
  country: Sverige
  latitude: 56.198
  longitude: 15.6441

- location: Lager 157 Norrköping
  city: Norrköping
  urn: urn:lager157:se:store:id:15
  country: Sverige
  latitude: 58.6121
  longitude: 16.1598

- location: Lager 157 Kalmar
  city: Kalmar
  urn: urn:lager157:se:store:id:29
  country: Sverige
  latitude: 56.6824
  longitude: 16.3181

- location: Lager 157 Västerås
  city: Västerås
  urn: urn:lager157:se:store:id:21
  country: Sverige
  latitude: 59.6102
  longitude: 16.4568

- location: Lager 157 Tuna Park
  city: Eskilstuna
  urn: urn:lager157:se:store:id:53
  country: Sverige
  latitude: 59.3754
  longitude: 16.469

- location: Lager 157 Västervik
  city: Västervik
  urn: urn:lager157:se:store:id:20
  country: Sverige
  latitude: 57.7422
  longitude: 16.6576

- location: Lager 157 Gävle
  city: Gävle
  urn: urn:lager157:se:store:id:5
  country: Sverige
  latitude: 60.6276
  longitude: 16.9861

- location: Lager 157 Nyköping
  city: Nyköping
  urn: urn:lager157:se:store:id:78
  country: Sverige
  latitude: 58.77
  longitude: 17.0253

- location: Lager 157 Sundsvall
  city: Sundsvall
  urn: urn:lager157:se:store:id:16
  country: Sverige
  latitude: 62.4417
  longitude: 17.3483

- location: Lager 157 Vasa handelsplats
  city: Södertälje
  urn: urn:lager157:se:store:id:49
  country: Sverige
  latitude: 59.1864
  longitude: 17.582

- location: Lager 157 Uppsala
  city: Uppsala
  urn: urn:lager157:se:store:id:19
  country: Sverige
  latitude: 59.8505
  longitude: 17.6549

- location: Lager 157 Barkarby
  city: Barkarby
  urn: urn:lager157:se:store:id:1
  country: Sverige
  latitude: 59.4128
  longitude: 17.8631

- location: Lager 157 Kungens Kurva
  city: Kungens Kurva
  urn: urn:lager157:se:store:id:12
  country: Sverige
  latitude: 59.2662
  longitude: 17.919

- location: Lager 157 Kista
  city: Kista
  urn: urn:lager157:se:store:id:81
  country: Sverige
  latitude: 59.402
  longitude: 17.945

- location: Lager 157 Drottninggatan
  city: Stockholm
  urn: urn:lager157:se:store:id:47
  country: Sverige
  latitude: 59.3344
  longitude: 18.0607

- location: Lager 157 Farsta
  city: Farsta
  urn: urn:lager157:se:store:id:57
  country: Sverige
  latitude: 59.2433
  longitude: 18.0851

- location: Lager 157 Länna
  city: Länna
  urn: urn:lager157:se:store:id:43
  country: Sverige
  latitude: 59.1976
  longitude: 18.1275

- location: Lager 157 Arninge
  city: Täby
  urn: urn:lager157:se:store:id:25
  country: Sverige
  latitude: 59.4641
  longitude: 18.1306

- location: Lager 157 Nacka Forum
  city: Nacka
  urn: urn:lager157:se:store:id:24
  country: Sverige
  latitude: 59.3088
  longitude: 18.1631

- location: Lager 157 Visby, Skarphäll
  city: Visby
  urn: urn:lager157:se:store:id:50
  country: Sverige
  latitude: 57.6337
  longitude: 18.327

- location: Lager 157 Norrtälje
  city: Norrtälje
  urn: urn:lager157:se:store:id:27
  country: Sverige
  latitude: 59.7466
  longitude: 18.677

- location: Lager 157 Örnsköldsvik
  city: Örnsköldsvik
  urn: urn:lager157:se:store:id:63
  country: Sverige
  latitude: 63.3054
  longitude: 18.747

- location: Lager 157 Umeå
  city: Umeå
  urn: urn:lager157:se:store:id:30
  country: Sverige
  latitude: 63.7992
  longitude: 20.3002

- location: Lager 157 Skellefteå, Solbacken
  city: Skellefteå
  urn: urn:lager157:se:store:id:51
  country: Sverige
  latitude: 64.7671
  longitude: 21.0197

- location: Lager 157 Luleå Storheden
  city: Luleå
  urn: urn:lager157:se:store:id:46
  country: Sverige
  latitude: 65.6168
  longitude: 22.0542
