meta:
  name: Rituals
  web: https://www.rituals.com/
  wikipedia: null
  category: Kläder och konfektion
  locations: 77

locations:
- location: Rituals Strömstad Nordby
  city: Strömstad
  country: Sverige
  latitude: 59.064087
  longitude: 11.207734

- location: Rituals Uddevalla Torp Köpcentrum
  city: Uddevalla
  country: Sverige
  latitude: 58.354312
  longitude: 11.810437

- location: Rituals Göteborg Frölunda Torg
  city: Västra Frölunda
  country: Sverige
  latitude: 57.651562
  longitude: 11.911437

- location: Rituals Göteborg Kungsgatan
  city: Göteborg
  country: Sverige
  latitude: 57.704563
  longitude: 11.967562

- location: Rituals Kungälv Kongahälla Center
  city: Kungälv
  country: Sverige
  latitude: 57.872563
  longitude: 11.968359

- location: Rituals Göteborg Nordstan
  city: Göteborg
  country: Sverige
  latitude: 57.708562
  longitude: 11.969563

- location: Rituals Mölndal Galleria
  city: Möndal
  country: Sverige
  latitude: 57.655187
  longitude: 12.013938

- location: Rituals Kungsbacka Kungsmässan
  city: Kungsbacka
  country: Sverige
  latitude: 57.492688
  longitude: 12.074484

- location: Rituals Göteborg Allum
  city: Partille
  country: Sverige
  latitude: 57.738088
  longitude: 12.105734

- location: Rituals Varberg Galleria Trädgården
  city: Varberg
  country: Sverige
  latitude: 57.106188
  longitude: 12.248437

- location: Rituals Trollhättan SIBA-Huset
  city: Trollhättan
  country: Sverige
  latitude: 58.312438
  longitude: 12.306188

- location: Rituals Helsingborg Kullagatan
  city: Helsingborg
  country: Sverige
  latitude: 56.047687
  longitude: 12.694187

- location: Rituals Ödåkra Väla Centrum
  city: Ödåkra
  country: Sverige
  latitude: 56.091313
  longitude: 12.756937

- location: Rituals Halmstad Brogatan
  city: Halmstad
  country: Sverige
  latitude: 56.674563
  longitude: 12.856438

- location: Rituals Halmstad Hallarna
  city: Halmstad
  country: Sverige
  latitude: 56.656188
  longitude: 12.908687

- location: Rituals Borås Pallas Shopping
  city: Borås
  country: Sverige
  latitude: 57.719938
  longitude: 12.939063

- location: Rituals Malmö Emporia
  city: Malmö
  country: Sverige
  latitude: 55.564812
  longitude: 12.973063

- location: Rituals Löddeköpinge Center Syd
  city: Löddeköpinge
  country: Sverige
  latitude: 55.769437
  longitude: 12.989062

- location: Rituals Malmö Triangeln
  city: Malmö
  country: Sverige
  latitude: 55.595687
  longitude: 13.002063

- location: Rituals Malmö Mobilia Galleria
  city: Malmö
  country: Sverige
  latitude: 55.582138
  longitude: 13.004359

- location: Rituals Nova Lund
  city: Lund
  country: Sverige
  latitude: 55.713962
  longitude: 13.159922

- location: Rituals Lund City
  city: Lund
  country: Sverige
  latitude: 55.703137
  longitude: 13.190516

- location: Rituals Karlstad Bergvik Galleria
  city: Karlstad
  country: Sverige
  latitude: 59.376013
  longitude: 13.426922

- location: Rituals Karlstad Mitt i City
  city: Karlstad
  country: Sverige
  latitude: 59.379837
  longitude: 13.500547

- location: Rituals Skövde Commerce
  city: Skövde
  country: Sverige
  latitude: 58.390563
  longitude: 13.844812

- location: Rituals Kristianstad Boulevard
  city: Kristianstad
  country: Sverige
  latitude: 56.030687
  longitude: 14.158687

- location: Rituals Jönköping Östra Storgatan
  city: Jönköping
  country: Sverige
  latitude: 57.782562
  longitude: 14.172313

- location: Rituals Jönköping Asecs
  city: Jönköping
  country: Sverige
  latitude: 57.773688
  longitude: 14.203672

- location: Rituals Kristianstad C4
  city: Kristianstad
  country: Sverige
  latitude: 56.025937
  longitude: 14.206188

- location: Rituals Östersund Kärnan
  city: Östersund
  country: Sverige
  latitude: 63.176313
  longitude: 14.638312

- location: Rituals Växjö Grand Samarkand
  city: Växjö Grand Samarkand
  country: Sverige
  latitude: 56.884812
  longitude: 14.766312

- location: Rituals Växjö Tegnér
  city: Växjö
  country: Sverige
  latitude: 56.879312
  longitude: 14.800562

- location: Rituals Örebro Marieberg
  city: Örebro
  country: Sverige
  latitude: 59.217312
  longitude: 15.137438

- location: Rituals Örebro Vågen
  city: Örebro
  country: Sverige
  latitude: 59.269913
  longitude: 15.210672

- location: Rituals Borlänge Kupolen
  city: Borlänge
  country: Sverige
  latitude: 60.484313
  longitude: 15.418188

- location: Rituals Linköping I-Huset
  city: Linköping
  country: Sverige
  latitude: 58.433537
  longitude: 15.585453

- location: Rituals Karlskrona Ronnebygatan
  city: Karlskrona
  country: Sverige
  latitude: 56.162063
  longitude: 15.589562

- location: Rituals Linköping Tanneforsgatan
  city: Linköping
  country: Sverige
  latitude: 58.410187
  longitude: 15.623563

- location: Rituals Falun Bergströms Galleria
  city: Falun
  country: Sverige
  latitude: 60.605563
  longitude: 15.632062

- location: Rituals Norrköping Ingelsta
  city: Norrköping
  country: Sverige
  latitude: 58.618688
  longitude: 16.156562

- location: Rituals Norrköping Linden
  city: Norrköping
  country: Sverige
  latitude: 58.587937
  longitude: 16.190062

- location: Rituals Kalmar Baronen
  city: Kalmar
  country: Sverige
  latitude: 56.660663
  longitude: 16.365172

- location: Rituals Västerås Erikslund
  city: Västerås
  country: Sverige
  latitude: 59.609562
  longitude: 16.454062

- location: Rituals Eskilstuna Tunapark
  city: Eskilstuna
  country: Sverige
  latitude: 59.371562
  longitude: 16.468812

- location: Rituals Västerås Igor Gallerian
  city: Västerås
  country: Sverige
  latitude: 59.611537
  longitude: 16.543984

- location: Rituals Gävle Valbo Köpcentrum
  city: Valbo
  country: Sverige
  latitude: 60.633687
  longitude: 16.993172

- location: Rituals Nyköping Västerport
  city: Nyköping
  country: Sverige
  latitude: 58.751687
  longitude: 17.003813

- location: Rituals Gävle Gallerian Nian
  city: Gävle
  country: Sverige
  latitude: 60.673938
  longitude: 17.139812

- location: Rituals Sundsvall Birsta
  city: Sundsvall
  country: Sverige
  latitude: 62.446938
  longitude: 17.335938

- location: Rituals Södertälje Kringlan
  city: Södertälje
  country: Sverige
  latitude: 59.195937
  longitude: 17.628188

- location: Rituals Uppsala St Per Gallerian
  city: Uppsala
  country: Sverige
  latitude: 59.860062
  longitude: 17.636437

- location: Rituals Uppsala Forumgallerian
  city: Uppsala
  country: Sverige
  latitude: 59.858087
  longitude: 17.641484

- location: Rituals Uppsala Gränbystaden
  city: Uppsala
  country: Sverige
  latitude: 59.877063
  longitude: 17.673938

- location: Rituals Stockholm Skärholmen
  city: Skärholmen
  country: Sverige
  latitude: 59.275813
  longitude: 17.907812

- location: Rituals Stockholm Kungens Kurva
  city: Kungens Kurva
  country: Sverige
  latitude: 59.269437
  longitude: 17.916812

- location: Rituals Stockholm Kista Galleria
  city: Kista
  country: Sverige
  latitude: 59.402812
  longitude: 17.944938

- location: Rituals Stockholm Sollentuna Centrum
  city: Sollentuna
  country: Sverige
  latitude: 59.428562
  longitude: 17.951188

- location: Rituals Stockholm Mall of Scandinavia
  city: Solna
  country: Sverige
  latitude: 59.369187
  longitude: 18.005313

- location: Rituals Stockholm Liljeholmstorget
  city: Stockholm
  country: Sverige
  latitude: 59.309613
  longitude: 18.021578

- location: Rituals Stockholm Västermalmsgallerian
  city: Stockholm
  country: Sverige
  latitude: 59.334688
  longitude: 18.032312

- location: Rituals Stockholm Centralstation
  city: Stockholm
  country: Sverige
  latitude: 59.330488
  longitude: 18.058172

- location: Rituals Stockholm Gallerian
  city: Stockholm
  country: Sverige
  latitude: 59.331437
  longitude: 18.067563

- location: Rituals Stockholm Mood
  city: Stockholm
  country: Sverige
  latitude: 59.334388
  longitude: 18.068141

- location: Rituals Stockholm Täby Centrum
  city: Täby
  country: Sverige
  latitude: 59.445062
  longitude: 18.071688

- location: Rituals Stockholm Skrapan
  city: Stockholm
  country: Sverige
  latitude: 59.312062
  longitude: 18.073937

- location: Rituals Stockholm Sturegallerian
  city: Stockholm
  country: Sverige
  latitude: 59.336213
  longitude: 18.074141

- location: Rituals Stockholm Fältöversten
  city: Stockholm
  country: Sverige
  latitude: 59.338812
  longitude: 18.090938

- location: Rituals Stockholm Farsta Centrum
  city: Farsta
  country: Sverige
  latitude: 59.243063
  longitude: 18.091313

- location: Rituals Nacka Sickla Köpkvarter
  city: Nacka
  country: Sverige
  latitude: 59.305913
  longitude: 18.124641

- location: Rituals Stockholm Nacka Forum
  city: Nacka
  country: Sverige
  latitude: 59.310063
  longitude: 18.164813

- location: Rituals Tyresö Centrum
  city: Tyresö
  country: Sverige
  latitude: 59.244888
  longitude: 18.229078

- location: Rituals Visby Galleria
  city: Visby
  country: Sverige
  latitude: 57.637687
  longitude: 18.301437

- location: Rituals Örnsköldsvik Oskargallerian
  city: Örnsköldsvik
  country: Sverige
  latitude: 63.291187
  longitude: 18.714813

- location: Rituals Umeå Avion Shopping
  city: Umeå
  country: Sverige
  latitude: 63.806812
  longitude: 20.255313

- location: Rituals Umeå Utopia
  city: Umeå
  country: Sverige
  latitude: 63.825688
  longitude: 20.264688

- location: Rituals Skellefteå Citykompaniet
  city: Skellefteå
  country: Sverige
  latitude: 64.750062
  longitude: 20.954437

- location: Rituals Luleå Strandgallerian
  city: Luleå
  country: Sverige
  latitude: 65.584563
  longitude: 22.150188
