<?xml version="1.0" encoding="UTF-8"?>
<!-- Source: https://github.com/cisene/se-poi -->
<gpx creator="se-poi" xmlns="http://www.topografix.com/GPX/1/1" xmlns:xsi="http://www.w3.org/2001/XMLSchema-instance" xsi:schemaLocation="http://www.topografix.com/GPX/1/1 http://www.topografix.com/GPX/1/1/gpx.xsd" version="1.1">
  <metadata>
    <name><![CDATA[Albrekts Guld]]></name>
    <desc><![CDATA[Koordinater - Albrekts Guld]]></desc>
    <link href="None">
      <text><![CDATA[Albrekts Guld]]></text>
       <type>text/html</type>
    </link>
   <time>2023-08-28T18:09:13+02:00</time>
  </metadata>
  <bounds minlat="55.564187" minlon="11.809812" maxlat="63.805813" maxlon="20.255313" />
  <wpt lat="58.353938" lon="11.809812"><name><![CDATA[Albrekts Guld Uddevalla, Uddevalla]]></name></wpt>
  <wpt lat="57.652438" lon="11.911938"><name><![CDATA[Albrekts Guld Frölunda Torg, Västra Frölunda]]></name></wpt>
  <wpt lat="57.723062" lon="11.953062"><name><![CDATA[Albrekts Guld Backavägen, Göteborg]]></name></wpt>
  <wpt lat="57.708813" lon="11.969938"><name><![CDATA[Albrekts Guld Femmanhuset, Göteborg]]></name></wpt>
  <wpt lat="57.708813" lon="11.969938"><name><![CDATA[Albrekts Guld Kungsgatan, Göteborg]]></name></wpt>
  <wpt lat="58.312562" lon="12.308312"><name><![CDATA[Albrekts Guld Trollhättan, Trollhättan]]></name></wpt>
  <wpt lat="56.091062" lon="12.756312"><name><![CDATA[Albrekts Guld Ödåkra - Väla Centrum, Helsingborg]]></name></wpt>
  <wpt lat="56.655563" lon="12.909187"><name><![CDATA[Albrekts Guld Halmstad, Halmstad]]></name></wpt>
  <wpt lat="57.735312" lon="12.938063"><name><![CDATA[Albrekts Guld Borås, Borås]]></name></wpt>
  <wpt lat="55.564187" lon="12.972812"><name><![CDATA[Albrekts Guld Malmö - Emporia, Malmö]]></name></wpt>
  <wpt lat="55.580687" lon="13.003063"><name><![CDATA[Albrekts Guld Malmö - Mobilia Shopping Cente, Malmö]]></name></wpt>
  <wpt lat="57.715438" lon="13.092562"><name><![CDATA[Albrekts Guld Dalsjöfors, Dalsjöfors]]></name></wpt>
  <wpt lat="59.378187" lon="13.424812"><name><![CDATA[Albrekts Guld Karlstad, Karlstad]]></name></wpt>
  <wpt lat="58.405563" lon="13.854938"><name><![CDATA[Albrekts Guld Skövde, Skövde]]></name></wpt>
  <wpt lat="57.773438" lon="14.203563"><name><![CDATA[Albrekts Guld Jönköping, Jönköping]]></name></wpt>
  <wpt lat="56.878812" lon="14.808187"><name><![CDATA[Albrekts Guld Växjö, Växjö]]></name></wpt>
  <wpt lat="59.217437" lon="15.136938"><name><![CDATA[Albrekts Guld Örebro, Örebro]]></name></wpt>
  <wpt lat="56.210313" lon="15.277687"><name><![CDATA[Albrekts Guld Ronneby, Ronneby]]></name></wpt>
  <wpt lat="60.483688" lon="15.418188"><name><![CDATA[Albrekts Guld Borlänge, Borlänge]]></name></wpt>
  <wpt lat="58.588563" lon="16.188938"><name><![CDATA[Albrekts Guld Norrköping - Galleria Domino, Norrköping]]></name></wpt>
  <wpt lat="58.572437" lon="16.207937"><name><![CDATA[Albrekts Guld Norrköping - Mirum Galleria, Norrköping]]></name></wpt>
  <wpt lat="56.686937" lon="16.319938"><name><![CDATA[Albrekts Guld Kalmar, Kalmar]]></name></wpt>
  <wpt lat="59.608937" lon="16.454687"><name><![CDATA[Albrekts Guld Erikslund Shopping Center, Västerås]]></name></wpt>
  <wpt lat="59.371313" lon="16.470062"><name><![CDATA[Albrekts Guld Eskilstuna, Eskilstuna]]></name></wpt>
  <wpt lat="59.609687" lon="16.547562"><name><![CDATA[Albrekts Guld Västerås, Västerås]]></name></wpt>
  <wpt lat="62.446687" lon="17.335687"><name><![CDATA[Albrekts Guld Sundsvall, Sundsvall]]></name></wpt>
  <wpt lat="59.195937" lon="17.628062"><name><![CDATA[Albrekts Guld Södertälje, Södertälje]]></name></wpt>
  <wpt lat="59.195937" lon="17.628062"><name><![CDATA[Albrekts Guld Södertälje, Södertälje]]></name></wpt>
  <wpt lat="59.877437" lon="17.673812"><name><![CDATA[Albrekts Guld Uppsala, Uppsala]]></name></wpt>
  <wpt lat="59.877437" lon="17.673812"><name><![CDATA[Albrekts Guld Uppsala, Uppsala]]></name></wpt>
  <wpt lat="59.423562" lon="17.836937"><name><![CDATA[Albrekts Guld Jakobsbergs centrum, Jakobsberg]]></name></wpt>
  <wpt lat="59.275688" lon="17.907688"><name><![CDATA[Albrekts Guld Skärholmen Centrum, Skärholmen]]></name></wpt>
  <wpt lat="59.370062" lon="18.003062"><name><![CDATA[Albrekts Guld Mall of Scandinavia, Solna]]></name></wpt>
  <wpt lat="59.444187" lon="18.072063"><name><![CDATA[Albrekts Guld Täby Centrum, Täby]]></name></wpt>
  <wpt lat="59.331187" lon="18.082563"><name><![CDATA[Albrekts Guld Glashuset PUB, Stockholm]]></name></wpt>
  <wpt lat="59.242562" lon="18.089562"><name><![CDATA[Albrekts Guld Farsta Centrum, Stockholm]]></name></wpt>
  <wpt lat="59.307187" lon="18.119937"><name><![CDATA[Albrekts Guld Sickla, Sickla]]></name></wpt>
  <wpt lat="59.244062" lon="18.229312"><name><![CDATA[Albrekts Guld Tyresö, Tyresö]]></name></wpt>
  <wpt lat="63.805813" lon="20.255313"><name><![CDATA[Albrekts Guld Umeå, Umeå]]></name></wpt>
</gpx>