<?xml version="1.0" encoding="UTF-8"?>
<!-- Source: https://github.com/cisene/se-poi -->
<gpx creator="se-poi" xmlns="http://www.topografix.com/GPX/1/1" xmlns:xsi="http://www.w3.org/2001/XMLSchema-instance" xsi:schemaLocation="http://www.topografix.com/GPX/1/1 http://www.topografix.com/GPX/1/1/gpx.xsd" version="1.1">
  <metadata>
    <name><![CDATA[Burger King]]></name>
    <desc><![CDATA[Koordinater - Burger King]]></desc>
    <link href="https://burgerking.se/">
      <text><![CDATA[Burger King]]></text>
       <type>text/html</type>
    </link>
   <time>2023-08-28T18:31:28+02:00</time>
  </metadata>
  <bounds minlat="55.384287" minlon="11.265279" maxlat="67.846936" maxlon="20.329431" />
  <wpt lat="59.082724" lon="11.265279"><name><![CDATA[Burger King Svinesund, Svinesund]]></name></wpt>
  <wpt lat="58.722079" lon="11.348998"><name><![CDATA[Burger King Tanum, Tanum]]></name></wpt>
  <wpt lat="57.709129" lon="11.78042"><name><![CDATA[Burger King Torslanda, Torslanda]]></name></wpt>
  <wpt lat="59.506971" lon="11.843324"><name><![CDATA[Burger King Töcksfors, Töcksfors]]></name></wpt>
  <wpt lat="58.023891" lon="11.846883"><name><![CDATA[Burger King Stenungsund, Stenungsund]]></name></wpt>
  <wpt lat="58.059287" lon="11.877266"><name><![CDATA[Burger King Munkeröd, Munkeröd]]></name></wpt>
  <wpt lat="57.709554" lon="11.921608"><name><![CDATA[Burger King Göteborg Eriksberg DT, Göteborg]]></name></wpt>
  <wpt lat="57.646721" lon="11.933234"><name><![CDATA[Burger King Göteborg Järnbrottsmotet, Göteborg]]></name></wpt>
  <wpt lat="57.640396" lon="11.949854"><name><![CDATA[Burger King Sisjön, Sisjön]]></name></wpt>
  <wpt lat="57.721839" lon="11.952329"><name><![CDATA[Burger King Göteborg Backaplan, Göteborg]]></name></wpt>
  <wpt lat="57.699507" lon="11.95277"><name><![CDATA[Burger King Göteborg Järntorget, Göteborg]]></name></wpt>
  <wpt lat="57.872354" lon="11.968127"><name><![CDATA[Burger King Kongahälla, Kongahälla]]></name></wpt>
  <wpt lat="57.708768" lon="11.970864"><name><![CDATA[Burger King Göteborg Nordstan, Göteborg]]></name></wpt>
  <wpt lat="57.709118" lon="11.972724"><name><![CDATA[Burger King Göteborg Central, Göteborg]]></name></wpt>
  <wpt lat="57.701135" lon="11.974603"><name><![CDATA[Burger King Göteborg Kungsportsavenyn, Göteborg]]></name></wpt>
  <wpt lat="57.676872" lon="12.027581"><name><![CDATA[Burger King Göteborg Kallebäcks Delsjömotet, Göteborg]]></name></wpt>
  <wpt lat="57.513056" lon="12.071111"><name><![CDATA[Burger King Kungsbacka, Kungsbacka]]></name></wpt>
  <wpt lat="57.166849" lon="12.278036"><name><![CDATA[Burger King Varberg, Varberg]]></name></wpt>
  <wpt lat="59.877168" lon="12.301742"><name><![CDATA[Burger King Charlottenberg, Charlottenberg]]></name></wpt>
  <wpt lat="58.279965" lon="12.307653"><name><![CDATA[Burger King Trollhättan, Trollhättan]]></name></wpt>
  <wpt lat="58.559241" lon="12.358225"><name><![CDATA[Burger King Brålanda, Brålanda]]></name></wpt>
  <wpt lat="56.089418" lon="12.746332"><name><![CDATA[Burger King Helsingborg Väla, Helsingborg]]></name></wpt>
  <wpt lat="56.016633" lon="12.754983"><name><![CDATA[Burger King Helsingborg Ättekulla, Helsingborg]]></name></wpt>
  <wpt lat="55.940693" lon="12.818826"><name><![CDATA[Burger King Glumslöv, Glumslöv]]></name></wpt>
  <wpt lat="56.666545" lon="12.820189"><name><![CDATA[Burger King Halmstad, Halmstad]]></name></wpt>
  <wpt lat="55.871888" lon="12.857809"><name><![CDATA[Burger King Landskrona, Landskrona]]></name></wpt>
  <wpt lat="57.710158" lon="12.86675"><name><![CDATA[Burger King Borås Viared, Borås]]></name></wpt>
  <wpt lat="56.252005" lon="12.893165"><name><![CDATA[Burger King Ängelholm, Ängelholm]]></name></wpt>
  <wpt lat="55.58193" lon="12.93065"><name><![CDATA[Burger King Limhamn, Limhamn]]></name></wpt>
  <wpt lat="57.710578" lon="12.945436"><name><![CDATA[Burger King Borås City, Borås]]></name></wpt>
  <wpt lat="55.555766" lon="12.953435"><name><![CDATA[Burger King Malmö Ollebo, Malmö]]></name></wpt>
  <wpt lat="55.425923" lon="12.963536"><name><![CDATA[Burger King Höllviken, Höllviken]]></name></wpt>
  <wpt lat="55.767013" lon="12.990623"><name><![CDATA[Burger King Löddeköpinge, Löddeköpinge]]></name></wpt>
  <wpt lat="55.553383" lon="12.99614"><name><![CDATA[Burger King Malmö Svågertorp, Malmö]]></name></wpt>
  <wpt lat="55.609134" lon="13.000267"><name><![CDATA[Burger King Malmö Centralhallen, Malmö]]></name></wpt>
  <wpt lat="55.579611" lon="13.001971"><name><![CDATA[Burger King Malmö Mobilia, Malmö]]></name></wpt>
  <wpt lat="55.595816" lon="13.003174"><name><![CDATA[Burger King Malmö Triangeln, Malmö]]></name></wpt>
  <wpt lat="55.603164" lon="13.006447"><name><![CDATA[Burger King Malmö Gustav Adolfs Torg, Malmö]]></name></wpt>
  <wpt lat="55.606389" lon="13.022147"><name><![CDATA[Burger King Malmö Värnhemstorget, Malmö]]></name></wpt>
  <wpt lat="55.551176" lon="13.035529"><name><![CDATA[Burger King Lockarp, Lockarp]]></name></wpt>
  <wpt lat="55.56946" lon="13.054602"><name><![CDATA[Burger King Jägersro DT, Malmö]]></name></wpt>
  <wpt lat="55.596242" lon="13.063888"><name><![CDATA[Burger King Malmö Bulltofta, Malmö]]></name></wpt>
  <wpt lat="55.639661" lon="13.085627"><name><![CDATA[Burger King Burlöv Centrum, Brulöv]]></name></wpt>
  <wpt lat="55.683646" lon="13.092646"><name><![CDATA[Burger King Lomma, Lomma]]></name></wpt>
  <wpt lat="55.384287" lon="13.123648"><name><![CDATA[Burger King Trelleborg, Trelleborg]]></name></wpt>
  <wpt lat="59.367305" lon="13.14332"><name><![CDATA[Burger King Grums/Nyängen, Grums]]></name></wpt>
  <wpt lat="58.496204" lon="13.182002"><name><![CDATA[Burger King Lidköping, Lidköping]]></name></wpt>
  <wpt lat="55.707166" lon="13.190347"><name><![CDATA[Burger King Lund City, Lund]]></name></wpt>
  <wpt lat="61.164853" lon="13.199628"><name><![CDATA[Burger King Sälen, Sälen]]></name></wpt>
  <wpt lat="55.720732" lon="13.200356"><name><![CDATA[Burger King Lund Norra Ringen, Lund]]></name></wpt>
  <wpt lat="55.843093" lon="13.330465"><name><![CDATA[Burger King Eslöv, Eslöv]]></name></wpt>
  <wpt lat="59.383336" lon="13.474952"><name><![CDATA[Burger King Karlstad Våxnäs, Karlstad]]></name></wpt>
  <wpt lat="59.380093" lon="13.503982"><name><![CDATA[Burger King Karlstad City, Karlstad]]></name></wpt>
  <wpt lat="57.321843" lon="13.547222"><name><![CDATA[Burger King Gislaved, Gislaved]]></name></wpt>
  <wpt lat="56.445301" lon="13.602086"><name><![CDATA[Burger King Markaryd, Markaryd]]></name></wpt>
  <wpt lat="56.165377" lon="13.783615"><name><![CDATA[Burger King Hässleholm, Hässleholm]]></name></wpt>
  <wpt lat="55.433191" lon="13.799218"><name><![CDATA[Burger King Ystad, Ystad]]></name></wpt>
  <wpt lat="58.680238" lon="13.825638"><name><![CDATA[Burger King Mariestad, Mariestad]]></name></wpt>
  <wpt lat="58.413568" lon="13.878742"><name><![CDATA[Burger King Skövde, Skövde]]></name></wpt>
  <wpt lat="56.831842" lon="13.935106"><name><![CDATA[Burger King Ljungby, Ljungby]]></name></wpt>
  <wpt lat="57.16361" lon="14.073618"><name><![CDATA[Burger King Värnamo, Värnamo]]></name></wpt>
  <wpt lat="56.031126" lon="14.157836"><name><![CDATA[Burger King Kristianstad City, Kristianstad]]></name></wpt>
  <wpt lat="59.310521" lon="14.162236"><name><![CDATA[Burger King Kristinehamn, Kristinehamn]]></name></wpt>
  <wpt lat="57.780095" lon="14.172631"><name><![CDATA[Burger King Jönköping Atollen, Jönköping]]></name></wpt>
  <wpt lat="56.025141" lon="14.205572"><name><![CDATA[Burger King Kristianstad C4, Kristianstad]]></name></wpt>
  <wpt lat="57.77971" lon="14.223868"><name><![CDATA[Burger King Jönköping Ekhagen, Jönköping]]></name></wpt>
  <wpt lat="59.297356" lon="14.490719"><name><![CDATA[Burger King Karlskoga, Karlskoga]]></name></wpt>
  <wpt lat="56.055016" lon="14.567387"><name><![CDATA[Burger King Sölvesborg, Sölvesborg]]></name></wpt>
  <wpt lat="58.982754" lon="14.626331"><name><![CDATA[Burger King Laxå, Laxå]]></name></wpt>
  <wpt lat="56.878652" lon="14.765635"><name><![CDATA[Burger King Växjö i11, Växjö]]></name></wpt>
  <wpt lat="57.647711" lon="14.95085"><name><![CDATA[Burger King Eksjö, Eksjö]]></name></wpt>
  <wpt lat="58.556542" lon="15.037397"><name><![CDATA[Burger King Motala, Motala]]></name></wpt>
  <wpt lat="58.323099" lon="15.088682"><name><![CDATA[Burger King Mjölby, Mjölby]]></name></wpt>
  <wpt lat="59.21492" lon="15.136294"><name><![CDATA[Burger King Örebro Marieberg, Örebro]]></name></wpt>
  <wpt lat="59.297268" lon="15.200726"><name><![CDATA[Burger King Örebro Eurostop, Örebro]]></name></wpt>
  <wpt lat="59.270656" lon="15.210375"><name><![CDATA[Burger King Örebro City, Örebro]]></name></wpt>
  <wpt lat="56.214351" lon="15.273504"><name><![CDATA[Burger King Ronneby, Ronneby]]></name></wpt>
  <wpt lat="60.478841" lon="15.437894"><name><![CDATA[Burger King Borlänge, Borlänge]]></name></wpt>
  <wpt lat="58.434937" lon="15.591926"><name><![CDATA[Burger King Linköping Tornby, Linköping]]></name></wpt>
  <wpt lat="58.41103" lon="15.620919"><name><![CDATA[Burger King Linköping City, Linköping]]></name></wpt>
  <wpt lat="56.203304" lon="15.636941"><name><![CDATA[Burger King Karlskrona, Karlskrona]]></name></wpt>
  <wpt lat="60.152961" lon="16.199776"><name><![CDATA[Burger King Avesta, Avesta]]></name></wpt>
  <wpt lat="59.006666" lon="16.236801"><name><![CDATA[Burger King Katrineholm, Katrineholm]]></name></wpt>
  <wpt lat="56.68381" lon="16.322349"><name><![CDATA[Burger King Kalmar, Kalmar]]></name></wpt>
  <wpt lat="57.2631" lon="16.427181"><name><![CDATA[Burger King Oskarshamn, Oskarshamn]]></name></wpt>
  <wpt lat="59.391152" lon="16.465537"><name><![CDATA[Burger King Eskilstuna Västerleden, Eskilstuna]]></name></wpt>
  <wpt lat="59.613964" lon="16.471704"><name><![CDATA[Burger King Västerås Erikslund, Västerås]]></name></wpt>
  <wpt lat="59.629855" lon="16.580021"><name><![CDATA[Burger King Västerås Finnslätten, Västerås]]></name></wpt>
  <wpt lat="57.765641" lon="16.602855"><name><![CDATA[Burger King Västervik, Västervik]]></name></wpt>
  <wpt lat="61.072919" lon="16.967239"><name><![CDATA[Burger King Tönnebro Trafikplats, Tönnebro]]></name></wpt>
  <wpt lat="58.765043" lon="16.989791"><name><![CDATA[Burger King Nyköping, Nyköping]]></name></wpt>
  <wpt lat="61.714986" lon="17.043306"><name><![CDATA[Burger King Hudiksvall, Hudiksvall]]></name></wpt>
  <wpt lat="60.659182" lon="17.164099"><name><![CDATA[Burger King Gävle, Gävle]]></name></wpt>
  <wpt lat="62.44581" lon="17.331609"><name><![CDATA[Burger King Sundsvall/Birsta, Sundsvall]]></name></wpt>
  <wpt lat="59.84923" lon="17.562441"><name><![CDATA[Burger King Uppsala Stenhagen, Uppsala]]></name></wpt>
  <wpt lat="59.188941" lon="17.579645"><name><![CDATA[Burger King Södertälje, Södertälje]]></name></wpt>
  <wpt lat="59.086825" lon="17.595027"><name><![CDATA[Burger King Järna, Järna]]></name></wpt>
  <wpt lat="59.858415" lon="17.641738"><name><![CDATA[Burger King Uppsala City, Uppsala]]></name></wpt>
  <wpt lat="59.875677" lon="17.675199"><name><![CDATA[Burger King Uppsala Gränby, Uppsala]]></name></wpt>
  <wpt lat="59.844682" lon="17.729534"><name><![CDATA[Burger King Uppsala E4, None]]></name></wpt>
  <wpt lat="59.411555" lon="17.861474"><name><![CDATA[Burger King Barkarby, Barkarby]]></name></wpt>
  <wpt lat="59.574975" lon="17.897208"><name><![CDATA[Burger King Arlanda/Rosersberg, Arlanda]]></name></wpt>
  <wpt lat="59.274374" lon="17.907062"><name><![CDATA[Burger King Skärholmen, Skärholmen]]></name></wpt>
  <wpt lat="59.51393" lon="17.920883"><name><![CDATA[Burger King Upplands Väsby, Upplands Väsby]]></name></wpt>
  <wpt lat="59.417193" lon="17.923949"><name><![CDATA[Burger King Akalla, Akalla]]></name></wpt>
  <wpt lat="59.217812" lon="17.945864"><name><![CDATA[Burger King Flemingsberg Huddinge, Flemingsberg]]></name></wpt>
  <wpt lat="59.4279" lon="17.951187"><name><![CDATA[Burger King Sollentuna Centrum, Sollentuna]]></name></wpt>
  <wpt lat="59.360165" lon="18.00087"><name><![CDATA[Burger King Solna, Solna]]></name></wpt>
  <wpt lat="59.294681" lon="18.030366"><name><![CDATA[Burger King Årsta, Stockholm]]></name></wpt>
  <wpt lat="59.343275" lon="18.051534"><name><![CDATA[Burger King Odenplan, Stockholm]]></name></wpt>
  <wpt lat="59.330872" lon="18.05779"><name><![CDATA[Burger King Stockholm Central (nedre plan), Stockholm]]></name></wpt>
  <wpt lat="59.33088" lon="18.057815"><name><![CDATA[Burger King Stockholm Central (övre plan), Stockholm]]></name></wpt>
  <wpt lat="59.330362" lon="18.058679"><name><![CDATA[Burger King Vasagatan, Stockholm]]></name></wpt>
  <wpt lat="59.315076" lon="18.070834"><name><![CDATA[Burger King Medborgarplatsen, Stockholm]]></name></wpt>
  <wpt lat="59.322753" lon="18.072641"><name><![CDATA[Burger King Gamla Stan, Stockholm]]></name></wpt>
  <wpt lat="59.243011" lon="18.091314"><name><![CDATA[Burger King Farsta Köpcenter, Farsta]]></name></wpt>
  <wpt lat="59.178601" lon="18.148082"><name><![CDATA[Burger King Haninge Port 73, Haninge]]></name></wpt>
  <wpt lat="59.309174" lon="18.165189"><name><![CDATA[Burger King Nacka, Nacka]]></name></wpt>
  <wpt lat="59.243903" lon="18.228403"><name><![CDATA[Burger King Tyresö Centrum, Tyresö]]></name></wpt>
  <wpt lat="63.291435" lon="18.706274"><name><![CDATA[Burger King Örnsköldsvik, Örnsköldsvik]]></name></wpt>
  <wpt lat="67.846936" lon="20.254593"><name><![CDATA[Burger King Kiruna, Kiruna]]></name></wpt>
  <wpt lat="63.832096" lon="20.329431"><name><![CDATA[Burger King Umeå Mariehem, Umeå]]></name></wpt>
</gpx>