<?xml version="1.0" encoding="UTF-8"?>
<!-- Source: https://github.com/cisene/se-poi -->
<gpx creator="se-poi" xmlns="http://www.topografix.com/GPX/1/1" xmlns:xsi="http://www.w3.org/2001/XMLSchema-instance" xsi:schemaLocation="http://www.topografix.com/GPX/1/1 http://www.topografix.com/GPX/1/1/gpx.xsd" version="1.1">
  <metadata>
    <name><![CDATA[Byggmax]]></name>
    <desc><![CDATA[Koordinater - Byggmax]]></desc>
    <link href="https://www.byggmax.se/">
      <text><![CDATA[Byggmax]]></text>
       <type>text/html</type>
    </link>
   <time>2023-08-28T18:31:28+02:00</time>
  </metadata>
  <bounds minlat="55.48278" minlon="11.95917" maxlat="65.61306" maxlon="22.05333" />
  <wpt lat="58.35222" lon="11.95917"><name><![CDATA[Byggmax Fossumsbergsvägen 1, Uddevalla]]></name></wpt>
  <wpt lat="57.78" lon="12.00028"><name><![CDATA[Byggmax Transportgatan 39, Hisings Backa]]></name></wpt>
  <wpt lat="57.61667" lon="12.04583"><name><![CDATA[Byggmax Gamla Riksvägen 10-12, Kållered]]></name></wpt>
  <wpt lat="57.16472" lon="12.27667"><name><![CDATA[Byggmax Annebergsvägen 6, Varberg]]></name></wpt>
  <wpt lat="56.08222" lon="12.71222"><name><![CDATA[Byggmax Garnisonsgatan 46, Helsingborg]]></name></wpt>
  <wpt lat="56.65778" lon="12.89333"><name><![CDATA[Byggmax Verkstadsgatan 2, Halmstad]]></name></wpt>
  <wpt lat="57.73306" lon="12.925"><name><![CDATA[Byggmax Getängsvägen 36, Borås]]></name></wpt>
  <wpt lat="55.76778" lon="12.99694"><name><![CDATA[Byggmax Fraktvägen 1, Löddeköpinge]]></name></wpt>
  <wpt lat="55.48278" lon="13.015"><name><![CDATA[Byggmax Vellingevägen, Vellinge]]></name></wpt>
  <wpt lat="55.65083" lon="13.22833"><name><![CDATA[Byggmax Maskinvägen 7, Staffanstorp]]></name></wpt>
  <wpt lat="59.38028" lon="13.52556"><name><![CDATA[Byggmax Faktorigatan 5, Karlstad]]></name></wpt>
  <wpt lat="58.39583" lon="13.89139"><name><![CDATA[Byggmax Norregårdsvägen 25, Skövde]]></name></wpt>
  <wpt lat="56.0425" lon="14.15694"><name><![CDATA[Byggmax Industrigatan 2, Kristianstad]]></name></wpt>
  <wpt lat="57.75417" lon="14.16944"><name><![CDATA[Byggmax Bultvägen 1, Jönköping]]></name></wpt>
  <wpt lat="63.16444" lon="14.68444"><name><![CDATA[Byggmax Odenskogsv. 35, Östersund]]></name></wpt>
  <wpt lat="56.89333" lon="14.76556"><name><![CDATA[Byggmax Ljungadalsgatan 17, Växjö]]></name></wpt>
  <wpt lat="59.28944" lon="15.2075"><name><![CDATA[Byggmax Stångjärnsgatan 8, Örebro]]></name></wpt>
  <wpt lat="60.60611" lon="15.62056"><name><![CDATA[Byggmax Yxhammargatan 5, Falun]]></name></wpt>
  <wpt lat="56.21528" lon="15.63611"><name><![CDATA[Byggmax Uranvägen, Karlskrona]]></name></wpt>
  <wpt lat="58.41278" lon="15.64472"><name><![CDATA[Byggmax Hagalundsvägen 3, Linköping]]></name></wpt>
  <wpt lat="58.60194" lon="16.18556"><name><![CDATA[Byggmax Lindåkersgatan 12, Norrköping]]></name></wpt>
  <wpt lat="56.69472" lon="16.32833"><name><![CDATA[Byggmax Tyska vägen 2, Kalmar]]></name></wpt>
  <wpt lat="59.40194" lon="16.42111"><name><![CDATA[Byggmax Torestavägen 4, Eskilstuna]]></name></wpt>
  <wpt lat="59.61556" lon="16.60556"><name><![CDATA[Byggmax Brandthovdagatan 10, Västerås]]></name></wpt>
  <wpt lat="61.76944" lon="17.09056"><name><![CDATA[Byggmax Skogsta 22, Hudiksvall]]></name></wpt>
  <wpt lat="60.67611" lon="17.18278"><name><![CDATA[Byggmax Atlasgatan 11, Gävle]]></name></wpt>
  <wpt lat="62.44056" lon="17.32778"><name><![CDATA[Byggmax Lärlingsvägen 6, Sundsvall]]></name></wpt>
  <wpt lat="59.87889" lon="17.58667"><name><![CDATA[Byggmax Hållnäsgatan 6A, Uppsala]]></name></wpt>
  <wpt lat="59.21472" lon="17.82694"><name><![CDATA[Byggmax Tunabergsvägen 1, Tumba]]></name></wpt>
  <wpt lat="59.50083" lon="17.92333"><name><![CDATA[Byggmax Kranvägen 8, Upplands Väsby]]></name></wpt>
  <wpt lat="59.1975" lon="18.11861"><name><![CDATA[Byggmax Länna, Skogås]]></name></wpt>
  <wpt lat="59.46626" lon="18.12901"><name><![CDATA[Byggmax Måttbandsvägen 3-5, Täby]]></name></wpt>
  <wpt lat="59.47917" lon="18.28611"><name><![CDATA[Byggmax Sågvägen 22, Åkersberga]]></name></wpt>
  <wpt lat="63.85139" lon="20.21333"><name><![CDATA[Byggmax Mätarvägen 2 B, Umeå]]></name></wpt>
  <wpt lat="64.75889" lon="20.90028"><name><![CDATA[Byggmax Uppfinnarvägen 5, Skellefteå]]></name></wpt>
  <wpt lat="65.61306" lon="22.05333"><name><![CDATA[Byggmax Betongvägen 5, Luleå]]></name></wpt>
</gpx>