<?xml version="1.0" encoding="UTF-8"?>
<!-- Source: https://github.com/cisene/se-poi -->
<gpx creator="se-poi" xmlns="http://www.topografix.com/GPX/1/1" xmlns:xsi="http://www.w3.org/2001/XMLSchema-instance" xsi:schemaLocation="http://www.topografix.com/GPX/1/1 http://www.topografix.com/GPX/1/1/gpx.xsd" version="1.1">
  <metadata>
    <name><![CDATA[Nordic Choice Hotels]]></name>
    <desc><![CDATA[Koordinater - Nordic Choice Hotels]]></desc>
    <link href="https://www.nordicchoicehotels.com/">
      <text><![CDATA[Nordic Choice Hotels]]></text>
       <type>text/html</type>
    </link>
   <time>2023-08-28T18:31:28+02:00</time>
  </metadata>
  <bounds minlat="55.59934" minlon="11.16076" maxlat="65.58489" maxlon="22.15794" />
  <wpt lat="58.94422" lon="11.16076"><name><![CDATA[Quality Spa & Resort, Strömstad]]></name></wpt>
  <wpt lat="58.0637" lon="11.8071"><name><![CDATA[Stenungsbaden Yacht Club, Stenungsund]]></name></wpt>
  <wpt lat="57.70145" lon="11.91417"><name><![CDATA[Quality Hotel 11, Göteborg]]></name></wpt>
  <wpt lat="57.70465" lon="11.95679"><name><![CDATA[Comfort Hotel City Center, Göteborg]]></name></wpt>
  <wpt lat="57.70879" lon="11.97902"><name><![CDATA[Clarion Collection Hotel Odin, Göteborg]]></name></wpt>
  <wpt lat="57.7309" lon="11.98042"><name><![CDATA[Quality Hotel Winn, Göteborg]]></name></wpt>
  <wpt lat="57.68959" lon="11.98789"><name><![CDATA[Quality Hotel Panorama, Göteborg]]></name></wpt>
  <wpt lat="57.10751" lon="12.24619"><name><![CDATA[Clarion Collection Hotel Fregatten, Varberg]]></name></wpt>
  <wpt lat="58.36229" lon="12.31885"><name><![CDATA[Quality Hotel, Vänersborg]]></name></wpt>
  <wpt lat="59.65511" lon="12.59346"><name><![CDATA[Comfort Hotel Bristol, Arvika]]></name></wpt>
  <wpt lat="56.0464" lon="12.6943"><name><![CDATA[Clarion Grand Hotel, Helsingborg]]></name></wpt>
  <wpt lat="56.041" lon="12.6999"><name><![CDATA[Comfort Hotel Nouveau, Helsingborg]]></name></wpt>
  <wpt lat="56.67808" lon="12.85864"><name><![CDATA[Clarion Collection Hotel Norre Park, Halmstad]]></name></wpt>
  <wpt lat="56.65399" lon="12.91181"><name><![CDATA[Quality Hotel, Halmstad]]></name></wpt>
  <wpt lat="59.1304" lon="12.9215"><name><![CDATA[Comfort Hotel Royal, Säffle]]></name></wpt>
  <wpt lat="57.72117" lon="12.94196"><name><![CDATA[Comfort Hotel Jazz, Borås]]></name></wpt>
  <wpt lat="55.60382" lon="12.99839"><name><![CDATA[Clarion Collection Hotel Temperance, Malmö]]></name></wpt>
  <wpt lat="55.61067" lon="13.00118"><name><![CDATA[Comfort Hotel Malmö, Malmö]]></name></wpt>
  <wpt lat="55.59934" lon="13.00794"><name><![CDATA[Quality Hotel Konserthuset, Malmö]]></name></wpt>
  <wpt lat="59.8281" lon="13.1289"><name><![CDATA[Selma Spa, Sunne]]></name></wpt>
  <wpt lat="59.8263" lon="13.13563"><name><![CDATA[Quality Hotel Selma Lagerlof, Sunne]]></name></wpt>
  <wpt lat="59.3786" lon="13.499"><name><![CDATA[Clarion Collection Hotel Drott, Karlstad]]></name></wpt>
  <wpt lat="59.3783" lon="13.50168"><name><![CDATA[Clarion Hotel Plaza, Karlstad]]></name></wpt>
  <wpt lat="59.37971" lon="13.50886"><name><![CDATA[Clarion Collection Bilan, Karlstad]]></name></wpt>
  <wpt lat="58.39074" lon="13.85007"><name><![CDATA[Clarion Collection Hotel Majoren, Skövde]]></name></wpt>
  <wpt lat="58.3892" lon="13.8577"><name><![CDATA[Quality Hotel Prisma, Skövde]]></name></wpt>
  <wpt lat="56.03235" lon="14.15333"><name><![CDATA[Quality Hotel Grand, Kristianstad]]></name></wpt>
  <wpt lat="57.77876" lon="14.1564"><name><![CDATA[Comfort Hotel, Jönköping]]></name></wpt>
  <wpt lat="57.78242" lon="14.16041"><name><![CDATA[Clarion Collection Hotel Victoria, Jönköping]]></name></wpt>
  <wpt lat="57.76128" lon="14.19232"><name><![CDATA[Quality Hotel, Jönköping]]></name></wpt>
  <wpt lat="57.81498" lon="14.2707"><name><![CDATA[Quality Hotel Winn, Jönköping]]></name></wpt>
  <wpt lat="63.1802" lon="14.6363"><name><![CDATA[Clarion Hotel Grand, Östersund]]></name></wpt>
  <wpt lat="56.87901" lon="14.83261"><name><![CDATA[Quality Hotel, Växjo]]></name></wpt>
  <wpt lat="59.29758" lon="15.20307"><name><![CDATA[Quality Hotel, Örebro]]></name></wpt>
  <wpt lat="59.27026" lon="15.21353"><name><![CDATA[Clarion Hotel, Örebro]]></name></wpt>
  <wpt lat="60.48806" lon="15.43028"><name><![CDATA[Quality Hotel Galaxen, Borlänge]]></name></wpt>
  <wpt lat="56.1669" lon="15.5904"><name><![CDATA[Clarion Collection Hotel Carlscrona, Karlskrona]]></name></wpt>
  <wpt lat="58.40565" lon="15.62428"><name><![CDATA[Quality Hotel Ekoxen, Linköping]]></name></wpt>
  <wpt lat="60.6059" lon="15.6355"><name><![CDATA[Clarion Collection Hotel Bergmästaren, Falun]]></name></wpt>
  <wpt lat="56.66134" lon="16.36555"><name><![CDATA[Clarion Collection Hotel Packhuset, Kalmar]]></name></wpt>
  <wpt lat="57.26475" lon="16.44947"><name><![CDATA[Clarion Collection Hotel Post, Oskarshamn]]></name></wpt>
  <wpt lat="59.6242" lon="16.49942"><name><![CDATA[Quality Hotel, Västerås]]></name></wpt>
  <wpt lat="59.37614" lon="16.51245"><name><![CDATA[Clarion Collection Htl Bolinder Munktell, Eskilstuna]]></name></wpt>
  <wpt lat="59.3716" lon="16.51691"><name><![CDATA[Quality Hotel Statt, Eskilstuna]]></name></wpt>
  <wpt lat="59.60978" lon="16.54601"><name><![CDATA[Clarion Collection Hotel Etage, Västerås]]></name></wpt>
  <wpt lat="58.74812" lon="17.01589"><name><![CDATA[Clarion Collection Hotel Kompaniet, Nyköping]]></name></wpt>
  <wpt lat="60.6756" lon="17.1403"><name><![CDATA[Clarion Hotel Winn, Gävle]]></name></wpt>
  <wpt lat="62.38972" lon="17.3111"><name><![CDATA[Clarion Collection Hotel Grand, Sundsvall]]></name></wpt>
  <wpt lat="59.5536" lon="17.5282"><name><![CDATA[Aronsborgs Konferenshotell, Bålsta]]></name></wpt>
  <wpt lat="59.1933" lon="17.6275"><name><![CDATA[Quality Hotel Park, Södertälje]]></name></wpt>
  <wpt lat="59.86057" lon="17.63795"><name><![CDATA[Clarion Hotel Gillet, Uppsala]]></name></wpt>
  <wpt lat="59.60764" lon="17.89502"><name><![CDATA[Quality Hotel Airport, Arlanda]]></name></wpt>
  <wpt lat="59.27364" lon="17.90851"><name><![CDATA[Quality Hotel Prince Philip, Stockholm]]></name></wpt>
  <wpt lat="59.33262" lon="18.05214"><name><![CDATA[Comfort Hotel, Stockholm]]></name></wpt>
  <wpt lat="59.33336" lon="18.05461"><name><![CDATA[Clarion Hotel Sign, Stockholm]]></name></wpt>
  <wpt lat="59.30748" lon="18.07463"><name><![CDATA[Clarion Hotel, Stockholm]]></name></wpt>
  <wpt lat="59.33523" lon="18.08229"><name><![CDATA[Clarion Collection Hotel Wellington, Stockholm]]></name></wpt>
  <wpt lat="59.29144" lon="18.08442"><name><![CDATA[Quality Hotel Globe, Stockholm]]></name></wpt>
  <wpt lat="59.34334" lon="18.0867"><name><![CDATA[Clarion Collection Hotel Tapto, Stockholm]]></name></wpt>
  <wpt lat="59.34036" lon="18.08785"><name><![CDATA[Clarion Collection Hotel Karlaplan, Stockholm]]></name></wpt>
  <wpt lat="59.30709" lon="18.12023"><name><![CDATA[Quality Hotel, Nacka]]></name></wpt>
  <wpt lat="59.1655" lon="18.1349"><name><![CDATA[Quality Hotel Winn, Haninge]]></name></wpt>
  <wpt lat="59.3458" lon="18.2404"><name><![CDATA[Yasuragi Hasseludden, Saltsjö-Boo]]></name></wpt>
  <wpt lat="57.63856" lon="18.29079"><name><![CDATA[Clarion Hotel Wisby, Visby]]></name></wpt>
  <wpt lat="63.82441" lon="20.26579"><name><![CDATA[Clarion Collection Hotel Uman, Umeå]]></name></wpt>
  <wpt lat="64.75046" lon="20.95078"><name><![CDATA[Quality Hotel Statt, Skellefteå]]></name></wpt>
  <wpt lat="65.58375" lon="22.14711"><name><![CDATA[Quality Hotel, Luleå]]></name></wpt>
  <wpt lat="65.58489" lon="22.15794"><name><![CDATA[Comfort Hotel, Luleå]]></name></wpt>
</gpx>