<?xml version="1.0" encoding="UTF-8"?>
<!-- Source: https://github.com/cisene/se-poi -->
<gpx creator="se-poi" xmlns="http://www.topografix.com/GPX/1/1" xmlns:xsi="http://www.w3.org/2001/XMLSchema-instance" xsi:schemaLocation="http://www.topografix.com/GPX/1/1 http://www.topografix.com/GPX/1/1/gpx.xsd" version="1.1">
  <metadata>
    <name><![CDATA[Direkten]]></name>
    <desc><![CDATA[Koordinater - Direkten]]></desc>
    <link href="https://direkten.se/">
      <text><![CDATA[Direkten]]></text>
       <type>text/html</type>
    </link>
   <time>2023-08-28T18:31:29+02:00</time>
  </metadata>
  <bounds minlat="55.38167" minlon="11.224919" maxlat="67.85444" maxlon="21.47775" />
  <wpt lat="58.354275" lon="11.224919"><name><![CDATA[Smögen, Smögen]]></name></wpt>
  <wpt lat="58.644521" lon="11.779843"><name><![CDATA[Trogens Place, Hedekas]]></name></wpt>
  <wpt lat="58.0618" lon="11.84309"><name><![CDATA[Hasselboden, Stenungsund]]></name></wpt>
  <wpt lat="57.639446" lon="11.901031"><name><![CDATA[Godisriket, Västra Frölunda]]></name></wpt>
  <wpt lat="57.651783" lon="11.910449"><name><![CDATA[Pipcenter, Västra Frölunda]]></name></wpt>
  <wpt lat="57.69439" lon="11.91905"><name><![CDATA[Kustens Tips & Tobak, Göteborg]]></name></wpt>
  <wpt lat="57.720022" lon="11.92657"><name><![CDATA[Mötesplatsen, Göteborg]]></name></wpt>
  <wpt lat="57.696949" lon="11.926924"><name><![CDATA[Toppen, Göteborg]]></name></wpt>
  <wpt lat="57.749005" lon="11.928194"><name><![CDATA[Tuve, Tuve]]></name></wpt>
  <wpt lat="57.69672" lon="11.95154"><name><![CDATA[Linné, Göteborg]]></name></wpt>
  <wpt lat="57.69109" lon="11.992013"><name><![CDATA[Mölndalsvägen, Göteborg]]></name></wpt>
  <wpt lat="57.465489" lon="11.994111"><name><![CDATA[Vallda, Vallda]]></name></wpt>
  <wpt lat="57.649715" lon="12.002911"><name><![CDATA[Åby, Mölndal]]></name></wpt>
  <wpt lat="57.712824" lon="12.007528"><name><![CDATA[Danska vägen, Göteborg]]></name></wpt>
  <wpt lat="57.65664" lon="12.024551"><name><![CDATA[Kvarnby Livs & Spel, Mölndal]]></name></wpt>
  <wpt lat="57.757287" lon="12.03639"><name><![CDATA[City Torget, Göteborg]]></name></wpt>
  <wpt lat="57.721806" lon="12.049855"><name><![CDATA[Östra sjukhuset, Göteborg]]></name></wpt>
  <wpt lat="57.725021" lon="12.128532"><name><![CDATA[Furulund, Partille]]></name></wpt>
  <wpt lat="58.02886" lon="12.153292"><name><![CDATA[Lödöse, Lödöse]]></name></wpt>
  <wpt lat="58.285163" lon="12.290987"><name><![CDATA[Entrébutiken, Trollhättan]]></name></wpt>
  <wpt lat="58.263288" lon="12.297444"><name><![CDATA[Granngården, Trollhättan]]></name></wpt>
  <wpt lat="57.929893" lon="12.538332"><name><![CDATA[Tobakshörnan Alingsås, Alingsås]]></name></wpt>
  <wpt lat="56.199756" lon="12.561519"><name><![CDATA[Höganäs, Höganäs]]></name></wpt>
  <wpt lat="57.48971" lon="12.641142"><name><![CDATA[Skene, Skene]]></name></wpt>
  <wpt lat="56.041759" lon="12.691467"><name><![CDATA[Oceanen, Helsingborg]]></name></wpt>
  <wpt lat="56.06541" lon="12.70065"><name><![CDATA[Ringstorp, Helsingborg]]></name></wpt>
  <wpt lat="56.03957" lon="12.702724"><name><![CDATA[Trial, Helsingborg]]></name></wpt>
  <wpt lat="56.027265" lon="12.707813"><name><![CDATA[Annas, Helsingborg]]></name></wpt>
  <wpt lat="56.04114" lon="12.71201"><name><![CDATA[Kalles Högaborg, Helsingborg]]></name></wpt>
  <wpt lat="56.047415" lon="12.718272"><name><![CDATA[Olympen, Helsingborg]]></name></wpt>
  <wpt lat="56.02843" lon="12.725666"><name><![CDATA[Eskils Tobak, Helsingborg]]></name></wpt>
  <wpt lat="56.05037" lon="12.72686"><name><![CDATA[Rosen, Helsingborg]]></name></wpt>
  <wpt lat="56.062194" lon="12.727946"><name><![CDATA[Blåkulla, Helsingborg]]></name></wpt>
  <wpt lat="56.817682" lon="12.732038"><name><![CDATA[Eliassons, Getinge]]></name></wpt>
  <wpt lat="56.09254" lon="12.75863"><name><![CDATA[Väla, Ödåkra]]></name></wpt>
  <wpt lat="57.55797" lon="12.789279"><name><![CDATA[Fritsla, Fritsla]]></name></wpt>
  <wpt lat="55.874484" lon="12.831917"><name><![CDATA[Danielas Spel & Tobaksbutik, Landskrona]]></name></wpt>
  <wpt lat="55.87088" lon="12.83439"><name><![CDATA[Godisparadiset, Landskrona]]></name></wpt>
  <wpt lat="55.589459" lon="12.932581"><name><![CDATA[Limhamn, Limhamn]]></name></wpt>
  <wpt lat="55.598329" lon="12.979688"><name><![CDATA[Zel Tobak, Malmö]]></name></wpt>
  <wpt lat="55.590522" lon="13.005395"><name><![CDATA[Södervärn, Malmö]]></name></wpt>
  <wpt lat="55.595726" lon="13.008648"><name><![CDATA[Evening Market, Malmö]]></name></wpt>
  <wpt lat="55.589995" lon="13.010642"><name><![CDATA[Möllans Spel, Malmö]]></name></wpt>
  <wpt lat="55.57392" lon="13.02107"><name><![CDATA[Nydala, Malmö]]></name></wpt>
  <wpt lat="55.60527" lon="13.02273"><name><![CDATA[Ettans GK, Malmö]]></name></wpt>
  <wpt lat="55.58608" lon="13.04507"><name><![CDATA[Rocent, Malmö]]></name></wpt>
  <wpt lat="55.38167" lon="13.14443"><name><![CDATA[Entré, Trelleborg]]></name></wpt>
  <wpt lat="59.836645" lon="13.147929"><name><![CDATA[Sunne, Sunne]]></name></wpt>
  <wpt lat="55.718211" lon="13.198705"><name><![CDATA[Sofiavägen, Lund]]></name></wpt>
  <wpt lat="55.642606" lon="13.204207"><name><![CDATA[Staffanstorp, Staffanstorp]]></name></wpt>
  <wpt lat="55.837587" lon="13.303175"><name><![CDATA[Eslöv, Eslöv]]></name></wpt>
  <wpt lat="55.480214" lon="13.50177"><name><![CDATA[Nöje Kupén, Skurup]]></name></wpt>
  <wpt lat="59.393669" lon="13.517"><name><![CDATA[Nöje Casablanca, Karlstad]]></name></wpt>
  <wpt lat="59.411864" lon="13.571793"><name><![CDATA[Campus, Karlstad]]></name></wpt>
  <wpt lat="55.852346" lon="13.661651"><name><![CDATA[Hörby, Hörby]]></name></wpt>
  <wpt lat="56.157546" lon="13.766699"><name><![CDATA[Cigarrmagasinet, Hässleholm]]></name></wpt>
  <wpt lat="58.38718" lon="13.85822"><name><![CDATA[Sekunden, Skövde]]></name></wpt>
  <wpt lat="58.182568" lon="13.958551"><name><![CDATA[Tidaholm, Tidaholm]]></name></wpt>
  <wpt lat="57.73949" lon="14.15191"><name><![CDATA[Råslätt, Jönköping]]></name></wpt>
  <wpt lat="58.42251" lon="14.164875"><name><![CDATA[Nöje Sörens, Tibro]]></name></wpt>
  <wpt lat="57.781373" lon="14.199382"><name><![CDATA[Tobakshörnan Jönköping, Jönköping]]></name></wpt>
  <wpt lat="59.236929" lon="14.431536"><name><![CDATA[Degerfors, Degerfors]]></name></wpt>
  <wpt lat="56.074482" lon="14.467768"><name><![CDATA[Bromölla, Bromölla]]></name></wpt>
  <wpt lat="56.27762" lon="14.5248"><name><![CDATA[Nöje Olofström, Olofström]]></name></wpt>
  <wpt lat="59.7057" lon="14.5439"><name><![CDATA[Grythyttan, Grythyttan]]></name></wpt>
  <wpt lat="57.0018" lon="14.57351"><name><![CDATA[Moheda, Moheda]]></name></wpt>
  <wpt lat="56.116922" lon="14.677472"><name><![CDATA[Norje, Norje]]></name></wpt>
  <wpt lat="57.653376" lon="14.69545"><name><![CDATA[City Tobak, Nässjö]]></name></wpt>
  <wpt lat="56.1719" lon="14.86066"><name><![CDATA[HJ Anderssons Tobak, Karlshamn]]></name></wpt>
  <wpt lat="56.16883" lon="14.863058"><name><![CDATA[Ronnebygatan, Karlshamn]]></name></wpt>
  <wpt lat="57.665789" lon="14.972598"><name><![CDATA[Lejonkulan, Eksjö]]></name></wpt>
  <wpt lat="59.520196" lon="15.035912"><name><![CDATA[Nora, Nora]]></name></wpt>
  <wpt lat="60.88511" lon="15.11559"><name><![CDATA[Wasakiosken, Rättvik]]></name></wpt>
  <wpt lat="59.268712" lon="15.208448"><name><![CDATA[Nöje Örebro, Örebro]]></name></wpt>
  <wpt lat="59.594402" lon="15.226231"><name><![CDATA[Lindesberg, Lindesberg]]></name></wpt>
  <wpt lat="60.484012" lon="15.404406"><name><![CDATA[Film & Fabel Borlänge, Borlänge]]></name></wpt>
  <wpt lat="58.40883" lon="15.56268"><name><![CDATA[Ryd, Linköping]]></name></wpt>
  <wpt lat="60.606782" lon="15.634444"><name><![CDATA[Falun, Falun]]></name></wpt>
  <wpt lat="61.828532" lon="16.096267"><name><![CDATA[Ljusdal, Ljusdal]]></name></wpt>
  <wpt lat="60.146318" lon="16.174426"><name><![CDATA[Avesta, Avesta]]></name></wpt>
  <wpt lat="58.590816" lon="16.178653"><name><![CDATA[Skvallertorget, Norrköping]]></name></wpt>
  <wpt lat="58.585745" lon="16.189384"><name><![CDATA[SöderTull, Norrköping]]></name></wpt>
  <wpt lat="58.591389" lon="16.191942"><name><![CDATA[Nya Torget, Norrköping]]></name></wpt>
  <wpt lat="59.563913" lon="16.230305"><name><![CDATA[Kolbäck, Kolbäck]]></name></wpt>
  <wpt lat="56.667571" lon="16.355004"><name><![CDATA[Tobaksboden Kalmar, Kalmar]]></name></wpt>
  <wpt lat="56.660847" lon="16.365178"><name><![CDATA[Baronen, Kalmar]]></name></wpt>
  <wpt lat="59.71787" lon="16.42849"><name><![CDATA[Skultuna, Skultuna]]></name></wpt>
  <wpt lat="57.2647" lon="16.44449"><name><![CDATA[Oskarshamn, Oskarshamn]]></name></wpt>
  <wpt lat="56.64995" lon="16.4674"><name><![CDATA[Fyren, Färjestaden]]></name></wpt>
  <wpt lat="59.599002" lon="16.474267"><name><![CDATA[Bäckby, Västerås]]></name></wpt>
  <wpt lat="59.610788" lon="16.545381"><name><![CDATA[Västerås City, Västerås]]></name></wpt>
  <wpt lat="59.601166" lon="16.577562"><name><![CDATA[Östermälarstrand, Västerås]]></name></wpt>
  <wpt lat="59.919918" lon="16.606648"><name><![CDATA[Sala Godiscenter, Sala]]></name></wpt>
  <wpt lat="58.750002" lon="17.013142"><name><![CDATA[Janssons Kiosk, Nyköping]]></name></wpt>
  <wpt lat="59.370412" lon="17.028203"><name><![CDATA[Resecentrum Strängnäs, Strängnäs]]></name></wpt>
  <wpt lat="59.635014" lon="17.079146"><name><![CDATA[Kungsgatan, Enköping]]></name></wpt>
  <wpt lat="59.24806" lon="17.16707"><name><![CDATA[Läggestakiosken, Mariefred]]></name></wpt>
  <wpt lat="59.048245" lon="17.308676"><name><![CDATA[Gnesta, Gnesta]]></name></wpt>
  <wpt lat="62.390915" lon="17.30985"><name><![CDATA[Sundsvall, Sundsvall]]></name></wpt>
  <wpt lat="59.566547" lon="17.527174"><name><![CDATA[Bålsta, Bålsta]]></name></wpt>
  <wpt lat="59.089619" lon="17.56493"><name><![CDATA[Järnakiosken, Järna]]></name></wpt>
  <wpt lat="59.19602" lon="17.62804"><name><![CDATA[Kringlan, Södertälje]]></name></wpt>
  <wpt lat="59.211368" lon="17.63157"><name><![CDATA[Skepparens Tobak, Södertälje]]></name></wpt>
  <wpt lat="59.727867" lon="17.785891"><name><![CDATA[Knivsta, Knivsta]]></name></wpt>
  <wpt lat="59.45458" lon="17.805672"><name><![CDATA[Kallhälls Spel, Järfälla]]></name></wpt>
  <wpt lat="59.24433" lon="17.8262"><name><![CDATA[Hallunda, Norsborg]]></name></wpt>
  <wpt lat="59.19851" lon="17.83319"><name><![CDATA[Tumba, Tumba"09:00-19:00]]></name></wpt>
  <wpt lat="59.424228" lon="17.836333"><name><![CDATA[Riddarspelet, Järfälla]]></name></wpt>
  <wpt lat="59.238006" lon="17.844787"><name><![CDATA[Alby, Norsborg]]></name></wpt>
  <wpt lat="59.361838" lon="17.872931"><name><![CDATA[Vällingby Spel & Tobak, Vällingby]]></name></wpt>
  <wpt lat="66.0512" lon="17.891434"><name><![CDATA[Kalles Kiosk, Arjeplog]]></name></wpt>
  <wpt lat="59.381353" lon="17.898537"><name><![CDATA[Spånga, Spånga]]></name></wpt>
  <wpt lat="59.521109" lon="17.903614"><name><![CDATA[Väsby Spel & Tobak, Upplands Väsby]]></name></wpt>
  <wpt lat="59.268145" lon="17.916809"><name><![CDATA[Kungens Kurva, Kungens Kurva]]></name></wpt>
  <wpt lat="59.409777" lon="17.925906"><name><![CDATA[Husby, Kista]]></name></wpt>
  <wpt lat="59.40271" lon="17.94482"><name><![CDATA[Cigarr & Spel, Kista]]></name></wpt>
  <wpt lat="59.363633" lon="17.946154"><name><![CDATA[Annedal, Bromma]]></name></wpt>
  <wpt lat="59.42942" lon="17.948851"><name><![CDATA[Pendelkiosken, Sollentuna]]></name></wpt>
  <wpt lat="59.406544" lon="17.956611"><name><![CDATA[Kistakrysset, Kista"]]></name></wpt>
  <wpt lat="59.360294" lon="17.961328"><name><![CDATA[Cigarr & Spel Sundbyberg, Sundbyberg]]></name></wpt>
  <wpt lat="59.285561" lon="17.964023"><name><![CDATA[Fruängen, Hägersten"09:00-18:30]]></name></wpt>
  <wpt lat="59.364936" lon="17.974973"><name><![CDATA[Tulegatan, Sundbyberg]]></name></wpt>
  <wpt lat="59.237214" lon="17.978332"><name><![CDATA[Huddinge, Huddinge]]></name></wpt>
  <wpt lat="59.349822" lon="17.985973"><name><![CDATA[Huvudsta, Solna]]></name></wpt>
  <wpt lat="59.232822" lon="17.98911"><name><![CDATA[Rosalita, Huddinge]]></name></wpt>
  <wpt lat="59.252931" lon="17.996771"><name><![CDATA[Stuvsta Torg, Huddinge]]></name></wpt>
  <wpt lat="59.280566" lon="18.005136"><name><![CDATA[Älvsjö, Älvsjö]]></name></wpt>
  <wpt lat="59.34055" lon="18.00837"><name><![CDATA[Hornsbergs Strand, Stockholm]]></name></wpt>
  <wpt lat="59.262363" lon="18.014449"><name><![CDATA[Hagsätrakiosken, Bandhagen]]></name></wpt>
  <wpt lat="59.328585" lon="18.01689"><name><![CDATA[Vi Vinnare, Stockholm]]></name></wpt>
  <wpt lat="59.317664" lon="18.033035"><name><![CDATA[Marias Godis, Stockholm]]></name></wpt>
  <wpt lat="59.298628" lon="18.047224"><name><![CDATA[Årsta, Årsta]]></name></wpt>
  <wpt lat="59.346089" lon="18.05399"><name><![CDATA[Williamsson, Stockholm]]></name></wpt>
  <wpt lat="59.435356" lon="18.058695"><name><![CDATA[Roslagen, Täby]]></name></wpt>
  <wpt lat="59.293626" lon="18.063457"><name><![CDATA[Johanneshovsvägen, Årsta]]></name></wpt>
  <wpt lat="59.31443" lon="18.07092"><name><![CDATA[Söderhallarna, Stockholm]]></name></wpt>
  <wpt lat="59.296456" lon="18.075042"><name><![CDATA[Gullmarsplan, Johanneshov]]></name></wpt>
  <wpt lat="59.309401" lon="18.075404"><name><![CDATA[Skanstull, Stockholm]]></name></wpt>
  <wpt lat="59.314758" lon="18.076834"><name><![CDATA[Tareqs Tobak, Stockholm]]></name></wpt>
  <wpt lat="59.26208" lon="18.08322"><name><![CDATA[Gubbängens Tobak & Spel, Enskede]]></name></wpt>
  <wpt lat="59.271268" lon="18.085224"><name><![CDATA[Tallkrogen, Enskede]]></name></wpt>
  <wpt lat="59.343109" lon="18.086259"><name><![CDATA[Jungfrugatan, Stockholm"09:30-19:00]]></name></wpt>
  <wpt lat="59.35544" lon="18.087584"><name><![CDATA[Djurgårds Närlivs, Stockholm]]></name></wpt>
  <wpt lat="59.24337" lon="18.08968"><name><![CDATA[Farsta Tobak, Farsta]]></name></wpt>
  <wpt lat="59.24201" lon="18.09351"><name><![CDATA[Farsta Speltjänst, Farsta]]></name></wpt>
  <wpt lat="59.34678" lon="18.10066"><name><![CDATA[Gärdescentralen, Stockholm]]></name></wpt>
  <wpt lat="59.304657" lon="18.105687"><name><![CDATA[Hammarby, Stockholm]]></name></wpt>
  <wpt lat="59.28989" lon="18.116391"><name><![CDATA[Björkhagen, Johanneshov]]></name></wpt>
  <wpt lat="59.306226" lon="18.12242"><name><![CDATA[Sickla, Nacka]]></name></wpt>
  <wpt lat="59.228204" lon="18.132792"><name><![CDATA[Trångsund, Trångsund]]></name></wpt>
  <wpt lat="59.141499" lon="18.134953"><name><![CDATA[Jordbro, Jordbro]]></name></wpt>
  <wpt lat="59.159587" lon="18.13737"><name><![CDATA[Handen, Handen]]></name></wpt>
  <wpt lat="59.16916" lon="18.14027"><name><![CDATA[Haninge Spel, Handen]]></name></wpt>
  <wpt lat="59.217985" lon="18.152734"><name><![CDATA[Skogås, Skogås]]></name></wpt>
  <wpt lat="59.31615" lon="18.160379"><name><![CDATA[Nacka strand, Nacka strand]]></name></wpt>
  <wpt lat="59.480162" lon="18.298497"><name><![CDATA[Kajutan, Åkersberga]]></name></wpt>
  <wpt lat="59.313139" lon="18.431187"><name><![CDATA[Värmdö köpcenter, Gustavsberg]]></name></wpt>
  <wpt lat="63.296735" lon="18.716667"><name><![CDATA[Övik, Örnsköldsvik]]></name></wpt>
  <wpt lat="67.85444" lon="20.23619"><name><![CDATA[Simhallskiosken, Kiruna]]></name></wpt>
  <wpt lat="67.849293" lon="20.30761"><name><![CDATA[Kiruna, Kiruna]]></name></wpt>
  <wpt lat="64.51902" lon="20.658"><name><![CDATA[Kioskbutik Karamellen, Burträsk]]></name></wpt>
  <wpt lat="64.751141" lon="20.968737"><name><![CDATA[Ingers Kiosk, Skellefteå]]></name></wpt>
  <wpt lat="65.317812" lon="21.47775"><name><![CDATA[Pite Spelbutik, Piteå]]></name></wpt>
</gpx>