<?xml version="1.0" encoding="UTF-8"?>
<!-- Source: https://github.com/cisene/se-poi -->
<gpx creator="se-poi" xmlns="http://www.topografix.com/GPX/1/1" xmlns:xsi="http://www.w3.org/2001/XMLSchema-instance" xsi:schemaLocation="http://www.topografix.com/GPX/1/1 http://www.topografix.com/GPX/1/1/gpx.xsd" version="1.1">
  <metadata>
    <name><![CDATA[Dressmann]]></name>
    <desc><![CDATA[Koordinater - Dressmann]]></desc>
    <link href="None">
      <text><![CDATA[Dressmann]]></text>
       <type>text/html</type>
    </link>
   <time>2023-08-28T18:09:16+02:00</time>
  </metadata>
  <bounds minlat="55.373532" minlon="11.179187" maxlat="67.854502" maxlon="22.153866" />
  <wpt lat="58.938346" lon="11.179187"><name><![CDATA[Dressmann Strömstad, Strömstad]]></name></wpt>
  <wpt lat="58.946249" lon="11.188439"><name><![CDATA[Strömstad Galleria, Strömstad]]></name></wpt>
  <wpt lat="58.721162" lon="11.346729"><name><![CDATA[Dressmann Tanum, Tanum]]></name></wpt>
  <wpt lat="58.354338" lon="11.81209"><name><![CDATA[Dressmann Uddevalla Torp, Uddevalla]]></name></wpt>
  <wpt lat="58.354347" lon="11.812149"><name><![CDATA[Dressmann XL Uddevalla Torp, Uddevalla]]></name></wpt>
  <wpt lat="58.06879" lon="11.819887"><name><![CDATA[Dressmann Stenungsund, Stenungsund]]></name></wpt>
  <wpt lat="59.506639" lon="11.843057"><name><![CDATA[Dressmann Töcksfors, Töcksfors]]></name></wpt>
  <wpt lat="57.650835" lon="11.911018"><name><![CDATA[Dressmann V Frölunda, Göteborg]]></name></wpt>
  <wpt lat="58.34965" lon="11.932504"><name><![CDATA[Dressmann Uddevalla, Uddevalla]]></name></wpt>
  <wpt lat="57.650491" lon="11.945746"><name><![CDATA[Dressmann Högsbo 421, Västra Frölunda]]></name></wpt>
  <wpt lat="57.72137" lon="11.9518"><name><![CDATA[Dressmann XL Backaplan, Göteborg]]></name></wpt>
  <wpt lat="57.721397" lon="11.95217"><name><![CDATA[Dressmann Backaplan, Göteborg]]></name></wpt>
  <wpt lat="57.704539" lon="11.966774"><name><![CDATA[Dressmann Kungsgatan Göteborg, Göteborg]]></name></wpt>
  <wpt lat="57.874137" lon="11.967847"><name><![CDATA[Dressmann Kungälv Konghälla, Kungälv]]></name></wpt>
  <wpt lat="57.708802" lon="11.96909"><name><![CDATA[Dressmann Nordstan, Göteborg]]></name></wpt>
  <wpt lat="57.708574" lon="11.970273"><name><![CDATA[Dressmann Femman, Göteborg]]></name></wpt>
  <wpt lat="57.653945" lon="12.014575"><name><![CDATA[Dressmann Mölndal, Mölndal]]></name></wpt>
  <wpt lat="57.892051" lon="12.045495"><name><![CDATA[Dressmann Nödinge, Nödinge]]></name></wpt>
  <wpt lat="57.491423" lon="12.075004"><name><![CDATA[Dressmann Kungsbacka, Kungsbacka]]></name></wpt>
  <wpt lat="57.739048" lon="12.10417"><name><![CDATA[Dressmann Partille, Göteborg]]></name></wpt>
  <wpt lat="57.106026" lon="12.247562"><name><![CDATA[Dressmann Varberg Gallerian, Varberg]]></name></wpt>
  <wpt lat="59.880653" lon="12.288041"><name><![CDATA[Dressmann Charlottenberg, Charlottenberg]]></name></wpt>
  <wpt lat="58.316667" lon="12.316667"><name><![CDATA[Dressmann Trollhättan Överby, Trollhättan]]></name></wpt>
  <wpt lat="58.379399" lon="12.322576"><name><![CDATA[Dressmann Vänersborg, Vänersborg]]></name></wpt>
  <wpt lat="56.904383" lon="12.490826"><name><![CDATA[Dressmann Falkenberg, Falkenberg]]></name></wpt>
  <wpt lat="57.930204" lon="12.535962"><name><![CDATA[Dressmann Alingsås, Alingsås]]></name></wpt>
  <wpt lat="59.654135" lon="12.592298"><name><![CDATA[Dressmann Arvika, Arvika]]></name></wpt>
  <wpt lat="59.052158" lon="12.705"><name><![CDATA[Dressmann Åmål, Åmål]]></name></wpt>
  <wpt lat="56.09001" lon="12.758976"><name><![CDATA[Dressmann XL Väla, Ödåkra]]></name></wpt>
  <wpt lat="56.089926" lon="12.758998"><name><![CDATA[Dressmann Väla, Ödåkra]]></name></wpt>
  <wpt lat="55.871288" lon="12.833469"><name><![CDATA[Dressmann Landskrona, Landskrona]]></name></wpt>
  <wpt lat="56.674753" lon="12.85796"><name><![CDATA[Dressmann Halmstad City, Halmstad]]></name></wpt>
  <wpt lat="56.243777" lon="12.862731"><name><![CDATA[Dressmann Ängelholm, Ängelholm]]></name></wpt>
  <wpt lat="56.666044" lon="12.918351"><name><![CDATA[Dressmann Halmstad Hallarna, Halmstad]]></name></wpt>
  <wpt lat="57.735241" lon="12.938371"><name><![CDATA[Dressmann Borås Knalleland, Borås]]></name></wpt>
  <wpt lat="57.721584" lon="12.940258"><name><![CDATA[Dressmann Borås City, Borås]]></name></wpt>
  <wpt lat="56.503842" lon="12.9558"><name><![CDATA[Dressmann Mellbystrand, Mellbystrand]]></name></wpt>
  <wpt lat="55.563613" lon="12.974654"><name><![CDATA[Dressmann Emporia, Malmö]]></name></wpt>
  <wpt lat="55.563944" lon="12.974953"><name><![CDATA[Dressmann XL Emporia, Malmö]]></name></wpt>
  <wpt lat="55.768859" lon="12.990885"><name><![CDATA[Dressmann Löddeköpinge, Löddeköpinge]]></name></wpt>
  <wpt lat="55.595197" lon="13.00105"><name><![CDATA[Dressmann Triangeln Köpcentrum, Malmö]]></name></wpt>
  <wpt lat="55.581134" lon="13.003528"><name><![CDATA[Dressmann Mobilia, Malmö]]></name></wpt>
  <wpt lat="55.570175" lon="13.057949"><name><![CDATA[Dressmann Jägersro, Malmö]]></name></wpt>
  <wpt lat="55.639528" lon="13.083846"><name><![CDATA[Dressmann XL Burlöv, Arlöv]]></name></wpt>
  <wpt lat="55.646616" lon="13.091008"><name><![CDATA[Dressmann Burlöv, Arlöv]]></name></wpt>
  <wpt lat="58.508958" lon="13.143994"><name><![CDATA[Dressmann Lidköping, Lidköping]]></name></wpt>
  <wpt lat="55.373532" lon="13.156629"><name><![CDATA[Dressmann Trelleborg, Trelleborg]]></name></wpt>
  <wpt lat="55.71394" lon="13.159958"><name><![CDATA[Dressmann Nova Lund, Lund]]></name></wpt>
  <wpt lat="55.839004" lon="13.302906"><name><![CDATA[Dressmann Eslöv, Eslöv]]></name></wpt>
  <wpt lat="57.792225" lon="13.412718"><name><![CDATA[Dressmann Ulricehamn, Ulricehamn]]></name></wpt>
  <wpt lat="59.377431" lon="13.428643"><name><![CDATA[Dressmann Bergvik, Karlstad]]></name></wpt>
  <wpt lat="59.378569" lon="13.499483"><name><![CDATA[Dressmann XL Karlstad, Karlstad]]></name></wpt>
  <wpt lat="59.379377" lon="13.501191"><name><![CDATA[Dressmann Karlstad City, Karlstad]]></name></wpt>
  <wpt lat="57.301806" lon="13.537492"><name><![CDATA[Dressmann Gislaved, Gislaved]]></name></wpt>
  <wpt lat="58.160979" lon="13.555076"><name><![CDATA[Dressmann Falköping, Falköping]]></name></wpt>
  <wpt lat="56.158522" lon="13.76621"><name><![CDATA[Dressmann Hässleholm, Hässleholm]]></name></wpt>
  <wpt lat="58.709874" lon="13.823488"><name><![CDATA[Dressmann Mariestad, Mariestad]]></name></wpt>
  <wpt lat="55.430394" lon="13.82398"><name><![CDATA[Dressmann Ystad, Ystad]]></name></wpt>
  <wpt lat="58.389117" lon="13.84483"><name><![CDATA[Dressmann Skövde City, Skövde]]></name></wpt>
  <wpt lat="58.405522" lon="13.854527"><name><![CDATA[Dressmann Skövde Elins Esplanad, Skövde]]></name></wpt>
  <wpt lat="56.83381" lon="13.940315"><name><![CDATA[Dressmann Ljungby, Ljungby]]></name></wpt>
  <wpt lat="57.185847" lon="14.039319"><name><![CDATA[Dressmann Värnamo, Värnamo]]></name></wpt>
  <wpt lat="56.030086" lon="14.158844"><name><![CDATA[Dressmann Kristianstad, Kristianstad]]></name></wpt>
  <wpt lat="57.782287" lon="14.17323"><name><![CDATA[Dressmann Jönköping City, Jönköping]]></name></wpt>
  <wpt lat="56.023235" lon="14.197162"><name><![CDATA[Dressmann C4 Shopping Kristianstad, Kristianstad]]></name></wpt>
  <wpt lat="56.023235" lon="14.197162"><name><![CDATA[Dressmann XL C4 Shopping Kristianstad, Kristianstad]]></name></wpt>
  <wpt lat="57.774703" lon="14.203387"><name><![CDATA[Dressmann Jönköping A6, Jönköping]]></name></wpt>
  <wpt lat="55.556984" lon="14.350992"><name><![CDATA[Dressmann Simrishamn, Simrishamn]]></name></wpt>
  <wpt lat="59.326296" lon="14.525618"><name><![CDATA[Dressmann Karlskoga, Karlskoga]]></name></wpt>
  <wpt lat="61.004385" lon="14.537748"><name><![CDATA[Dressmann Mora, Mora]]></name></wpt>
  <wpt lat="63.176911" lon="14.637235"><name><![CDATA[Dressmann Östersund City, Östersund]]></name></wpt>
  <wpt lat="57.653701" lon="14.694446"><name><![CDATA[Dressmann Nässjö, Nässjö]]></name></wpt>
  <wpt lat="63.174457" lon="14.694952"><name><![CDATA[Dressmann Lillänge Östersund, Östersund]]></name></wpt>
  <wpt lat="56.884678" lon="14.766962"><name><![CDATA[Dressmann Växjö Samarkand, Växjö]]></name></wpt>
  <wpt lat="56.878652" lon="14.806296"><name><![CDATA[Dressmann Växjö City, Växjö]]></name></wpt>
  <wpt lat="56.172237" lon="14.861087"><name><![CDATA[Dressmann Karlshamn, Karlshamn]]></name></wpt>
  <wpt lat="58.036201" lon="14.977254"><name><![CDATA[Dressmann Tranås, Tranås]]></name></wpt>
  <wpt lat="58.537135" lon="15.037122"><name><![CDATA[Dressmann Motala, Motala]]></name></wpt>
  <wpt lat="57.425667" lon="15.087645"><name><![CDATA[Dressmann Vetlanda, Vetlanda]]></name></wpt>
  <wpt lat="58.325694" lon="15.12528"><name><![CDATA[Dressmann XL Mjölby, Mjölby]]></name></wpt>
  <wpt lat="58.325694" lon="15.12528"><name><![CDATA[Dressmann Mjölby, Mjölby]]></name></wpt>
  <wpt lat="59.215934" lon="15.139573"><name><![CDATA[Dressmann XL Marieberg, Örebro]]></name></wpt>
  <wpt lat="59.222615" lon="15.140148"><name><![CDATA[Dressmann Marieberg Galleria, Örebro]]></name></wpt>
  <wpt lat="60.14973" lon="15.186207"><name><![CDATA[Dressmann Ludvika, Ludvika]]></name></wpt>
  <wpt lat="59.270704" lon="15.212278"><name><![CDATA[Dressmann Örebro City, Örebro]]></name></wpt>
  <wpt lat="56.211123" lon="15.277362"><name><![CDATA[Dressmann Ronneby, Ronneby]]></name></wpt>
  <wpt lat="60.484166" lon="15.417971"><name><![CDATA[Dressmann Borlänge Kupolen, Borlänge]]></name></wpt>
  <wpt lat="60.484419" lon="15.41811"><name><![CDATA[Dressmann XL Borlänge Kupolen, Borlänge]]></name></wpt>
  <wpt lat="56.161164" lon="15.571969"><name><![CDATA[Dressmann Karlskrona City, Karlskrona]]></name></wpt>
  <wpt lat="58.43236" lon="15.587852"><name><![CDATA[Dressmann Linköping Ikano, Linköping]]></name></wpt>
  <wpt lat="58.410072" lon="15.62662"><name><![CDATA[Dressmann Linköping Gränden, Linköping]]></name></wpt>
  <wpt lat="60.606599" lon="15.630522"><name><![CDATA[Dressmann Falun, Falun]]></name></wpt>
  <wpt lat="56.196632" lon="15.641094"><name><![CDATA[Dressmann Karlskrona Amiralen, Lyckeby]]></name></wpt>
  <wpt lat="60.003756" lon="15.793114"><name><![CDATA[Dressmann Fagersta, Fagersta]]></name></wpt>
  <wpt lat="57.666659" lon="15.853699"><name><![CDATA[Dressmann Vimmerby, Vimmerby]]></name></wpt>
  <wpt lat="59.519405" lon="15.976705"><name><![CDATA[Dressmann Köping, Köping]]></name></wpt>
  <wpt lat="58.622867" lon="16.165039"><name><![CDATA[Dressmann Ingelsta Shopping, Norrköping]]></name></wpt>
  <wpt lat="60.145882" lon="16.168253"><name><![CDATA[Dressmann Avesta, Avesta]]></name></wpt>
  <wpt lat="58.587482" lon="16.188788"><name><![CDATA[Dressmann Norrköping, Norrköping]]></name></wpt>
  <wpt lat="58.994924" lon="16.20863"><name><![CDATA[Dressmann Katrineholm, Katrineholm]]></name></wpt>
  <wpt lat="58.573399" lon="16.20959"><name><![CDATA[Dressmann Mirum Galleria, Norrköping]]></name></wpt>
  <wpt lat="56.686984" lon="16.319807"><name><![CDATA[Dressmann XL Kalmar Hansa, Kalmar]]></name></wpt>
  <wpt lat="56.686984" lon="16.319807"><name><![CDATA[Dressmann Kalmar Hansa, Kalmar]]></name></wpt>
  <wpt lat="56.670618" lon="16.337701"><name><![CDATA[Dressmann Kalmar Giraffen Shopping, Kalmar]]></name></wpt>
  <wpt lat="61.348615" lon="16.393757"><name><![CDATA[Dressmann Bollnäs, Bollnäs]]></name></wpt>
  <wpt lat="57.265517" lon="16.44666"><name><![CDATA[Dressmann Oskarshamn, Oskarshamn]]></name></wpt>
  <wpt lat="59.609976" lon="16.454807"><name><![CDATA[Dressmann Erikslund, Västerås]]></name></wpt>
  <wpt lat="56.652044" lon="16.469813"><name><![CDATA[Dressmann Öland, Färjestaden]]></name></wpt>
  <wpt lat="59.371344" lon="16.470114"><name><![CDATA[Dressmann Tuna Park, Eskilstuna]]></name></wpt>
  <wpt lat="59.371672" lon="16.510365"><name><![CDATA[Dressmann Eskilstuna, Eskilstuna]]></name></wpt>
  <wpt lat="59.611241" lon="16.544913"><name><![CDATA[Dressmann XL Västerås, Västerås]]></name></wpt>
  <wpt lat="59.920296" lon="16.605667"><name><![CDATA[Dressmann Sala, Sala]]></name></wpt>
  <wpt lat="59.610308" lon="16.622302"><name><![CDATA[Dressmann Hälla, Västerås]]></name></wpt>
  <wpt lat="57.758271" lon="16.638978"><name><![CDATA[Dressmann Västervik, Västervik]]></name></wpt>
  <wpt lat="60.633993" lon="16.989866"><name><![CDATA[Dressmann XL Valbo, Valbo]]></name></wpt>
  <wpt lat="60.632938" lon="16.992016"><name><![CDATA[Dressmann Valbo, Valbo]]></name></wpt>
  <wpt lat="58.751965" lon="17.006303"><name><![CDATA[Dressmann Nyköping, Nyköping]]></name></wpt>
  <wpt lat="59.376199" lon="17.027203"><name><![CDATA[Dressmann Strängnäs, Strängnäs]]></name></wpt>
  <wpt lat="61.302865" lon="17.057131"><name><![CDATA[Dressmann Söderhamn, Söderhamn]]></name></wpt>
  <wpt lat="59.628386" lon="17.080647"><name><![CDATA[Dressmann Enköping, Enköping]]></name></wpt>
  <wpt lat="61.728225" lon="17.104182"><name><![CDATA[Dressmann Hudiksvall, Hudiksvall]]></name></wpt>
  <wpt lat="60.673911" lon="17.141202"><name><![CDATA[Dressmann Gävle, Gävle]]></name></wpt>
  <wpt lat="63.167863" lon="17.268558"><name><![CDATA[Dressmann Sollefteå, Sollefteå]]></name></wpt>
  <wpt lat="62.447125" lon="17.335877"><name><![CDATA[Dressmann XL Sundsvall Birsta City, Sundsvall]]></name></wpt>
  <wpt lat="62.447125" lon="17.335877"><name><![CDATA[Dressmann Birsta City, Sundsvall]]></name></wpt>
  <wpt lat="59.567602" lon="17.529251"><name><![CDATA[Dressmann Bålsta, Bålsta]]></name></wpt>
  <wpt lat="59.196261" lon="17.626747"><name><![CDATA[Dressmann Södertälje, Södertälje]]></name></wpt>
  <wpt lat="59.859524" lon="17.637519"><name><![CDATA[Dressmann Uppsala, Uppsala]]></name></wpt>
  <wpt lat="59.877083" lon="17.670852"><name><![CDATA[Dressmann Gränby, Uppsala]]></name></wpt>
  <wpt lat="59.845467" lon="17.693974"><name><![CDATA[Dressmann XL Uppsala, Uppsala]]></name></wpt>
  <wpt lat="59.199165" lon="17.835103"><name><![CDATA[Dressmann Tumba, Tumba]]></name></wpt>
  <wpt lat="59.424059" lon="17.837224"><name><![CDATA[Dressmann Jakobsberg, Järfälla]]></name></wpt>
  <wpt lat="59.620727" lon="17.855776"><name><![CDATA[Dressmann Märsta Centrum, Stockholm]]></name></wpt>
  <wpt lat="59.416177" lon="17.858192"><name><![CDATA[Dressmann Barkarby, Järfälla]]></name></wpt>
  <wpt lat="59.362715" lon="17.873982"><name><![CDATA[Dressmann Vällingby, Vällingby]]></name></wpt>
  <wpt lat="59.275006" lon="17.907159"><name><![CDATA[Dressmann XL Skärholmen, Skärholmen]]></name></wpt>
  <wpt lat="59.275155" lon="17.907986"><name><![CDATA[Dressmann Skärholmen, Skärholmen]]></name></wpt>
  <wpt lat="59.518665" lon="17.909925"><name><![CDATA[Dressmann Upplands Väsby, Upplands]]></name></wpt>
  <wpt lat="59.270194" lon="17.916782"><name><![CDATA[Dressmann Kungens Kurva, Kurva]]></name></wpt>
  <wpt lat="62.631639" lon="17.939278"><name><![CDATA[Dressmann Härnösand, Härnösand]]></name></wpt>
  <wpt lat="59.403369" lon="17.944321"><name><![CDATA[Dressmann XL Kista Galleria, Kista]]></name></wpt>
  <wpt lat="59.403369" lon="17.944321"><name><![CDATA[Dressmann Kista Galleria, Kista]]></name></wpt>
  <wpt lat="58.903433" lon="17.947439"><name><![CDATA[Dressmann Nynäshamn, Nynäshamn]]></name></wpt>
  <wpt lat="59.428387" lon="17.951123"><name><![CDATA[Dressmann Sollentuna Centrum, Sollentuna]]></name></wpt>
  <wpt lat="59.355605" lon="17.955186"><name><![CDATA[Dressmann Bromma, Bromma]]></name></wpt>
  <wpt lat="59.235454" lon="17.981343"><name><![CDATA[Dressmann Huddinge, Huddinge]]></name></wpt>
  <wpt lat="59.373682" lon="17.99573"><name><![CDATA[Dressmann Mall of Scandinavia, Solna]]></name></wpt>
  <wpt lat="59.360473" lon="17.999446"><name><![CDATA[Dressmann Solna, Solna]]></name></wpt>
  <wpt lat="59.309995" lon="18.021806"><name><![CDATA[Dressmann Liljeholmen, Stockholm]]></name></wpt>
  <wpt lat="59.343272" lon="18.051259"><name><![CDATA[Dressmann Odenplan, Stockholm]]></name></wpt>
  <wpt lat="59.331278" lon="18.059121"><name><![CDATA[Dressmann XL Stockholm City, Stockholm]]></name></wpt>
  <wpt lat="59.332848" lon="18.062002"><name><![CDATA[Dressmann Drottninggatan 56, Stockholm]]></name></wpt>
  <wpt lat="59.442097" lon="18.06646"><name><![CDATA[Dressmann Täby, Täby]]></name></wpt>
  <wpt lat="59.313724" lon="18.073457"><name><![CDATA[Dressmann Götgatan, Stockholm]]></name></wpt>
  <wpt lat="59.293748" lon="18.083066"><name><![CDATA[Dressmann Globen, Johanneshov]]></name></wpt>
  <wpt lat="59.242339" lon="18.091986"><name><![CDATA[Dressmann Farsta, Farsta]]></name></wpt>
  <wpt lat="59.366055" lon="18.135147"><name><![CDATA[Dressmann Lidingö, Lidingö]]></name></wpt>
  <wpt lat="59.179241" lon="18.149224"><name><![CDATA[Dressmann Haninge Port 73, Handen]]></name></wpt>
  <wpt lat="59.204867" lon="18.151245"><name><![CDATA[Dressmann Haninge Centrum, Haninge]]></name></wpt>
  <wpt lat="59.309419" lon="18.16439"><name><![CDATA[Dressmann Nacka, Nacka]]></name></wpt>
  <wpt lat="59.244194" lon="18.228917"><name><![CDATA[Dressmann Tyresö, Tyresö]]></name></wpt>
  <wpt lat="59.479799" lon="18.297806"><name><![CDATA[Dressmann Åkersberga, Åkersberga]]></name></wpt>
  <wpt lat="57.637843" lon="18.299596"><name><![CDATA[Dressmann Visby, Visby]]></name></wpt>
  <wpt lat="59.313528" lon="18.427295"><name><![CDATA[Dressmann Värmdö, Gustavsberg]]></name></wpt>
  <wpt lat="64.594933" lon="18.676687"><name><![CDATA[Dressmann Lycksele, Lycksele]]></name></wpt>
  <wpt lat="59.757463" lon="18.699431"><name><![CDATA[Dressmann Norrtälje, Norrtälje]]></name></wpt>
  <wpt lat="63.290854" lon="18.712987"><name><![CDATA[Dressmann Örnsköldsvik, Örnsköldsvik]]></name></wpt>
  <wpt lat="67.854502" lon="20.2282"><name><![CDATA[Dressmann Kiruna, Kiruna]]></name></wpt>
  <wpt lat="63.80552" lon="20.254772"><name><![CDATA[Dressmann Avion Köpcentrum, Umeå]]></name></wpt>
  <wpt lat="63.80552" lon="20.254772"><name><![CDATA[Dressmann XL Avion Shopping, Umeå]]></name></wpt>
  <wpt lat="63.850599" lon="20.299914"><name><![CDATA[Dressmann Umeå Ersboda, Umeå]]></name></wpt>
  <wpt lat="67.134321" lon="20.656718"><name><![CDATA[Dressmann Gällivare, Gällivare]]></name></wpt>
  <wpt lat="64.750793" lon="20.954606"><name><![CDATA[Dressmann Skellefteå City, Skellefteå]]></name></wpt>
  <wpt lat="64.765023" lon="21.023512"><name><![CDATA[Dressmann Skellefteå Solbacken, Skellefteå]]></name></wpt>
  <wpt lat="65.317692" lon="21.478591"><name><![CDATA[Dressmann Piteå, Piteå]]></name></wpt>
  <wpt lat="65.825339" lon="21.689473"><name><![CDATA[Dressmann Boden, Boden]]></name></wpt>
  <wpt lat="65.61907" lon="22.046531"><name><![CDATA[Dressmann Luleå Storheden, Luleå]]></name></wpt>
  <wpt lat="65.61907" lon="22.046531"><name><![CDATA[Dressmann XL Luleå, Luleå]]></name></wpt>
  <wpt lat="65.584257" lon="22.153866"><name><![CDATA[Dressmann Luleå City, Luleå]]></name></wpt>
</gpx>