<?xml version="1.0" encoding="UTF-8"?>
<!-- Source: https://github.com/cisene/se-poi -->
<gpx creator="se-poi" xmlns="http://www.topografix.com/GPX/1/1" xmlns:xsi="http://www.w3.org/2001/XMLSchema-instance" xsi:schemaLocation="http://www.topografix.com/GPX/1/1 http://www.topografix.com/GPX/1/1/gpx.xsd" version="1.1">
  <metadata>
    <name><![CDATA[Forex Danmark]]></name>
    <desc><![CDATA[Koordinater - Forex Danmark]]></desc>
    <link href="https://www.forexvaluta.dk/">
      <text><![CDATA[Forex Danmark]]></text>
       <type>text/html</type>
    </link>
   <time>2023-07-15T16:21:17+02:00</time>
  </metadata>
  <bounds minlat="55.38345" minlon="10.20255" maxlat="56.15023" maxlon="12.64626" />
  <wpt lat="56.15023" lon="10.20255"><name><![CDATA[Forex Aarhus C, Aarhus C]]></name></wpt>
  <wpt lat="55.38345" lon="10.42559"><name><![CDATA[Forex Odense SØ, Odense SØ]]></name></wpt>
  <wpt lat="55.59861" lon="12.32528"><name><![CDATA[Forex Greve, Greve]]></name></wpt>
  <wpt lat="55.67943" lon="12.53381"><name><![CDATA[Forex Frederiksberg, Frederiksberg]]></name></wpt>
  <wpt lat="55.67301" lon="12.56441"><name><![CDATA[Forex København V, København V]]></name></wpt>
  <wpt lat="55.68363" lon="12.57291"><name><![CDATA[Forex København K, København K]]></name></wpt>
  <wpt lat="55.62882" lon="12.64552"><name><![CDATA[Forex Kastrup, Kastrup]]></name></wpt>
  <wpt lat="55.62911" lon="12.64626"><name><![CDATA[Forex Kastrup, Kastrup]]></name></wpt>
</gpx>