<?xml version="1.0" encoding="UTF-8"?>
<!-- Source: https://github.com/cisene/se-poi -->
<gpx creator="se-poi" xmlns="http://www.topografix.com/GPX/1/1" xmlns:xsi="http://www.w3.org/2001/XMLSchema-instance" xsi:schemaLocation="http://www.topografix.com/GPX/1/1 http://www.topografix.com/GPX/1/1/gpx.xsd" version="1.1">
  <metadata>
    <name><![CDATA[Granngården]]></name>
    <desc><![CDATA[Koordinater - Granngården]]></desc>
    <link href="https://www.granngarden.se/">
      <text><![CDATA[Granngården]]></text>
       <type>text/html</type>
    </link>
   <time>2023-08-28T18:31:30+02:00</time>
  </metadata>
  <bounds minlat="55.435938" minlon="11.328563" maxlat="65.863062" maxlon="23.140437" />
  <wpt lat="58.724438" lon="11.328563"><name><![CDATA[Granngården Tanumshede, Tanumshede]]></name></wpt>
  <wpt lat="58.348937" lon="11.826062"><name><![CDATA[Granngården Uddevalla, Uddevalla]]></name></wpt>
  <wpt lat="57.882562" lon="11.983812"><name><![CDATA[Granngården Kungälv, Kungälv]]></name></wpt>
  <wpt lat="57.484313" lon="12.080562"><name><![CDATA[Granngården Kungsbacka, Kungsbacka]]></name></wpt>
  <wpt lat="57.121688" lon="12.283812"><name><![CDATA[Granngården Varberg, Varberg]]></name></wpt>
  <wpt lat="58.315812" lon="12.311687"><name><![CDATA[Granngården Trollhättan, Trollhättan]]></name></wpt>
  <wpt lat="56.933813" lon="12.515812"><name><![CDATA[Granngården Falkenberg, Falkenberg]]></name></wpt>
  <wpt lat="57.940687" lon="12.557562"><name><![CDATA[Granngården Alingsås, Alingsås]]></name></wpt>
  <wpt lat="59.674187" lon="12.592813"><name><![CDATA[Granngården Arvika, Arvika]]></name></wpt>
  <wpt lat="57.497813" lon="12.679688"><name><![CDATA[Granngården Kinna, Kinna]]></name></wpt>
  <wpt lat="59.045313" lon="12.681188"><name><![CDATA[Granngården Åmål, Åmål]]></name></wpt>
  <wpt lat="56.093187" lon="12.765313"><name><![CDATA[Granngården Helsingborg, Helsingborg]]></name></wpt>
  <wpt lat="57.715688" lon="12.885063"><name><![CDATA[Granngården Borås, Borås]]></name></wpt>
  <wpt lat="56.250062" lon="12.894938"><name><![CDATA[Granngården Ängelholm, Ängelholm]]></name></wpt>
  <wpt lat="56.651187" lon="12.895563"><name><![CDATA[Granngården Halmstad, Halmstad]]></name></wpt>
  <wpt lat="59.135937" lon="12.924563"><name><![CDATA[Granngården Säffle, Säffle]]></name></wpt>
  <wpt lat="58.269188" lon="12.961313"><name><![CDATA[Granngården Vara, Vara]]></name></wpt>
  <wpt lat="55.767937" lon="12.995062"><name><![CDATA[Granngården Löddeköpinge, Löddeköpinge]]></name></wpt>
  <wpt lat="55.550062" lon="12.998437"><name><![CDATA[Granngården Malmö, Malmö]]></name></wpt>
  <wpt lat="60.150688" lon="13.009187"><name><![CDATA[Granngården Torsby, Torsby]]></name></wpt>
  <wpt lat="59.851687" lon="13.160312"><name><![CDATA[Granngården Sunne, Sunne]]></name></wpt>
  <wpt lat="58.505562" lon="13.164312"><name><![CDATA[Granngården Lidköping, Lidköping]]></name></wpt>
  <wpt lat="55.842687" lon="13.310688"><name><![CDATA[Granngården Eslöv, Eslöv]]></name></wpt>
  <wpt lat="55.660438" lon="13.344687"><name><![CDATA[Granngården Dalby, Dalby]]></name></wpt>
  <wpt lat="57.806438" lon="13.410937"><name><![CDATA[Granngården Ulricehamn, Ulricehamn]]></name></wpt>
  <wpt lat="59.373812" lon="13.444688"><name><![CDATA[Granngården Karlstad, Karlstad]]></name></wpt>
  <wpt lat="60.166187" lon="13.499688"><name><![CDATA[Granngården Ekshärad, Ekshärad]]></name></wpt>
  <wpt lat="57.304812" lon="13.545438"><name><![CDATA[Granngården Gislaved, Gislaved]]></name></wpt>
  <wpt lat="58.150937" lon="13.562188"><name><![CDATA[Granngården Falköping, Falköping]]></name></wpt>
  <wpt lat="55.639063" lon="13.684687"><name><![CDATA[Granngården Sjöbo, Sjöbo]]></name></wpt>
  <wpt lat="58.694812" lon="13.817687"><name><![CDATA[Granngården Mariestad, Mariestad]]></name></wpt>
  <wpt lat="55.435938" lon="13.836813"><name><![CDATA[Granngården Ystad, Ystad]]></name></wpt>
  <wpt lat="58.406188" lon="13.866688"><name><![CDATA[Granngården Skövde, Skövde]]></name></wpt>
  <wpt lat="56.828688" lon="13.936687"><name><![CDATA[Granngården Ljungby, Ljungby]]></name></wpt>
  <wpt lat="57.173687" lon="14.062188"><name><![CDATA[Granngården Värnamo, Värnamo]]></name></wpt>
  <wpt lat="59.311688" lon="14.099813"><name><![CDATA[Granngården Kristinehamn, Kristinehamn]]></name></wpt>
  <wpt lat="56.023812" lon="14.115813"><name><![CDATA[Granngården Kristianstad, Kristianstad]]></name></wpt>
  <wpt lat="57.760312" lon="14.169688"><name><![CDATA[Granngården Jönköping, Jönköping]]></name></wpt>
  <wpt lat="58.311437" lon="14.288187"><name><![CDATA[Granngården Hjo, Hjo]]></name></wpt>
  <wpt lat="60.543937" lon="14.306062"><name><![CDATA[Granngården DalaJärna, DalaJärna]]></name></wpt>
  <wpt lat="62.998312" lon="14.340687"><name><![CDATA[Granngården Myrviken, Myrviken]]></name></wpt>
  <wpt lat="59.320187" lon="14.464437"><name><![CDATA[Granngården Karlskoga, Karlskoga]]></name></wpt>
  <wpt lat="61.007687" lon="14.597437"><name><![CDATA[Granngården Mora, Mora]]></name></wpt>
  <wpt lat="63.162063" lon="14.653937"><name><![CDATA[Granngården Östersund, Östersund]]></name></wpt>
  <wpt lat="57.398562" lon="14.663063"><name><![CDATA[Granngården Sävsjö, Sävsjö]]></name></wpt>
  <wpt lat="57.646812" lon="14.693812"><name><![CDATA[Granngården Nässjö, Nässjö]]></name></wpt>
  <wpt lat="56.877938" lon="14.766938"><name><![CDATA[Granngården Växjö, Växjö]]></name></wpt>
  <wpt lat="56.178062" lon="14.848937"><name><![CDATA[Granngården Karlshamn, Karlshamn]]></name></wpt>
  <wpt lat="59.170187" lon="14.881187"><name><![CDATA[Granngården Fjugesta, Fjugesta]]></name></wpt>
  <wpt lat="58.898562" lon="14.896688"><name><![CDATA[Granngården Askersund, Askersund]]></name></wpt>
  <wpt lat="58.038187" lon="14.967937"><name><![CDATA[Granngården Tranås, Tranås]]></name></wpt>
  <wpt lat="57.661812" lon="14.995563"><name><![CDATA[Granngården Eksjö, Eksjö]]></name></wpt>
  <wpt lat="60.745438" lon="15.003312"><name><![CDATA[Granngården Leksand, Leksand]]></name></wpt>
  <wpt lat="58.556313" lon="15.061187"><name><![CDATA[Granngården Motala, Motala]]></name></wpt>
  <wpt lat="57.443687" lon="15.065938"><name><![CDATA[Granngården Vetlanda, Vetlanda]]></name></wpt>
  <wpt lat="59.212688" lon="15.138438"><name><![CDATA[Granngården Örebro, Örebro]]></name></wpt>
  <wpt lat="59.598687" lon="15.197188"><name><![CDATA[Granngården Lindesberg, Lindesberg]]></name></wpt>
  <wpt lat="60.136312" lon="15.398687"><name><![CDATA[Granngården Smedjebacken, Smedjebacken]]></name></wpt>
  <wpt lat="60.477812" lon="15.407063"><name><![CDATA[Granngården Borlänge, Borlänge]]></name></wpt>
  <wpt lat="56.215812" lon="15.637438"><name><![CDATA[Granngården Karlskrona, Karlskrona]]></name></wpt>
  <wpt lat="60.605812" lon="15.663438"><name><![CDATA[Granngården Falun, Falun]]></name></wpt>
  <wpt lat="61.373062" lon="15.823812"><name><![CDATA[Granngården Edsbyn, Edsbyn]]></name></wpt>
  <wpt lat="57.669313" lon="15.844812"><name><![CDATA[Granngården Vimmerby, Vimmerby]]></name></wpt>
  <wpt lat="59.394937" lon="15.850563"><name><![CDATA[Granngården Arboga, Arboga]]></name></wpt>
  <wpt lat="60.286938" lon="15.990312"><name><![CDATA[Granngården Hedemora, Hedemora]]></name></wpt>
  <wpt lat="61.825938" lon="16.091062"><name><![CDATA[Granngården Ljusdal, Ljusdal]]></name></wpt>
  <wpt lat="58.616062" lon="16.174813"><name><![CDATA[Granngården Norrköping, Norrköping]]></name></wpt>
  <wpt lat="60.124063" lon="16.217562"><name><![CDATA[Granngården Krylbo, Krylbo]]></name></wpt>
  <wpt lat="56.690938" lon="16.319688"><name><![CDATA[Granngården Kalmar, Kalmar]]></name></wpt>
  <wpt lat="63.098062" lon="16.356437"><name><![CDATA[Granngården Hammarstrand, Hammarstrand]]></name></wpt>
  <wpt lat="61.337063" lon="16.398812"><name><![CDATA[Granngården Bollnäs, Bollnäs]]></name></wpt>
  <wpt lat="57.254937" lon="16.460813"><name><![CDATA[Granngården Oskarshamn, Oskarshamn]]></name></wpt>
  <wpt lat="59.396812" lon="16.470937"><name><![CDATA[Granngården Eskilstuna, Eskilstuna]]></name></wpt>
  <wpt lat="60.604563" lon="16.586937"><name><![CDATA[Granngården Kungsgården, Kungsgården]]></name></wpt>
  <wpt lat="57.759687" lon="16.610687"><name><![CDATA[Granngården Västervik, Västervik]]></name></wpt>
  <wpt lat="59.934188" lon="16.620188"><name><![CDATA[Granngården Sala, Sala]]></name></wpt>
  <wpt lat="59.608187" lon="16.623562"><name><![CDATA[Granngården Västerås, Västerås]]></name></wpt>
  <wpt lat="64.622687" lon="16.655062"><name><![CDATA[Granngården Vilhelmina, Vilhelmina]]></name></wpt>
  <wpt lat="58.747687" lon="16.973813"><name><![CDATA[Granngården Nyköping, Nyköping]]></name></wpt>
  <wpt lat="61.302688" lon="17.034438"><name><![CDATA[Granngården Söderhamn, Söderhamn]]></name></wpt>
  <wpt lat="59.650437" lon="17.091062"><name><![CDATA[Granngården Enköping, Enköping]]></name></wpt>
  <wpt lat="61.745937" lon="17.112687"><name><![CDATA[Granngården Hudiksvall, Hudiksvall]]></name></wpt>
  <wpt lat="60.662312" lon="17.177188"><name><![CDATA[Granngården Gävle, Gävle]]></name></wpt>
  <wpt lat="59.049563" lon="17.303187"><name><![CDATA[Granngården Gnesta, Gnesta]]></name></wpt>
  <wpt lat="63.157937" lon="17.320188"><name><![CDATA[Granngården Sollefteå, Sollefteå]]></name></wpt>
  <wpt lat="62.441562" lon="17.327937"><name><![CDATA[Granngården Sundsvall, Sundsvall]]></name></wpt>
  <wpt lat="60.342062" lon="17.524563"><name><![CDATA[Granngården Tierp, Tierp]]></name></wpt>
  <wpt lat="59.164313" lon="17.642562"><name><![CDATA[Granngården Södertälje, Södertälje]]></name></wpt>
  <wpt lat="59.847062" lon="17.682812"><name><![CDATA[Granngården Uppsala, Uppsala]]></name></wpt>
  <wpt lat="58.994187" lon="17.797812"><name><![CDATA[Granngården Sorunda, Sorunda]]></name></wpt>
  <wpt lat="60.076313" lon="18.090313"><name><![CDATA[Granngården Alunda, Alunda]]></name></wpt>
  <wpt lat="59.462937" lon="18.130938"><name><![CDATA[Granngården Arninge, Arninge]]></name></wpt>
  <wpt lat="59.175937" lon="18.144188"><name><![CDATA[Granngården Haninge, Haninge]]></name></wpt>
  <wpt lat="57.627562" lon="18.277563"><name><![CDATA[Granngården Visby, Visby]]></name></wpt>
  <wpt lat="60.260813" lon="18.361688"><name><![CDATA[Granngården Östhammar, Östhammar]]></name></wpt>
  <wpt lat="59.742062" lon="18.373688"><name><![CDATA[Granngården Rimbo, Rimbo]]></name></wpt>
  <wpt lat="57.236937" lon="18.382062"><name><![CDATA[Granngården Hemse, Hemse]]></name></wpt>
  <wpt lat="59.312438" lon="18.422187"><name><![CDATA[Granngården Värmdö, Värmdö]]></name></wpt>
  <wpt lat="59.767562" lon="18.689437"><name><![CDATA[Granngården Norrtälje, Norrtälje]]></name></wpt>
  <wpt lat="64.585062" lon="18.698437"><name><![CDATA[Granngården Lycksele, Lycksele]]></name></wpt>
  <wpt lat="63.308312" lon="18.750563"><name><![CDATA[Granngården Örnsköldsvik, Örnsköldsvik]]></name></wpt>
  <wpt lat="63.836188" lon="20.244813"><name><![CDATA[Granngården Umeå, Umeå]]></name></wpt>
  <wpt lat="64.757813" lon="20.921687"><name><![CDATA[Granngården Skellefteå, Skellefteå]]></name></wpt>
  <wpt lat="65.318313" lon="21.445313"><name><![CDATA[Granngården Piteå, Piteå]]></name></wpt>
  <wpt lat="65.819688" lon="21.707937"><name><![CDATA[Granngården Boden, Boden]]></name></wpt>
  <wpt lat="65.618188" lon="22.051313"><name><![CDATA[Granngården Luleå, Luleå]]></name></wpt>
  <wpt lat="65.863062" lon="23.140437"><name><![CDATA[Granngården Kalix, Kalix]]></name></wpt>
</gpx>