<?xml version="1.0" encoding="UTF-8"?>
<!-- Source: https://github.com/cisene/se-poi -->
<gpx creator="se-poi" xmlns="http://www.topografix.com/GPX/1/1" xmlns:xsi="http://www.w3.org/2001/XMLSchema-instance" xsi:schemaLocation="http://www.topografix.com/GPX/1/1 http://www.topografix.com/GPX/1/1/gpx.xsd" version="1.1">
  <metadata>
    <name><![CDATA[GULF Sverige]]></name>
    <desc><![CDATA[Koordinater - GULF Sverige]]></desc>
    <link href="https://gulfsverige.com/">
      <text><![CDATA[GULF Sverige]]></text>
       <type>text/html</type>
    </link>
   <time>2023-07-15T16:21:17+02:00</time>
  </metadata>
  <bounds minlat="55.640499" minlon="11.254253" maxlat="68.436989" maxlon="22.499687" />
  <wpt lat="58.697979" lon="11.254253"><name><![CDATA[GULF Grebbestad, Grebbestad]]></name></wpt>
  <wpt lat="58.438168" lon="11.302388"><name><![CDATA[GULF Hunnebostrand, Hunnebostrand]]></name></wpt>
  <wpt lat="58.576988" lon="11.547877"><name><![CDATA[GULF Hällevadsholm, Hällevadsholm]]></name></wpt>
  <wpt lat="57.887745" lon="11.601582"><name><![CDATA[GULF Marstrand, Marstrand]]></name></wpt>
  <wpt lat="57.734074" lon="11.671878"><name><![CDATA[GULF Bohus Björkö, Bohus Björkö]]></name></wpt>
  <wpt lat="57.843578" lon="11.791167"><name><![CDATA[GULF Kärna, Kärna]]></name></wpt>
  <wpt lat="59.50795" lon="11.84363"><name><![CDATA[GULF Töcksfors, Töcksfors]]></name></wpt>
  <wpt lat="57.921879" lon="12.066734"><name><![CDATA[GULF Nol, Nol]]></name></wpt>
  <wpt lat="57.840775" lon="12.286098"><name><![CDATA[GULF Gråbo, Gråbo]]></name></wpt>
  <wpt lat="57.671715" lon="12.558546"><name><![CDATA[GULF Bollebygd, Bollebygd]]></name></wpt>
  <wpt lat="57.493557" lon="12.657356"><name><![CDATA[GULF Skene, Skene]]></name></wpt>
  <wpt lat="58.338474" lon="12.685712"><name><![CDATA[GULF Grästorp, Grästorp]]></name></wpt>
  <wpt lat="61.858204" lon="12.72345"><name><![CDATA[GULF Idre, Idre]]></name></wpt>
  <wpt lat="58.123341" lon="12.777771"><name><![CDATA[GULF Nossebro, Nossebro]]></name></wpt>
  <wpt lat="55.972454" lon="12.779068"><name><![CDATA[GULF Rydebäck, Rydebäck]]></name></wpt>
  <wpt lat="56.426315" lon="12.937493"><name><![CDATA[GULF Båstad, Båstad]]></name></wpt>
  <wpt lat="59.138874" lon="12.942864"><name><![CDATA[GULF Säffle, Säffle]]></name></wpt>
  <wpt lat="57.697964" lon="13.022889"><name><![CDATA[GULF Gånghester, Gånghester]]></name></wpt>
  <wpt lat="55.820332" lon="13.024542"><name><![CDATA[GULF Dösjebro, Dösjebro]]></name></wpt>
  <wpt lat="55.640499" lon="13.194416"><name><![CDATA[GULF Staffanstorp, Staffanstorp]]></name></wpt>
  <wpt lat="59.433907" lon="13.442432"><name><![CDATA[GULF Karlstad, Karlstad]]></name></wpt>
  <wpt lat="57.92963" lon="13.49376"><name><![CDATA[GULF Blidsberg, Blidsberg]]></name></wpt>
  <wpt lat="58.530197" lon="13.76001"><name><![CDATA[GULF Timmersdala, Timmersdala]]></name></wpt>
  <wpt lat="56.057587" lon="14.023067"><name><![CDATA[GULF Önnestad, Önnestad]]></name></wpt>
  <wpt lat="60.452965" lon="14.500428"><name><![CDATA[GULF Nås, Nås]]></name></wpt>
  <wpt lat="56.276966" lon="14.537673"><name><![CDATA[GULF Olofström, Olofström]]></name></wpt>
  <wpt lat="57.396198" lon="14.678073"><name><![CDATA[GULF Sävsjö, Sävsjö]]></name></wpt>
  <wpt lat="56.252422" lon="14.782058"><name><![CDATA[GULF Svängsta, Svängsta]]></name></wpt>
  <wpt lat="63.074661" lon="14.837636"><name><![CDATA[GULF Brunflo, Brunflo]]></name></wpt>
  <wpt lat="57.672928" lon="14.967457"><name><![CDATA[GULF Eksjö, Eksjö]]></name></wpt>
  <wpt lat="58.350986" lon="15.284192"><name><![CDATA[GULF Mantorp, Mantorp]]></name></wpt>
  <wpt lat="57.321056" lon="15.581552"><name><![CDATA[GULF Virserum, Virserum]]></name></wpt>
  <wpt lat="58.427197" lon="15.59199"><name><![CDATA[GULF Linköping, Linköping]]></name></wpt>
  <wpt lat="62.523903" lon="15.669036"><name><![CDATA[GULF Ånge, Ånge]]></name></wpt>
  <wpt lat="60.808365" lon="15.757288"><name><![CDATA[GULF Enviken, Enviken]]></name></wpt>
  <wpt lat="56.737438" lon="15.930592"><name><![CDATA[GULF Nybro, Nybro]]></name></wpt>
  <wpt lat="58.649235" lon="16.172014"><name><![CDATA[GULF Norrköping, Norrköping]]></name></wpt>
  <wpt lat="62.500439" lon="16.178286"><name><![CDATA[GULF Fränsta, Fränsta]]></name></wpt>
  <wpt lat="60.511562" lon="16.475761"><name><![CDATA[GULF Torsåker, Torsåker]]></name></wpt>
  <wpt lat="59.604923" lon="16.562107"><name><![CDATA[GULF Västerås, Västerås]]></name></wpt>
  <wpt lat="60.527561" lon="16.746832"><name><![CDATA[GULF Årsunda, Årsunda]]></name></wpt>
  <wpt lat="59.936459" lon="16.938263"><name><![CDATA[GULF Morgongåva, Morgongåva]]></name></wpt>
  <wpt lat="59.328274" lon="17.019943"><name><![CDATA[GULF Biskopskvarn, Strängnäs]]></name></wpt>
  <wpt lat="59.484264" lon="17.042322"><name><![CDATA[GULF Strängnäs, Strängnäs]]></name></wpt>
  <wpt lat="61.305058" lon="17.065369"><name><![CDATA[GULF Söderhamn, Söderhamn]]></name></wpt>
  <wpt lat="60.18689" lon="17.188353"><name><![CDATA[GULF Östervåla, Östervåla]]></name></wpt>
  <wpt lat="59.041161" lon="17.328007"><name><![CDATA[GULF Gnesta, Gnesta]]></name></wpt>
  <wpt lat="62.513477" lon="17.378376"><name><![CDATA[GULF Sörberge, Sörberge]]></name></wpt>
  <wpt lat="62.778839" lon="17.421511"><name><![CDATA[GULF Viksjö, Viksjö]]></name></wpt>
  <wpt lat="60.349735" lon="17.488338"><name><![CDATA[GULF Tierp, Tierp]]></name></wpt>
  <wpt lat="58.890808" lon="17.552822"><name><![CDATA[GULF Trosa, Trosa]]></name></wpt>
  <wpt lat="59.20607" lon="17.599125"><name><![CDATA[GULF Södertälje, Södertälje]]></name></wpt>
  <wpt lat="59.195465" lon="17.600159"><name><![CDATA[GULF Södertälje, Södertälje]]></name></wpt>
  <wpt lat="59.011795" lon="17.819355"><name><![CDATA[GULF Sorunda, Sorunda]]></name></wpt>
  <wpt lat="62.6259" lon="17.927458"><name><![CDATA[GULF Härnösand, Härnösand]]></name></wpt>
  <wpt lat="59.105686" lon="18.041452"><name><![CDATA[GULF Tungelsta, Tungelsta]]></name></wpt>
  <wpt lat="59.39061" lon="18.089302"><name><![CDATA[GULF Djursholm, Djursholm]]></name></wpt>
  <wpt lat="57.031925" lon="18.277386"><name><![CDATA[GULF Burgsvik, Burgsvik]]></name></wpt>
  <wpt lat="59.403622" lon="18.355316"><name><![CDATA[GULF Vaxholm, Vaxholm]]></name></wpt>
  <wpt lat="59.058159" lon="18.400555"><name><![CDATA[GULF Ornö, Ornö]]></name></wpt>
  <wpt lat="60.0387" lon="18.559072"><name><![CDATA[GULF Hallstavik, Hallstavik]]></name></wpt>
  <wpt lat="63.267872" lon="18.689358"><name><![CDATA[GULF Domsjö, Domsjö]]></name></wpt>
  <wpt lat="57.872059" lon="19.09343"><name><![CDATA[GULF Fårö, Fårö]]></name></wpt>
  <wpt lat="63.902382" lon="19.752466"><name><![CDATA[GULF Vännäs, Vännäs]]></name></wpt>
  <wpt lat="63.789062" lon="20.309214"><name><![CDATA[GULF Umeå, Umeå]]></name></wpt>
  <wpt lat="64.028381" lon="20.488834"><name><![CDATA[GULF Bullmark, Bullmark]]></name></wpt>
  <wpt lat="65.835152" lon="20.511503"><name><![CDATA[GULF Vidsel, Vidsel]]></name></wpt>
  <wpt lat="65.693398" lon="20.655096"><name><![CDATA[GULF Vistträsk, Vistträsk]]></name></wpt>
  <wpt lat="66.085129" lon="20.952484"><name><![CDATA[GULF Harads, Harads]]></name></wpt>
  <wpt lat="65.671898" lon="21.005404"><name><![CDATA[GULF Älvsbyn, Älvsbyn]]></name></wpt>
  <wpt lat="64.972801" lon="21.119169"><name><![CDATA[GULF Gräsmyr, Gräsmyr]]></name></wpt>
  <wpt lat="65.564499" lon="21.912683"><name><![CDATA[GULF Luleå, Luleå]]></name></wpt>
  <wpt lat="68.436989" lon="22.499687"><name><![CDATA[GULF Karesuando, Karesuando]]></name></wpt>
</gpx>