<?xml version="1.0" encoding="UTF-8"?>
<!-- Source: https://github.com/cisene/se-poi -->
<gpx creator="se-poi" xmlns="http://www.topografix.com/GPX/1/1" xmlns:xsi="http://www.w3.org/2001/XMLSchema-instance" xsi:schemaLocation="http://www.topografix.com/GPX/1/1 http://www.topografix.com/GPX/1/1/gpx.xsd" version="1.1">
  <metadata>
    <name><![CDATA[Hemköp]]></name>
    <desc><![CDATA[Koordinater - Hemköp]]></desc>
    <link href="None">
      <text><![CDATA[Hemköp]]></text>
       <type>text/html</type>
    </link>
   <time>2023-08-28T18:31:31+02:00</time>
  </metadata>
  <bounds minlat="55.432118" minlon="11.472475" maxlat="63.289165" maxlon="18.715445" />
  <wpt lat="58.608056" lon="11.472475"><name><![CDATA[Hemköp Munkedal, Munkedal]]></name></wpt>
  <wpt lat="58.178201" lon="11.475898"><name><![CDATA[Hemköp Ellös, Ellös]]></name></wpt>
  <wpt lat="57.682983" lon="11.645816"><name><![CDATA[Hemköp Hönö, Hönö]]></name></wpt>
  <wpt lat="57.723958" lon="11.76763"><name><![CDATA[Hemköp Göteborg, Torslanda, Göteborg]]></name></wpt>
  <wpt lat="58.142457" lon="11.821533"><name><![CDATA[Hemköp Svanesund, Svanesund]]></name></wpt>
  <wpt lat="57.664686" lon="11.874277"><name><![CDATA[Hemköp Göteborg, Påvelund, Göteborg]]></name></wpt>
  <wpt lat="57.671396" lon="11.879939"><name><![CDATA[Hemköp Göteborg, Långedrag, Göteborg]]></name></wpt>
  <wpt lat="57.650909" lon="11.909324"><name><![CDATA[Hemköp Frölunda Torg, Frölunda]]></name></wpt>
  <wpt lat="57.673159" lon="11.912735"><name><![CDATA[Hemköp Göteborg, Högsbo, Göteborg]]></name></wpt>
  <wpt lat="57.692966" lon="11.918365"><name><![CDATA[Hemköp Göteborg, Majorna, Göteborg]]></name></wpt>
  <wpt lat="57.698755" lon="11.934843"><name><![CDATA[Hemköp Göteborg, Stigbergstorget, Göteborg]]></name></wpt>
  <wpt lat="57.698461" lon="11.9431"><name><![CDATA[Hemköp Göteborg, Masthuggstorget, Göteborg]]></name></wpt>
  <wpt lat="57.546096" lon="11.946114"><name><![CDATA[Hemköp Kullavik, Kullavik]]></name></wpt>
  <wpt lat="57.692795" lon="11.950884"><name><![CDATA[Hemköp Göteborg, Nordenskiöldsgatan, Göteborg]]></name></wpt>
  <wpt lat="57.695531" lon="11.952131"><name><![CDATA[Hemköp Göteborg, Linnégatan, Göteborg]]></name></wpt>
  <wpt lat="57.693278" lon="11.959122"><name><![CDATA[Hemköp Göteborg, Annedal, Göteborg]]></name></wpt>
  <wpt lat="57.560953" lon="11.960996"><name><![CDATA[Hemköp Billdal, Billdal]]></name></wpt>
  <wpt lat="57.701567" lon="11.961182"><name><![CDATA[Hemköp Göteborg, Hvitfeldtsplatsen, Göteborg]]></name></wpt>
  <wpt lat="57.520461" lon="11.966286"><name><![CDATA[Hemköp Särö, Särö]]></name></wpt>
  <wpt lat="57.708731" lon="11.967278"><name><![CDATA[Hemköp Göteborg, Nordstan, Göteborg]]></name></wpt>
  <wpt lat="57.698596" lon="11.968144"><name><![CDATA[Hemköp Göteborg, Vasagatan, Göteborg]]></name></wpt>
  <wpt lat="57.683763" lon="11.97183"><name><![CDATA[Hemköp Göteborg, Guldheden, Göteborg]]></name></wpt>
  <wpt lat="57.749929" lon="11.982529"><name><![CDATA[Hemköp Göteborg, Selma Lagerlöfs Torg, Göteborg]]></name></wpt>
  <wpt lat="57.696994" lon="11.9865"><name><![CDATA[Hemköp Hedemora, Hedemora]]></name></wpt>
  <wpt lat="57.661845" lon="11.991533"><name><![CDATA[Hemköp Mölndal, Bifrost, Mölndal]]></name></wpt>
  <wpt lat="57.666793" lon="12.011051"><name><![CDATA[Hemköp Partille, Sävedalen, Partille]]></name></wpt>
  <wpt lat="57.655063" lon="12.012318"><name><![CDATA[Hemköp Mölndal City, Mölndal]]></name></wpt>
  <wpt lat="57.413442" lon="12.019156"><name><![CDATA[Hemköp Onsala, Onsala]]></name></wpt>
  <wpt lat="57.752373" lon="12.031739"><name><![CDATA[Hemköp Göteborg, Kortedala, Göteborg]]></name></wpt>
  <wpt lat="57.486564" lon="12.076657"><name><![CDATA[Hemköp Kungsbacka, Kungsbacka]]></name></wpt>
  <wpt lat="57.484709" lon="12.087582"><name><![CDATA[Hemköp Kungsbacka, Hålabäck, Kungsbacka]]></name></wpt>
  <wpt lat="57.658068" lon="12.114032"><name><![CDATA[Hemköp Mölnlycke, Mölnlycke]]></name></wpt>
  <wpt lat="58.287053" lon="12.29385"><name><![CDATA[Hemköp Trollhättan, Kungsgatan, Trollhättan]]></name></wpt>
  <wpt lat="58.275787" lon="12.294644"><name><![CDATA[Hemköp Trollhättan, Hjortmossen, Trollhättan]]></name></wpt>
  <wpt lat="58.379382" lon="12.323403"><name><![CDATA[Hemköp Vänersborg, Sundsgatan, Vänersborg]]></name></wpt>
  <wpt lat="57.266683" lon="12.333777"><name><![CDATA[Hemköp Veddige, Veddige]]></name></wpt>
  <wpt lat="58.363727" lon="12.335414"><name><![CDATA[Hemköp Vänersborg, Torpa, Vänersborg]]></name></wpt>
  <wpt lat="58.6993" lon="12.453129"><name><![CDATA[Hemköp Mellerud, Torget, Mellerud]]></name></wpt>
  <wpt lat="58.697669" lon="12.464208"><name><![CDATA[Hemköp Mellerud, Kvarnkullen, Mellerud]]></name></wpt>
  <wpt lat="57.926175" lon="12.525598"><name><![CDATA[Hemköp Alingsås, Alingsås]]></name></wpt>
  <wpt lat="57.667851" lon="12.570183"><name><![CDATA[Hemköp Bollebygd, Borås]]></name></wpt>
  <wpt lat="56.091142" lon="12.654806"><name><![CDATA[Hemköp Helsingborg, Laröd, Helsingborg]]></name></wpt>
  <wpt lat="56.732341" lon="12.666972"><name><![CDATA[Hemköp Haverdal, Haverdal]]></name></wpt>
  <wpt lat="58.333454" lon="12.676439"><name><![CDATA[Hemköp Grästorp, Grästorp]]></name></wpt>
  <wpt lat="57.506744" lon="12.696122"><name><![CDATA[Hemköp Kinna, Kinna]]></name></wpt>
  <wpt lat="56.057177" lon="12.701202"><name><![CDATA[Hemköp Helsingborg, Helsingborg]]></name></wpt>
  <wpt lat="58.187752" lon="12.721548"><name><![CDATA[Hemköp Nossebro, Nossebro]]></name></wpt>
  <wpt lat="55.96629" lon="12.775027"><name><![CDATA[Hemköp Helsingborg, Rydebäck, Helsingborg]]></name></wpt>
  <wpt lat="58.032168" lon="12.804854"><name><![CDATA[Hemköp Vårgårda, Vårgårda]]></name></wpt>
  <wpt lat="56.67445" lon="12.856584"><name><![CDATA[Hemköp Halmstad, Brogatan, Halmstad]]></name></wpt>
  <wpt lat="56.805719" lon="12.960037"><name><![CDATA[Hemköp Oskarström, Oskarström]]></name></wpt>
  <wpt lat="55.59885" lon="12.98486"><name><![CDATA[Hemköp Malmö, Kronprinsen, Malmö]]></name></wpt>
  <wpt lat="61.179732" lon="12.992001"><name><![CDATA[Hemköp Sälen, Tandåhallen, Tandådalen]]></name></wpt>
  <wpt lat="55.595346" lon="13.003514"><name><![CDATA[Hemköp Malmö, Triangeln, Malmö]]></name></wpt>
  <wpt lat="58.075913" lon="13.020894"><name><![CDATA[Hemköp Herrljunga, Herrljunga]]></name></wpt>
  <wpt lat="55.606135" lon="13.022955"><name><![CDATA[Hemköp Malmö, Värnhemstorget, Malmö]]></name></wpt>
  <wpt lat="55.673507" lon="13.070503"><name><![CDATA[Hemköp Lomma, Lomma]]></name></wpt>
  <wpt lat="58.503374" lon="13.153775"><name><![CDATA[Hemköp Lidköping, Lidköping]]></name></wpt>
  <wpt lat="55.694538" lon="13.191499"><name><![CDATA[Hemköp Lund, Karhögstorg, Lund]]></name></wpt>
  <wpt lat="56.073526" lon="13.234589"><name><![CDATA[Hemköp Ljungbyhed, Ljungbyhed]]></name></wpt>
  <wpt lat="55.664369" lon="13.349108"><name><![CDATA[Hemköp Dalby, Dalby]]></name></wpt>
  <wpt lat="59.3793" lon="13.497401"><name><![CDATA[Hemköp Karlstad, Karlstad]]></name></wpt>
  <wpt lat="56.160993" lon="13.60492"><name><![CDATA[Hemköp Tyringe, Tyringe]]></name></wpt>
  <wpt lat="57.275367" lon="13.627623"><name><![CDATA[Hemköp Anderstorp, Anderstorp]]></name></wpt>
  <wpt lat="60.684927" lon="13.711268"><name><![CDATA[Hemköp Malung, Malung]]></name></wpt>
  <wpt lat="55.432118" lon="13.81863"><name><![CDATA[Hemköp Ystad, Ystad]]></name></wpt>
  <wpt lat="58.426011" lon="13.871377"><name><![CDATA[Hemköp Skövde, Rydshallen, Skövde]]></name></wpt>
  <wpt lat="56.832354" lon="13.933017"><name><![CDATA[Hemköp Ljungby, Ljungby]]></name></wpt>
  <wpt lat="55.933999" lon="13.974173"><name><![CDATA[Hemköp Tollarp, Tollarp]]></name></wpt>
  <wpt lat="57.184647" lon="14.045769"><name><![CDATA[Hemköp Värnamo City, Värnamo]]></name></wpt>
  <wpt lat="57.428288" lon="14.095346"><name><![CDATA[Hemköp Skillingaryd, Skillingaryd]]></name></wpt>
  <wpt lat="57.782814" lon="14.163205"><name><![CDATA[Hemköp Jönköping, Jönköping]]></name></wpt>
  <wpt lat="60.547579" lon="14.372685"><name><![CDATA[Hemköp Dala-Järna, Dala-Järna]]></name></wpt>
  <wpt lat="57.355052" lon="14.476475"><name><![CDATA[Hemköp Vrigstad, Vrigstad]]></name></wpt>
  <wpt lat="63.171222" lon="14.656911"><name><![CDATA[Hemköp Östersund, Storsjön, Östersund]]></name></wpt>
  <wpt lat="56.879299" lon="14.834753"><name><![CDATA[Hemköp Växjö, Högstorp, Växjö]]></name></wpt>
  <wpt lat="58.037654" lon="14.975685"><name><![CDATA[Hemköp Tranås, Tranås]]></name></wpt>
  <wpt lat="60.733088" lon="14.99718"><name><![CDATA[Hemköp Leksand, Leksand]]></name></wpt>
  <wpt lat="60.675389" lon="15.089832"><name><![CDATA[Hemköp Insjön, Insjön]]></name></wpt>
  <wpt lat="58.31931" lon="15.11947"><name><![CDATA[Hemköp Mjölby Lundby, Mjölby]]></name></wpt>
  <wpt lat="60.882709" lon="15.120273"><name><![CDATA[Hemköp Rättvik, Rättvik]]></name></wpt>
  <wpt lat="60.151384" lon="15.185372"><name><![CDATA[Hemköp Ludvika, Karlavägen, Ludvika]]></name></wpt>
  <wpt lat="59.276426" lon="15.215206"><name><![CDATA[Hemköp Örebro, Lucullus, Örebro]]></name></wpt>
  <wpt lat="59.598846" lon="15.22171"><name><![CDATA[Hemköp Lindesberg, Lindesberg]]></name></wpt>
  <wpt lat="60.49375" lon="15.398722"><name><![CDATA[Hemköp Borlänge, Paradiset, Borlänge]]></name></wpt>
  <wpt lat="60.47114" lon="15.441177"><name><![CDATA[Hemköp Borlänge, Södra Backa, Borlänge]]></name></wpt>
  <wpt lat="58.509686" lon="15.499826"><name><![CDATA[Hemköp Ljungsbro, Ljungsbro]]></name></wpt>
  <wpt lat="58.408832" lon="15.562681"><name><![CDATA[Hemköp Linköping Ryd, Linköping]]></name></wpt>
  <wpt lat="56.162372" lon="15.588187"><name><![CDATA[Hemköp Karlskrona, Karlskrona]]></name></wpt>
  <wpt lat="59.434324" lon="15.593144"><name><![CDATA[Hemköp Fellingsbro, Fellingsbro]]></name></wpt>
  <wpt lat="58.41076" lon="15.620371"><name><![CDATA[Hemköp Linköping Lucullus, Linköping]]></name></wpt>
  <wpt lat="58.411349" lon="15.627729"><name><![CDATA[Hemköp Linköping, City, Linköping]]></name></wpt>
  <wpt lat="57.988624" lon="15.632989"><name><![CDATA[Hemköp Kisa, Kisa]]></name></wpt>
  <wpt lat="60.605173" lon="15.633528"><name><![CDATA[Hemköp Falun, City, Falun]]></name></wpt>
  <wpt lat="60.590075" lon="15.732848"><name><![CDATA[Hemköp Falun, Hosjö, Falun]]></name></wpt>
  <wpt lat="59.513584" lon="15.998056"><name><![CDATA[Hemköp Köping, Köping]]></name></wpt>
  <wpt lat="61.346086" lon="16.054292"><name><![CDATA[Hemköp Alfta, Alfta]]></name></wpt>
  <wpt lat="60.142627" lon="16.160226"><name><![CDATA[Hemköp Avesta, Avesta]]></name></wpt>
  <wpt lat="58.591505" lon="16.178348"><name><![CDATA[Hemköp Norrköping Kungsgatan, Norrköping]]></name></wpt>
  <wpt lat="58.583879" lon="16.179315"><name><![CDATA[Hemköp Norrköping Lasarettsgatan, Norrköping]]></name></wpt>
  <wpt lat="59.565375" lon="16.233033"><name><![CDATA[Hemköp Kolbäck, Kolbäck]]></name></wpt>
  <wpt lat="58.601666" lon="16.24524"><name><![CDATA[Hemköp Norrköping Lindö, Norrköping]]></name></wpt>
  <wpt lat="58.483045" lon="16.313751"><name><![CDATA[Hemköp Söderköping, Söderköping]]></name></wpt>
  <wpt lat="59.418378" lon="16.484914"><name><![CDATA[Hemköp Torshälla, Torshälla]]></name></wpt>
  <wpt lat="59.370615" lon="16.516809"><name><![CDATA[Hemköp Eskilstuna, City, Eskilstuna]]></name></wpt>
  <wpt lat="59.37502" lon="16.529879"><name><![CDATA[Hemköp Eskilstuna, Smeden, Eskilstuna]]></name></wpt>
  <wpt lat="59.608577" lon="16.539962"><name><![CDATA[Hemköp Västerås, Västerås]]></name></wpt>
  <wpt lat="61.800739" lon="16.553798"><name><![CDATA[Hemköp Delsbo, Delsbo]]></name></wpt>
  <wpt lat="58.216145" lon="16.578045"><name><![CDATA[Hemköp Valdemarsvik, Valdemarsvik]]></name></wpt>
  <wpt lat="59.62656" lon="16.582017"><name><![CDATA[Hemköp Västerås Malmaberg, Västerås]]></name></wpt>
  <wpt lat="57.757717" lon="16.634787"><name><![CDATA[Hemköp Västervik, Västervik]]></name></wpt>
  <wpt lat="56.875893" lon="16.664675"><name><![CDATA[Hemköp Borgholm, Borgholm]]></name></wpt>
  <wpt lat="61.729233" lon="17.103335"><name><![CDATA[Hemköp Hudiksvall, Hudiksvall]]></name></wpt>
  <wpt lat="62.401634" lon="17.265411"><name><![CDATA[Hemköp Sundsvall, Granlo, Sundsvall]]></name></wpt>
  <wpt lat="62.391985" lon="17.306949"><name><![CDATA[Hemköp Sundsvall, City, Sundsvall]]></name></wpt>
  <wpt lat="59.039943" lon="17.32651"><name><![CDATA[Hemköp Gnesta, Gnesta]]></name></wpt>
  <wpt lat="58.945841" lon="17.485391"><name><![CDATA[Hemköp Vagnhärad, Vagnhärad]]></name></wpt>
  <wpt lat="59.576884" lon="17.5121"><name><![CDATA[Hemköp Bålsta, Bålsta]]></name></wpt>
  <wpt lat="60.344217" lon="17.513327"><name><![CDATA[Hemköp Tierp, Tierp]]></name></wpt>
  <wpt lat="60.029363" lon="17.55201"><name><![CDATA[Hemköp Björklinge, Björklinge]]></name></wpt>
  <wpt lat="59.840786" lon="17.602507"><name><![CDATA[Hemköp Uppsala, Västertorg, Uppsala]]></name></wpt>
  <wpt lat="59.210798" lon="17.631276"><name><![CDATA[Hemköp Södertälje, Ellbe Livs, Södertälje]]></name></wpt>
  <wpt lat="59.857999" lon="17.64255"><name><![CDATA[Hemköp Uppsala, Svava, Uppsala]]></name></wpt>
  <wpt lat="62.931023" lon="17.778883"><name><![CDATA[Hemköp Kramfors, Kramfors]]></name></wpt>
  <wpt lat="59.469326" lon="17.811915"><name><![CDATA[Hemköp Stäket, Stäket]]></name></wpt>
  <wpt lat="59.360357" lon="17.832622"><name><![CDATA[Hemköp Stockholm, Hässelby Strand, Hässelby]]></name></wpt>
  <wpt lat="59.1918" lon="17.83617"><name><![CDATA[Hemköp Tumba, Storvreten, Tumba]]></name></wpt>
  <wpt lat="59.423601" lon="17.836656"><name><![CDATA[Hemköp Stockholm, Jakobsbergs Centrum, Jakobsberg]]></name></wpt>
  <wpt lat="59.361795" lon="17.873013"><name><![CDATA[Hemköp Stockholm, Vällingby, Vällingby]]></name></wpt>
  <wpt lat="59.347775" lon="17.884884"><name><![CDATA[Hemköp Stockholm, Blackeberg C, Blackeberg]]></name></wpt>
  <wpt lat="59.516426" lon="17.889377"><name><![CDATA[Hemköp Stockholm, Upplands Väsby, Upplands Väsby]]></name></wpt>
  <wpt lat="59.207049" lon="17.905695"><name><![CDATA[Hemköp Tullinge, Tullinge]]></name></wpt>
  <wpt lat="59.347145" lon="17.908458"><name><![CDATA[Hemköp Stockholm, Ängby Torg, Stockholm]]></name></wpt>
  <wpt lat="59.476795" lon="17.911926"><name><![CDATA[Hemköp Sollentuna, Rotehallen, Sollentuna]]></name></wpt>
  <wpt lat="59.295476" lon="17.934966"><name><![CDATA[Hemköp Stockholm, Bredäng, Bredäng]]></name></wpt>
  <wpt lat="62.631603" lon="17.939378"><name><![CDATA[Hemköp Härnösand, Härnösand]]></name></wpt>
  <wpt lat="59.376252" lon="17.940392"><name><![CDATA[Hemköp Sundbyberg, Rissne, Sundbyberg]]></name></wpt>
  <wpt lat="59.285669" lon="17.964221"><name><![CDATA[Hemköp Stockholm, Fruängen C, Fruängen]]></name></wpt>
  <wpt lat="59.293134" lon="17.967721"><name><![CDATA[Hemköp Stockholm, Gesters, Stockholm]]></name></wpt>
  <wpt lat="59.253684" lon="17.970924"><name><![CDATA[Hemköp Huddinge, Matbörsen, Huddinge]]></name></wpt>
  <wpt lat="59.361231" lon="17.973368"><name><![CDATA[Hemköp Sundbyberg, Sturegatan, Sundbyberg]]></name></wpt>
  <wpt lat="59.236335" lon="17.98105"><name><![CDATA[Hemköp Stockholm, Huddinge Centrum, Huddinge]]></name></wpt>
  <wpt lat="59.349695" lon="17.98702"><name><![CDATA[Hemköp Solna, Huvudsta C, Solna]]></name></wpt>
  <wpt lat="59.298971" lon="17.997019"><name><![CDATA[Hemköp Stockholm, Telefonplan, Stockholm]]></name></wpt>
  <wpt lat="59.353827" lon="17.997611"><name><![CDATA[Hemköp Solna, Rapidköp, Solna]]></name></wpt>
  <wpt lat="59.430526" lon="17.999167"><name><![CDATA[Hemköp Sollentuna, Sjöbergshallen, Sollentuna]]></name></wpt>
  <wpt lat="59.380831" lon="17.99924"><name><![CDATA[Hemköp Solna, Ulriksdal, Ulriksdal]]></name></wpt>
  <wpt lat="59.359522" lon="18.000854"><name><![CDATA[Hemköp Solna Centrum, Solna]]></name></wpt>
  <wpt lat="59.278624" lon="18.00229"><name><![CDATA[Hemköp Stockholm, Älvsjöhallen, Älvsjö]]></name></wpt>
  <wpt lat="59.280827" lon="18.01348"><name><![CDATA[Hemköp Stockholm, Götahallen, Stockholm]]></name></wpt>
  <wpt lat="59.371818" lon="18.016114"><name><![CDATA[Hemköp Solna, Frösunda Boulevard, Solna]]></name></wpt>
  <wpt lat="59.328079" lon="18.017817"><name><![CDATA[Hemköp Stockholm, Matpressen, Stockholm]]></name></wpt>
  <wpt lat="59.274316" lon="18.024922"><name><![CDATA[Hemköp Stockholm, Örby, Stockholm]]></name></wpt>
  <wpt lat="59.307291" lon="18.029581"><name><![CDATA[Hemköp Stockholm, Sjövikshallen, Stockholm]]></name></wpt>
  <wpt lat="59.316286" lon="18.034058"><name><![CDATA[Hemköp Stockholm, Hornstull, Stockholm]]></name></wpt>
  <wpt lat="59.397872" lon="18.036646"><name><![CDATA[Hemköp Stockholm, Mörby, Danderyd]]></name></wpt>
  <wpt lat="59.343056" lon="18.046018"><name><![CDATA[Hemköp Stockholm, Odenplan, Stockholm]]></name></wpt>
  <wpt lat="59.339985" lon="18.051555"><name><![CDATA[Hemköp Stockholm, Wasahallen, Stockholm]]></name></wpt>
  <wpt lat="59.318249" lon="18.057318"><name><![CDATA[Hemköp Stockholm, Mariahallen, Stockholm]]></name></wpt>
  <wpt lat="59.332788" lon="18.064488"><name><![CDATA[Hemköp Stockholm, City, Stockholm]]></name></wpt>
  <wpt lat="59.314645" lon="18.065493"><name><![CDATA[Hemköp Stockholm, Fatburen, Stockholm]]></name></wpt>
  <wpt lat="59.445094" lon="18.071526"><name><![CDATA[Hemköp Täby Centrum, Täby]]></name></wpt>
  <wpt lat="59.307179" lon="18.075518"><name><![CDATA[Hemköp Stockholm, Skanstull, Stockholm]]></name></wpt>
  <wpt lat="59.336347" lon="18.07846"><name><![CDATA[Hemköp Stockholm, Östermalmstorg, Stockholm]]></name></wpt>
  <wpt lat="59.298464" lon="18.07906"><name><![CDATA[Hemköp Stockholm, Gullmarsplan, Stockholm]]></name></wpt>
  <wpt lat="59.427388" lon="18.085191"><name><![CDATA[Hemköp Täby, Alléns Livs, Täby]]></name></wpt>
  <wpt lat="59.342967" lon="18.086326"><name><![CDATA[Hemköp Stockholm, Matglädjen, Stockholm]]></name></wpt>
  <wpt lat="59.337679" lon="18.091325"><name><![CDATA[Hemköp Stockholm, Fältöversten, Stockholm]]></name></wpt>
  <wpt lat="59.243004" lon="18.091325"><name><![CDATA[Hemköp Stockholm, Farsta, Farsta]]></name></wpt>
  <wpt lat="59.430189" lon="18.094869"><name><![CDATA[Hemköp Täby, Näsby Park, Täby]]></name></wpt>
  <wpt lat="59.123007" lon="18.107008"><name><![CDATA[Hemköp Västerhaninge C, Västerhaninge]]></name></wpt>
  <wpt lat="59.255463" lon="18.114186"><name><![CDATA[Hemköp Stockholm, Sköndal C, Sköndal]]></name></wpt>
  <wpt lat="59.263259" lon="18.122067"><name><![CDATA[Hemköp Stockholm, Skarpnäck, Enskede]]></name></wpt>
  <wpt lat="59.168735" lon="18.139651"><name><![CDATA[Hemköp Haninge C, Haninge]]></name></wpt>
  <wpt lat="59.199801" lon="18.191514"><name><![CDATA[Hemköp Haninge, Vendelsö, Haninge]]></name></wpt>
  <wpt lat="59.223287" lon="18.200365"><name><![CDATA[Hemköp Tyresö, Arno Livs, Tyresö]]></name></wpt>
  <wpt lat="59.348292" lon="18.205204"><name><![CDATA[Hemköp Lidingö, Brevik C, Lidingö]]></name></wpt>
  <wpt lat="59.31402" lon="18.26045"><name><![CDATA[Hemköp Lännersta, Lännersta]]></name></wpt>
  <wpt lat="59.472144" lon="18.331252"><name><![CDATA[Hemköp Åkersberga, Favoriten, Åkersberga]]></name></wpt>
  <wpt lat="60.260227" lon="18.36212"><name><![CDATA[Hemköp Östhammar, Östhammar]]></name></wpt>
  <wpt lat="59.311806" lon="18.421648"><name><![CDATA[Hemköp Värmdö, Värmdö]]></name></wpt>
  <wpt lat="63.267225" lon="18.691043"><name><![CDATA[Hemköp Domsjö, Domsjö]]></name></wpt>
  <wpt lat="63.289165" lon="18.715445"><name><![CDATA[Hemköp Örnsköldsvik, Stora torget, Örnsköldsvik]]></name></wpt>
</gpx>