<?xml version="1.0" encoding="UTF-8"?>
<!-- Source: https://github.com/cisene/se-poi -->
<gpx creator="se-poi" xmlns="http://www.topografix.com/GPX/1/1" xmlns:xsi="http://www.w3.org/2001/XMLSchema-instance" xsi:schemaLocation="http://www.topografix.com/GPX/1/1 http://www.topografix.com/GPX/1/1/gpx.xsd" version="1.1">
  <metadata>
    <name><![CDATA[Intersport]]></name>
    <desc><![CDATA[Koordinater - Intersport]]></desc>
    <link href="https://www.intersport.se/">
      <text><![CDATA[Intersport]]></text>
       <type>text/html</type>
    </link>
   <time>2023-08-28T18:31:32+02:00</time>
  </metadata>
  <bounds minlat="55.37432" minlon="11.186914" maxlat="67.85389" maxlon="23.13441" />
  <wpt lat="58.946334" lon="11.186914"><name><![CDATA[Intersport Strömstad City, Strömstad]]></name></wpt>
  <wpt lat="58.353317" lon="11.810349"><name><![CDATA[Intersport Uddevalla Torp, Uddevalla]]></name></wpt>
  <wpt lat="57.650826" lon="11.947863"><name><![CDATA[Intersport Göteborg Högsbo 421, Västra frölunda]]></name></wpt>
  <wpt lat="57.72157" lon="11.95145"><name><![CDATA[Intersport Göteborg Backaplan, Göteborg]]></name></wpt>
  <wpt lat="57.70742" lon="11.97024"><name><![CDATA[Intersport Göteborg Nordstan, Göteborg]]></name></wpt>
  <wpt lat="57.493369" lon="12.07256"><name><![CDATA[Intersport Kungsbacka Kungsmässan, Kungsbacka]]></name></wpt>
  <wpt lat="57.73751" lon="12.105"><name><![CDATA[Intersport Partille Allum, Partille]]></name></wpt>
  <wpt lat="57.12217" lon="12.25811"><name><![CDATA[Intersport Varberg Lassabacka, Varberg]]></name></wpt>
  <wpt lat="58.312668" lon="12.308958"><name><![CDATA[Intersport Trollhättan Överby, Trollhättan]]></name></wpt>
  <wpt lat="56.90429" lon="12.49065"><name><![CDATA[Intersport Falkenberg, Falkenberg]]></name></wpt>
  <wpt lat="57.93" lon="12.53629"><name><![CDATA[Intersport Alingsås, Alingsås]]></name></wpt>
  <wpt lat="59.65535" lon="12.59117"><name><![CDATA[Intersport Arvika, Arvika]]></name></wpt>
  <wpt lat="56.091591" lon="12.757631"><name><![CDATA[Intersport Helsingborg Väla, Ödåkra]]></name></wpt>
  <wpt lat="56.25356" lon="12.88979"><name><![CDATA[Intersport Ängelholm Brännborn, Ängelholm]]></name></wpt>
  <wpt lat="56.66105" lon="12.90802"><name><![CDATA[Intersport Halmstad Stenalyckan, Halmstad]]></name></wpt>
  <wpt lat="57.735226" lon="12.938204"><name><![CDATA[Intersport Borås Knallerian, Borås]]></name></wpt>
  <wpt lat="55.5636" lon="12.9712"><name><![CDATA[Intersport Malmö Emporia, Malmö]]></name></wpt>
  <wpt lat="55.58117" lon="13.00331"><name><![CDATA[Intersport Malmö Mobilia, Malmö]]></name></wpt>
  <wpt lat="63.39995" lon="13.07458"><name><![CDATA[Intersport Åre, Åre]]></name></wpt>
  <wpt lat="55.612887" lon="13.101754"><name><![CDATA[Intersport Malmö St Bernstorp, Arlöv]]></name></wpt>
  <wpt lat="59.83694" lon="13.14631"><name><![CDATA[Intersport Sunne, Sunne]]></name></wpt>
  <wpt lat="58.50267" lon="13.15529"><name><![CDATA[Intersport Lidköping City, Lidköping]]></name></wpt>
  <wpt lat="55.37432" lon="13.15788"><name><![CDATA[Intersport Trelleborg, Trelleborg]]></name></wpt>
  <wpt lat="61.135747" lon="13.280926"><name><![CDATA[Intersport Sälen, Transtrand]]></name></wpt>
  <wpt lat="55.83974" lon="13.30448"><name><![CDATA[Intersport Eslöv, Eslöv]]></name></wpt>
  <wpt lat="59.377436" lon="13.430099"><name><![CDATA[Intersport Karlstad Bergvik, Karlstad]]></name></wpt>
  <wpt lat="58.16171" lon="13.55225"><name><![CDATA[Intersport Falköping, Falköping]]></name></wpt>
  <wpt lat="56.15743" lon="13.76589"><name><![CDATA[Intersport Hässleholm City, Hässleholm]]></name></wpt>
  <wpt lat="58.710559" lon="13.824122"><name><![CDATA[Intersport Mariestad, Mariestad]]></name></wpt>
  <wpt lat="58.40622" lon="13.87255"><name><![CDATA[Intersport Skövde Stallsiken, Skövde]]></name></wpt>
  <wpt lat="56.81416" lon="13.90848"><name><![CDATA[Intersport Ljungby, Ljungby]]></name></wpt>
  <wpt lat="59.30922" lon="14.10716"><name><![CDATA[Intersport Kristinehamn, Kristinehamn]]></name></wpt>
  <wpt lat="56.024" lon="14.1176"><name><![CDATA[Intersport Kristianstad Härlöv, Kristianstad]]></name></wpt>
  <wpt lat="57.769019" lon="14.201331"><name><![CDATA[Intersport Jönköping A6, Jönköping]]></name></wpt>
  <wpt lat="59.326891" lon="14.535047"><name><![CDATA[Intersport Karlskoga, Karlskoga]]></name></wpt>
  <wpt lat="61.006033" lon="14.602032"><name><![CDATA[Intersport Mora, Mora]]></name></wpt>
  <wpt lat="63.17133" lon="14.69134"><name><![CDATA[Intersport Östersund, Östersund]]></name></wpt>
  <wpt lat="56.88513" lon="14.7627"><name><![CDATA[Intersport Växjö Grand Samarkand, Växjö]]></name></wpt>
  <wpt lat="56.1705" lon="14.86068"><name><![CDATA[Intersport Karlshamn, Karlshamn]]></name></wpt>
  <wpt lat="58.03479" lon="14.97592"><name><![CDATA[Intersport Tranås, Tranås]]></name></wpt>
  <wpt lat="57.66582" lon="14.97905"><name><![CDATA[Intersport Eksjö, Eksjö]]></name></wpt>
  <wpt lat="57.44288" lon="15.06677"><name><![CDATA[Intersport Vetlanda, Vetlanda]]></name></wpt>
  <wpt lat="58.32604" lon="15.1253"><name><![CDATA[Intersport Mjölby, Mjölby]]></name></wpt>
  <wpt lat="59.218178" lon="15.142529"><name><![CDATA[Intersport Örebro Marieberg, Örebro]]></name></wpt>
  <wpt lat="59.26969" lon="15.21265"><name><![CDATA[Intersport Örebro City, Örebro]]></name></wpt>
  <wpt lat="60.47941" lon="15.41966"><name><![CDATA[Intersport Borlänge Norra backa, Borlänge]]></name></wpt>
  <wpt lat="58.43331" lon="15.58631"><name><![CDATA[Intersport Linköping Ikano, Linköping]]></name></wpt>
  <wpt lat="58.40972" lon="15.6269"><name><![CDATA[Intersport Linköping Gränden, Linköping]]></name></wpt>
  <wpt lat="56.19698" lon="15.64169"><name><![CDATA[Intersport Karlskrona Amiralen, Lyckeby]]></name></wpt>
  <wpt lat="60.60732" lon="15.6567"><name><![CDATA[Intersport Falun I13, Falun]]></name></wpt>
  <wpt lat="57.66578" lon="15.85263"><name><![CDATA[Intersport Vimmerby, Vimmerby]]></name></wpt>
  <wpt lat="59.52282" lon="15.97416"><name><![CDATA[Intersport Köping Big Inn, Köping]]></name></wpt>
  <wpt lat="60.1459" lon="16.1682"><name><![CDATA[Intersport Avesta, Avesta]]></name></wpt>
  <wpt lat="59.00493" lon="16.22905"><name><![CDATA[Intersport Katrineholm, Katrineholm]]></name></wpt>
  <wpt lat="56.670053" lon="16.255261"><name><![CDATA[Intersport Kalmar Giraffen, Kalmar]]></name></wpt>
  <wpt lat="61.34875" lon="16.39288"><name><![CDATA[Intersport Bollnäs, Bollnäs]]></name></wpt>
  <wpt lat="57.26512" lon="16.44709"><name><![CDATA[Intersport Oskarshamn, Oskarshamn]]></name></wpt>
  <wpt lat="59.609564" lon="16.4537"><name><![CDATA[Intersport Västerås Erikslund, Västerås]]></name></wpt>
  <wpt lat="59.91953" lon="16.60505"><name><![CDATA[Intersport Sala, Sala]]></name></wpt>
  <wpt lat="57.75981" lon="16.63692"><name><![CDATA[Intersport Västervik, Västervik]]></name></wpt>
  <wpt lat="60.623071" lon="16.774535"><name><![CDATA[Intersport Sandviken, Sandviken]]></name></wpt>
  <wpt lat="58.772083" lon="17.017179"><name><![CDATA[Intersport Nyköping Påljungshage, Nyköping]]></name></wpt>
  <wpt lat="59.3365" lon="17.0199"><name><![CDATA[Intersport Strängnäs Solberga, Strängnäs]]></name></wpt>
  <wpt lat="60.64787" lon="17.02106"><name><![CDATA[Intersport Gävle Valbo, Valbo]]></name></wpt>
  <wpt lat="59.652198" lon="17.082646"><name><![CDATA[Intersport Enköping Romberga, Enköping]]></name></wpt>
  <wpt lat="61.72715" lon="17.10491"><name><![CDATA[Intersport Hudiksvall, Hudiksvall]]></name></wpt>
  <wpt lat="60.67517" lon="17.14139"><name><![CDATA[Intersport Gävle City, Gävle]]></name></wpt>
  <wpt lat="62.44416" lon="17.32677"><name><![CDATA[Intersport Sundsvall Birsta, Sundsvall]]></name></wpt>
  <wpt lat="59.20272" lon="17.66533"><name><![CDATA[Intersport Södertälje Moraberg, Södertälje]]></name></wpt>
  <wpt lat="59.84457" lon="17.69184"><name><![CDATA[Intersport Uppsala Boländerna, Uppsala]]></name></wpt>
  <wpt lat="62.93171" lon="17.7782"><name><![CDATA[Intersport Kramfors, Kramfors]]></name></wpt>
  <wpt lat="59.411701" lon="17.862997"><name><![CDATA[Intersport Stockholm Barkarby, Järfälla]]></name></wpt>
  <wpt lat="62.63576" lon="17.92664"><name><![CDATA[Intersport Härnösand, Härnösand]]></name></wpt>
  <wpt lat="59.23716" lon="17.98142"><name><![CDATA[Intersport Stockholm Huddinge, Huddinge]]></name></wpt>
  <wpt lat="59.30951" lon="18.02239"><name><![CDATA[Intersport Stockholm Liljeholmstorget, Stockholm]]></name></wpt>
  <wpt lat="59.332116" lon="18.063074"><name><![CDATA[Intersport Stockholm Sergelstorg, Stockholm]]></name></wpt>
  <wpt lat="59.311811" lon="18.0742"><name><![CDATA[Intersport Stockholm Skrapan, Stockholm]]></name></wpt>
  <wpt lat="59.24234" lon="18.09185"><name><![CDATA[Intersport Stockholm Farsta, Farsta]]></name></wpt>
  <wpt lat="59.366794" lon="18.133653"><name><![CDATA[Intersport Stockholm Lidingö, Lidingö]]></name></wpt>
  <wpt lat="59.179776" lon="18.151517"><name><![CDATA[Intersport Stockholm Haninge Port 73, Handen]]></name></wpt>
  <wpt lat="57.645636" lon="18.317964"><name><![CDATA[Intersport Visby Kvarnen, Visby]]></name></wpt>
  <wpt lat="59.310719" lon="18.422002"><name><![CDATA[Intersport Värmdö, Gustavsberg]]></name></wpt>
  <wpt lat="59.76694" lon="18.69466"><name><![CDATA[Intersport Norrtälje, Norrtälje]]></name></wpt>
  <wpt lat="63.28882" lon="18.71778"><name><![CDATA[Intersport Örnsköldsvik, Örnsköldsvik]]></name></wpt>
  <wpt lat="67.85389" lon="20.22799"><name><![CDATA[Intersport Kiruna City, Kiruna]]></name></wpt>
  <wpt lat="67.846948" lon="20.255055"><name><![CDATA[Intersport Kiruna, Kiruna]]></name></wpt>
  <wpt lat="63.84817" lon="20.29905"><name><![CDATA[Intersport Umeå Mariedal, Umeå]]></name></wpt>
  <wpt lat="67.13553" lon="20.66326"><name><![CDATA[Intersport Gällivare, Gällivare]]></name></wpt>
  <wpt lat="64.75021" lon="20.95324"><name><![CDATA[Intersport Skellefteå City, Skellefteå]]></name></wpt>
  <wpt lat="64.766" lon="21.0212"><name><![CDATA[Intersport Skellefteå Solbacken, Skellefteå]]></name></wpt>
  <wpt lat="65.324006" lon="21.442695"><name><![CDATA[Intersport Piteå Backcity, Piteå]]></name></wpt>
  <wpt lat="65.82505" lon="21.68674"><name><![CDATA[Intersport Boden, Boden]]></name></wpt>
  <wpt lat="65.61855" lon="22.04144"><name><![CDATA[Intersport Luleå Storheden, Luleå]]></name></wpt>
  <wpt lat="65.85544" lon="23.13441"><name><![CDATA[Intersport Kalix, Kalix]]></name></wpt>
</gpx>