<?xml version="1.0" encoding="UTF-8"?>
<!-- Source: https://github.com/cisene/se-poi -->
<gpx creator="se-poi" xmlns="http://www.topografix.com/GPX/1/1" xmlns:xsi="http://www.w3.org/2001/XMLSchema-instance" xsi:schemaLocation="http://www.topografix.com/GPX/1/1 http://www.topografix.com/GPX/1/1/gpx.xsd" version="1.1">
  <metadata>
    <name><![CDATA[Kahls The & Kaffehandel]]></name>
    <desc><![CDATA[Koordinater - Kahls The & Kaffehandel]]></desc>
    <link href="None">
      <text><![CDATA[Kahls The & Kaffehandel]]></text>
       <type>text/html</type>
    </link>
   <time>2023-08-28T18:09:19+02:00</time>
  </metadata>
  <bounds minlat="55.595502" minlon="11.812722" maxlat="63.81761" maxlon="20.298398" />
  <wpt lat="58.3541" lon="11.812722"><name><![CDATA[Kahls The & Kaffehandel, Uddevalla]]></name></wpt>
  <wpt lat="57.492958" lon="12.074339"><name><![CDATA[Kahls The & Kaffehandel, Kungsbacka]]></name></wpt>
  <wpt lat="57.73728" lon="12.106236"><name><![CDATA[Kahls The & Kaffehandel - Allum, Göteborg]]></name></wpt>
  <wpt lat="57.929987" lon="12.535216"><name><![CDATA[Kahls The & Kaffehandel - Storkenköpcentrum, Alingsås]]></name></wpt>
  <wpt lat="55.595502" lon="13.001791"><name><![CDATA[Kahls The & Kaffehandel - Triangeln, Malmö]]></name></wpt>
  <wpt lat="57.773308" lon="14.203566"><name><![CDATA[Kahls The & Kaffehandel - A6, Jönköping]]></name></wpt>
  <wpt lat="60.484466" lon="15.418436"><name><![CDATA[Kahls The & Kaffehandel - Kupolen, Borlänge]]></name></wpt>
  <wpt lat="58.434663" lon="15.585823"><name><![CDATA[Kahls The & Kaffehandel, Linköping]]></name></wpt>
  <wpt lat="58.58761" lon="16.189972"><name><![CDATA[Kahls The & Kaffehandel, Norrköping]]></name></wpt>
  <wpt lat="56.661017" lon="16.364929"><name><![CDATA[Kahls The & Kaffehandel - Baronen, Kalmar]]></name></wpt>
  <wpt lat="59.608845" lon="16.45479"><name><![CDATA[Kahls The & Kaffehandel - Erikslund Shopping Center, Västerås]]></name></wpt>
  <wpt lat="59.37091" lon="16.512146"><name><![CDATA[Kahls The & Kaffehandel - Tjugoettan, Eskilstuna]]></name></wpt>
  <wpt lat="60.675377" lon="17.142562"><name><![CDATA[Kahls The & Kaffehandel - Affärshuset Flanör, Gävle]]></name></wpt>
  <wpt lat="62.446815" lon="17.335245"><name><![CDATA[Kahls The & Kaffehandel - Birsta Köpstad, Sundsvall]]></name></wpt>
  <wpt lat="59.403002" lon="17.94568"><name><![CDATA[Kahls The & Kaffehandel - Kista Galleria, Kista]]></name></wpt>
  <wpt lat="59.427566" lon="17.951883"><name><![CDATA[Kahls The & Kaffehandel - Sollentuna Centrum, Sollentuna]]></name></wpt>
  <wpt lat="59.331006" lon="18.059483"><name><![CDATA[Kahls The & Kaffehandel - Centralstation, Stockholm]]></name></wpt>
  <wpt lat="59.333347" lon="18.062505"><name><![CDATA[Kahls The & Kaffehandel - Mäster Samuelsgatan, Stockholm]]></name></wpt>
  <wpt lat="59.44554" lon="18.072483"><name><![CDATA[Kahls The & Kaffehandel - Täby Centrum, Täby]]></name></wpt>
  <wpt lat="59.243071" lon="18.091483"><name><![CDATA[Kahls The & Kaffehandel - Farsta Centrum, Farsta]]></name></wpt>
  <wpt lat="63.805526" lon="20.255065"><name><![CDATA[Kahls The & Kaffehandel - Avion Köpcenter, Umeå]]></name></wpt>
  <wpt lat="63.81761" lon="20.298398"><name><![CDATA[Kahls The & Kaffehandel - Norrlands UNiveristetssjukhus, Umeå]]></name></wpt>
</gpx>