<?xml version="1.0" encoding="UTF-8"?>
<!-- Source: https://github.com/cisene/se-poi -->
<gpx creator="se-poi" xmlns="http://www.topografix.com/GPX/1/1" xmlns:xsi="http://www.w3.org/2001/XMLSchema-instance" xsi:schemaLocation="http://www.topografix.com/GPX/1/1 http://www.topografix.com/GPX/1/1/gpx.xsd" version="1.1">
  <metadata>
    <name><![CDATA[Kicks]]></name>
    <desc><![CDATA[Koordinater - Kicks]]></desc>
    <link href="https://www.kicks.se/">
      <text><![CDATA[Kicks]]></text>
       <type>text/html</type>
    </link>
   <time>2023-08-28T18:09:19+02:00</time>
  </metadata>
  <bounds minlat="55.37423" minlon="11.20923" maxlat="67.84938" maxlon="22.15359" />
  <wpt lat="59.0658" lon="11.20923"><name><![CDATA[Strömstad, Nordby Shoppingcent, Strömstad]]></name></wpt>
  <wpt lat="58.35347" lon="11.81176"><name><![CDATA[Uddevalla, Torp Köpcentrum, Uddevalla]]></name></wpt>
  <wpt lat="58.06871" lon="11.81798"><name><![CDATA[Stenungsund, Stenungstorg Köpc, Stenungsund]]></name></wpt>
  <wpt lat="59.50687" lon="11.84481"><name><![CDATA[Töcksfors, Töcksfors Shoppingc, Töcksfors]]></name></wpt>
  <wpt lat="57.65179" lon="11.91042"><name><![CDATA[Västra Frölunda, Frölunda Torg, Västra Frölunda]]></name></wpt>
  <wpt lat="58.34999" lon="11.93335"><name><![CDATA[Uddevalla, Gallionen, Uddevalla]]></name></wpt>
  <wpt lat="57.72152" lon="11.95162"><name><![CDATA[Göteborg, Backaplan, Göteborg]]></name></wpt>
  <wpt lat="57.70491" lon="11.9678"><name><![CDATA[Göteborg, Kungsgatan, Göteborg]]></name></wpt>
  <wpt lat="57.70847" lon="11.96949"><name><![CDATA[Göteborg, Femman, Göteborg]]></name></wpt>
  <wpt lat="57.86975" lon="11.97403"><name><![CDATA[Kungälv, Kongahälla Center, Kungälv]]></name></wpt>
  <wpt lat="57.69968" lon="11.9763"><name><![CDATA[Göteborg, City Aveny, Göteborg]]></name></wpt>
  <wpt lat="57.65558" lon="12.0158"><name><![CDATA[Mölndal Galleria, Mölndal]]></name></wpt>
  <wpt lat="57.79641" lon="12.05048"><name><![CDATA[Angered, Angered Centrum, Angered]]></name></wpt>
  <wpt lat="57.49231" lon="12.07466"><name><![CDATA[Kungsbacka, Kungsmässan, Kungsbacka]]></name></wpt>
  <wpt lat="57.73904" lon="12.10449"><name><![CDATA[Partille, Allum, Partille]]></name></wpt>
  <wpt lat="57.10628" lon="12.24911"><name><![CDATA[Varberg, Torggatan, Varberg]]></name></wpt>
  <wpt lat="59.88195" lon="12.28979"><name><![CDATA[Charlottenberg, Charlottenberg, Charlottenberg]]></name></wpt>
  <wpt lat="58.31255" lon="12.30658"><name><![CDATA[Trollhättan, Överby köpcentrum, Trollhättan]]></name></wpt>
  <wpt lat="56.90537" lon="12.49141"><name><![CDATA[Falkenberg, Gallerian, Falkenberg]]></name></wpt>
  <wpt lat="57.93005" lon="12.53522"><name><![CDATA[Alingsås, Storken, Alingsås]]></name></wpt>
  <wpt lat="59.65456" lon="12.59208"><name><![CDATA[Arvika, Storgatan, Arvika]]></name></wpt>
  <wpt lat="56.04772" lon="12.69361"><name><![CDATA[Helsingborg, Kullagatan, Helsingborg]]></name></wpt>
  <wpt lat="56.09364" lon="12.75916"><name><![CDATA[Ödåkra, Välahuset Entré 2, Ödåkra-Väla]]></name></wpt>
  <wpt lat="56.09411" lon="12.76049"><name><![CDATA[Ödåkra, Välahuset Entré 5, Ödåkra-väla]]></name></wpt>
  <wpt lat="55.87136" lon="12.83347"><name><![CDATA[Landskrona, Järnvägsgatan, Landskrona]]></name></wpt>
  <wpt lat="56.67479" lon="12.85722"><name><![CDATA[Halmstad, Brogatan, Halmstad]]></name></wpt>
  <wpt lat="56.24429" lon="12.86261"><name><![CDATA[Ängelholm, Storgatan, Ängelholm]]></name></wpt>
  <wpt lat="56.65729" lon="12.90825"><name><![CDATA[Halmstad, Hallarna, Halmstad]]></name></wpt>
  <wpt lat="57.72036" lon="12.93781"><name><![CDATA[Borås, Stora Brogatan, Borås]]></name></wpt>
  <wpt lat="57.7346" lon="12.93833"><name><![CDATA[Borås, Knallerian, Borås]]></name></wpt>
  <wpt lat="55.56498" lon="12.97286"><name><![CDATA[Malmö, Emporia, Malmö]]></name></wpt>
  <wpt lat="55.76955" lon="12.99052"><name><![CDATA[Löddeköpinge, Center Syd, Löddeköpinge]]></name></wpt>
  <wpt lat="55.59585" lon="13.00275"><name><![CDATA[Malmö, Triangeln, Malmö]]></name></wpt>
  <wpt lat="55.60292" lon="13.00382"><name><![CDATA[Malmö, Hansa, Malmö]]></name></wpt>
  <wpt lat="55.58059" lon="13.00412"><name><![CDATA[Malmö, Mobilia, Malmö]]></name></wpt>
  <wpt lat="63.39877" lon="13.077"><name><![CDATA[Åre, Stationshuset, Åre]]></name></wpt>
  <wpt lat="55.6397" lon="13.08391"><name><![CDATA[Arlöv, Burlöv Center, Arlöv]]></name></wpt>
  <wpt lat="58.50277" lon="13.15518"><name><![CDATA[Lidköping, Särnmarkshuset, Lidköping]]></name></wpt>
  <wpt lat="55.37423" lon="13.15956"><name><![CDATA[Trelleborg, Valens Galleria, Trelleborg]]></name></wpt>
  <wpt lat="55.71437" lon="13.15982"><name><![CDATA[Lund, Nova Lund, Lund]]></name></wpt>
  <wpt lat="55.70202" lon="13.19773"><name><![CDATA[Lund, Mårtenstorget, Lund]]></name></wpt>
  <wpt lat="59.37785" lon="13.42604"><name><![CDATA[Karlstad, Bergvik, Karlstad]]></name></wpt>
  <wpt lat="59.37858" lon="13.5019"><name><![CDATA[Karlstad, Galleria Duvan, Karlstad]]></name></wpt>
  <wpt lat="56.16312" lon="13.5963"><name><![CDATA[Hässleholm, Gallerian, Hässleholm]]></name></wpt>
  <wpt lat="58.39002" lon="13.84513"><name><![CDATA[Skövde, Commerce, Skövde]]></name></wpt>
  <wpt lat="58.40553" lon="13.85452"><name><![CDATA[Skövde, Elins Esplanad, Skövde]]></name></wpt>
  <wpt lat="56.83393" lon="13.94031"><name><![CDATA[Ljungby, Köpcenter Månen, Ljungby]]></name></wpt>
  <wpt lat="56.03009" lon="14.15884"><name><![CDATA[Kristianstad, Galleria Bouleva, Kristianstad]]></name></wpt>
  <wpt lat="57.78202" lon="14.17464"><name><![CDATA[Jönköping, Smedjegatan, Jönköping]]></name></wpt>
  <wpt lat="56.02306" lon="14.19716"><name><![CDATA[Kristianstad, C4 Shopping, Kristianstad]]></name></wpt>
  <wpt lat="57.77317" lon="14.20324"><name><![CDATA[Jönköping, A6 Center, Jönköping]]></name></wpt>
  <wpt lat="59.32585" lon="14.52452"><name><![CDATA[Karlskoga, Kulan, Karlskoga]]></name></wpt>
  <wpt lat="63.17562" lon="14.6381"><name><![CDATA[Östersund, Mittpunkten, Östersund]]></name></wpt>
  <wpt lat="56.8852" lon="14.76602"><name><![CDATA[Växjö, Grand Samarkand, Växjö]]></name></wpt>
  <wpt lat="56.87881" lon="14.80758"><name><![CDATA[Växjö, Tegnér., Växjö]]></name></wpt>
  <wpt lat="58.53706" lon="15.03545"><name><![CDATA[Motala, Gallerian, Motala]]></name></wpt>
  <wpt lat="57.42506" lon="15.08573"><name><![CDATA[Vetlanda, Gallerian, Vetlanda]]></name></wpt>
  <wpt lat="60.67455" lon="15.09032"><name><![CDATA[Insjön, Hjultorget, Insjön]]></name></wpt>
  <wpt lat="58.32662" lon="15.12584"><name><![CDATA[Mjölby, Galleria Kvarnen, Mjölby]]></name></wpt>
  <wpt lat="59.21677" lon="15.13785"><name><![CDATA[Örebro, Marieberg Galleria, Örebro]]></name></wpt>
  <wpt lat="59.27131" lon="15.21142"><name><![CDATA[Örebro, Drottninggatan, Örebro]]></name></wpt>
  <wpt lat="59.27197" lon="15.21443"><name><![CDATA[Örebro, Vågen Gallerian, Örebro]]></name></wpt>
  <wpt lat="60.48425" lon="15.41796"><name><![CDATA[Borlänge, Kupolen, Borlänge]]></name></wpt>
  <wpt lat="56.16233" lon="15.58527"><name><![CDATA[Karlskrona, Kronan, Karlskrona]]></name></wpt>
  <wpt lat="58.43028" lon="15.58977"><name><![CDATA[Linköping, IKANO-huset, Linköping]]></name></wpt>
  <wpt lat="58.40979" lon="15.62688"><name><![CDATA[Linköping, Gränden., Linköping]]></name></wpt>
  <wpt lat="60.60559" lon="15.63136"><name><![CDATA[Falun, Bergströms Galleria, Falun]]></name></wpt>
  <wpt lat="56.19706" lon="15.64183"><name><![CDATA[Karlskrona, Amiralen., Lyckeby]]></name></wpt>
  <wpt lat="59.5225" lon="15.97446"><name><![CDATA[Köping, Big Inn, Köping]]></name></wpt>
  <wpt lat="58.61888" lon="16.15462"><name><![CDATA[Norrköping, Ingelsta Shopping, Norrköping]]></name></wpt>
  <wpt lat="60.14593" lon="16.16827"><name><![CDATA[Avesta, Galleria, Avesta]]></name></wpt>
  <wpt lat="58.58736" lon="16.18891"><name><![CDATA[Norrköping, Linden, Norrköping]]></name></wpt>
  <wpt lat="58.57322" lon="16.2084"><name><![CDATA[Norrköping, Mirum Galleria, Norrköping]]></name></wpt>
  <wpt lat="56.68705" lon="16.32013"><name><![CDATA[Kalmar, Hansa City, Kalmar]]></name></wpt>
  <wpt lat="56.67091" lon="16.33795"><name><![CDATA[Kalmar Giraffen, Kalmar]]></name></wpt>
  <wpt lat="56.66356" lon="16.36336"><name><![CDATA[Kalmar, Baronen, Kalmar]]></name></wpt>
  <wpt lat="59.60862" lon="16.45547"><name><![CDATA[Västerås, Erikslund Shopping, Västerås]]></name></wpt>
  <wpt lat="59.3716" lon="16.46946"><name><![CDATA[Eskilstuna, Tuna Park, Eskilstuna]]></name></wpt>
  <wpt lat="59.37174" lon="16.51092"><name><![CDATA[Eskilstuna, Cityhuset, Eskilstuna]]></name></wpt>
  <wpt lat="59.61143" lon="16.54451"><name><![CDATA[Västerås, Kvarteret Igor, Västerås]]></name></wpt>
  <wpt lat="59.61002" lon="16.54651"><name><![CDATA[Västerås, Punkt, Västerås]]></name></wpt>
  <wpt lat="59.91977" lon="16.6058"><name><![CDATA[Sala, Galleria Sala Torg, Sala]]></name></wpt>
  <wpt lat="57.75736" lon="16.63444"><name><![CDATA[Västervik, V.Kyrkogatan, Västervik]]></name></wpt>
  <wpt lat="60.63408" lon="16.99336"><name><![CDATA[Valbo, Valbo Köpcenter, Valbo]]></name></wpt>
  <wpt lat="58.75178" lon="17.00383"><name><![CDATA[Nyköping, Västerport, Nyköping]]></name></wpt>
  <wpt lat="61.72742" lon="17.10514"><name><![CDATA[Hudiksvall, Fyren, Hudiksvall]]></name></wpt>
  <wpt lat="60.67396" lon="17.14052"><name><![CDATA[Gävle, Gallerian Nian, Gävle]]></name></wpt>
  <wpt lat="62.39183" lon="17.30427"><name><![CDATA[Sundsvall, In Gallerian, Sundsvall]]></name></wpt>
  <wpt lat="62.44714" lon="17.33587"><name><![CDATA[Sundsvall, Birsta City, Sundsvall]]></name></wpt>
  <wpt lat="59.56698" lon="17.5286"><name><![CDATA[Bålsta, Bålsta Centrum, Bålsta]]></name></wpt>
  <wpt lat="59.19617" lon="17.62772"><name><![CDATA[Södertälje, Kringlan, Södertälje]]></name></wpt>
  <wpt lat="59.86035" lon="17.63736"><name><![CDATA[Uppsala, S:t Per Gallerian, Uppsala]]></name></wpt>
  <wpt lat="59.87767" lon="17.67307"><name><![CDATA[Uppsala, Gränby Centrum, Uppsala]]></name></wpt>
  <wpt lat="59.42342" lon="17.83793"><name><![CDATA[Järfälla, Jakobsbergs Centrum, Järfälla]]></name></wpt>
  <wpt lat="59.362" lon="17.8744"><name><![CDATA[Vällingby, Vällingby City, Vällingby]]></name></wpt>
  <wpt lat="59.27538" lon="17.90723"><name><![CDATA[Skärholmen, SKHLM, Skärholmen]]></name></wpt>
  <wpt lat="59.51869" lon="17.90995"><name><![CDATA[Upplands Väsby, Väsby Centrum, Upplands Väsby]]></name></wpt>
  <wpt lat="59.40385" lon="17.94361"><name><![CDATA[Kista, Kista Galleria, Kista]]></name></wpt>
  <wpt lat="59.42858" lon="17.95115"><name><![CDATA[Sollentuna, Sollentuna Centrum, Sollentuna]]></name></wpt>
  <wpt lat="59.2359" lon="17.98181"><name><![CDATA[Huddinge, Huddinge Centrum, Huddinge]]></name></wpt>
  <wpt lat="59.36121" lon="17.99888"><name><![CDATA[Solna, Solna Centrum, Solna]]></name></wpt>
  <wpt lat="59.37222" lon="18.0038"><name><![CDATA[Solna, Mall of Scandinavia, Solna]]></name></wpt>
  <wpt lat="59.30981" lon="18.02303"><name><![CDATA[Stockholm, Liljeholmstorget, Stockholm]]></name></wpt>
  <wpt lat="59.3348" lon="18.03235"><name><![CDATA[Stockholm, Västermalmsgalleria, Stockholm]]></name></wpt>
  <wpt lat="59.26382" lon="18.04111"><name><![CDATA[Högdalen, Högdalen Centrum, Högdalen]]></name></wpt>
  <wpt lat="59.33448" lon="18.06115"><name><![CDATA[Stockholm, Drottninggatan., Stockholm]]></name></wpt>
  <wpt lat="59.33231" lon="18.06331"><name><![CDATA[Stockholm, Sergels torg, Stockholm]]></name></wpt>
  <wpt lat="59.33122" lon="18.06747"><name><![CDATA[Stockholm, Flagship Gallerian, Stockholm]]></name></wpt>
  <wpt lat="59.44501" lon="18.07092"><name><![CDATA[Täby, Täby Centrum., Täby]]></name></wpt>
  <wpt lat="59.30865" lon="18.07629"><name><![CDATA[Stockholm, Ringen Centrum, Stockholm]]></name></wpt>
  <wpt lat="59.24335" lon="18.09031"><name><![CDATA[Farsta, Farsta Centrum, Farsta]]></name></wpt>
  <wpt lat="59.33892" lon="18.09087"><name><![CDATA[Stockholm, Fältöversten, Stockholm]]></name></wpt>
  <wpt lat="59.30608" lon="18.12448"><name><![CDATA[Nacka, Sickla Köpkvarter, Nacka]]></name></wpt>
  <wpt lat="59.1683" lon="18.13907"><name><![CDATA[Handen, Haninge Centrum, Handen]]></name></wpt>
  <wpt lat="59.17956" lon="18.15053"><name><![CDATA[Handen, Port 73, Handen]]></name></wpt>
  <wpt lat="59.30944" lon="18.16434"><name><![CDATA[Nacka, Nacka Forum, Nacka]]></name></wpt>
  <wpt lat="59.24409" lon="18.22941"><name><![CDATA[Tyresö, Tyresö Centrum, Tyresö]]></name></wpt>
  <wpt lat="59.48027" lon="18.29855"><name><![CDATA[Åkersberga, Åkersberga Centrum, Åkersberga]]></name></wpt>
  <wpt lat="57.63777" lon="18.30158"><name><![CDATA[Visby, Österväg, Visby]]></name></wpt>
  <wpt lat="59.31271" lon="18.4311"><name><![CDATA[Gustavsberg, Värmdö Köpcentrum, Gustavsberg]]></name></wpt>
  <wpt lat="63.29108" lon="18.71475"><name><![CDATA[Örnsköldsvik, Oskargallerian., Örnsköldsvik]]></name></wpt>
  <wpt lat="63.82572" lon="20.26066"><name><![CDATA[Umeå, MVG., Umeå]]></name></wpt>
  <wpt lat="63.82585" lon="20.26303"><name><![CDATA[Umeå, Avion Shopping, Umeå]]></name></wpt>
  <wpt lat="67.84938" lon="20.30756"><name><![CDATA[Kiruna, Gallerian, Kiruna]]></name></wpt>
  <wpt lat="67.13463" lon="20.66157"><name><![CDATA[Gällivare, Norrskensgallerian, Gällivare]]></name></wpt>
  <wpt lat="64.75008" lon="20.9541"><name><![CDATA[Skellefteå, Citykompaniet, Skellefteå]]></name></wpt>
  <wpt lat="65.31711" lon="21.47913"><name><![CDATA[Piteå, Småstaden, Piteå]]></name></wpt>
  <wpt lat="65.82453" lon="21.68793"><name><![CDATA[Boden, Köpkvarteret 43:an, Boden]]></name></wpt>
  <wpt lat="65.58399" lon="22.15359"><name><![CDATA[Luleå, Smedjan, Luleå]]></name></wpt>
</gpx>