<?xml version="1.0" encoding="UTF-8"?>
<!-- Source: https://github.com/cisene/se-poi -->
<gpx creator="se-poi" xmlns="http://www.topografix.com/GPX/1/1" xmlns:xsi="http://www.w3.org/2001/XMLSchema-instance" xsi:schemaLocation="http://www.topografix.com/GPX/1/1 http://www.topografix.com/GPX/1/1/gpx.xsd" version="1.1">
  <metadata>
    <name><![CDATA[Lekia / Babya]]></name>
    <desc><![CDATA[Koordinater - Lekia / Babya]]></desc>
    <link href="https://www.lekia.se/">
      <text><![CDATA[Lekia / Babya]]></text>
       <type>text/html</type>
    </link>
   <time>2023-08-28T18:31:33+02:00</time>
  </metadata>
  <bounds minlat="55.374554" minlon="11.171202" maxlat="67.855447" maxlon="24.125772" />
  <wpt lat="58.93924" lon="11.171202"><name><![CDATA[Strömstad Lekia, Strömstad]]></name></wpt>
  <wpt lat="59.064158" lon="11.208232"><name><![CDATA[Nordby Lekia, Nordby]]></name></wpt>
  <wpt lat="58.72337" lon="11.349102"><name><![CDATA[Tanum Lekia och Babya, Tanum]]></name></wpt>
  <wpt lat="58.352458" lon="11.804456"><name><![CDATA[Uddevalla Torp Lekia och Babya, Uddevalla]]></name></wpt>
  <wpt lat="58.069588" lon="11.820025"><name><![CDATA[Stenungsund Lekia, Stenungsund]]></name></wpt>
  <wpt lat="57.652" lon="11.9096"><name><![CDATA[Frölunda Lekia, Frölunda]]></name></wpt>
  <wpt lat="57.640368" lon="11.947444"><name><![CDATA[Göteborg Sisjön Lekia, Göteborg]]></name></wpt>
  <wpt lat="57.728619" lon="11.952746"><name><![CDATA[Göteborg Backaplan Lekia, Göteborg]]></name></wpt>
  <wpt lat="57.704591" lon="11.967603"><name><![CDATA[Göteborg Kungsgatan Lekia, Göteborg]]></name></wpt>
  <wpt lat="57.873267" lon="11.968425"><name><![CDATA[Kungälv Kongahälla Lekia, Kungälv]]></name></wpt>
  <wpt lat="57.707885" lon="11.970119"><name><![CDATA[Göteborg Nordstan, Göteborg]]></name></wpt>
  <wpt lat="57.655013" lon="12.013673"><name><![CDATA[Mölndal Lekia, Mölndal]]></name></wpt>
  <wpt lat="57.513523" lon="12.07547"><name><![CDATA[Kungsbacka Lekia, Kungsbacka]]></name></wpt>
  <wpt lat="57.739277" lon="12.103918"><name><![CDATA[Allum Lekia, Allum]]></name></wpt>
  <wpt lat="59.030283" lon="12.223622"><name><![CDATA[Bengtsfors Lekia, Bengtsfors]]></name></wpt>
  <wpt lat="57.118572" lon="12.26045"><name><![CDATA[Varberg Fyndmagasinet Lekia, Varberg]]></name></wpt>
  <wpt lat="57.769087" lon="12.269692"><name><![CDATA[Lerum Lekia, Lerum]]></name></wpt>
  <wpt lat="58.700182" lon="12.452734"><name><![CDATA[Mellerud Lekia, Mellerud]]></name></wpt>
  <wpt lat="57.930075" lon="12.535527"><name><![CDATA[Alingsås Lekia och Babya, Alingsås]]></name></wpt>
  <wpt lat="59.656194" lon="12.589081"><name><![CDATA[Arvika Lekia, Arvika]]></name></wpt>
  <wpt lat="56.092056" lon="12.756816"><name><![CDATA[Helsingborg Väla Centrum Lekia, Helsingborg]]></name></wpt>
  <wpt lat="56.676829" lon="12.807333"><name><![CDATA[Halmstad Flygstaden Lekia, Halmstad]]></name></wpt>
  <wpt lat="56.255211" lon="12.888993"><name><![CDATA[Ängelholm Lekia och Babya, Ängelholm]]></name></wpt>
  <wpt lat="56.664353" lon="12.909353"><name><![CDATA[Halmstad Lekia och Babya, Halmstad]]></name></wpt>
  <wpt lat="59.13214" lon="12.924401"><name><![CDATA[Säffle Lekia, Säffle]]></name></wpt>
  <wpt lat="57.721204" lon="12.939668"><name><![CDATA[Borås Lekia, Borås]]></name></wpt>
  <wpt lat="55.426394" lon="12.965098"><name><![CDATA[Höllviken Lekia, Höllviken]]></name></wpt>
  <wpt lat="55.564452" lon="12.971206"><name><![CDATA[Malmö Emporia Lekia, Malmö]]></name></wpt>
  <wpt lat="55.769057" lon="12.989965"><name><![CDATA[Lekia Löddeköpinge köpcenter, Löddeköpinge]]></name></wpt>
  <wpt lat="55.769948" lon="12.99414"><name><![CDATA[Löddeköpinge Lekia, Löddeköpinge]]></name></wpt>
  <wpt lat="55.54925" lon="12.997127"><name><![CDATA[Malmö Svågertorp Lekia, Malmö]]></name></wpt>
  <wpt lat="55.5958" lon="13.00244"><name><![CDATA[Malmö Triangeln Lekia, Malmö]]></name></wpt>
  <wpt lat="55.58116" lon="13.00344"><name><![CDATA[Malmö Mobilia Lekia, Malmö]]></name></wpt>
  <wpt lat="59.348476" lon="13.109566"><name><![CDATA[Grums Lekia, Grums]]></name></wpt>
  <wpt lat="59.836492" lon="13.143463"><name><![CDATA[Sunne Lekia, Sunne]]></name></wpt>
  <wpt lat="55.374554" lon="13.158554"><name><![CDATA[Trelleborg Valengallerian Lekia, Trelleborg]]></name></wpt>
  <wpt lat="55.713863" lon="13.158992"><name><![CDATA[Lund Nova Lekia, Lund]]></name></wpt>
  <wpt lat="55.706021" lon="13.187882"><name><![CDATA[Lund City Lekia och Babya, Lund]]></name></wpt>
  <wpt lat="55.838071" lon="13.303312"><name><![CDATA[Eslöv Lekia, Eslöv]]></name></wpt>
  <wpt lat="59.377425" lon="13.424007"><name><![CDATA[Karlstad Bergvik Lekia, Karlstad]]></name></wpt>
  <wpt lat="59.387691" lon="13.482035"><name><![CDATA[Karlstad Lekia och Babya, Karlstad]]></name></wpt>
  <wpt lat="57.301491" lon="13.536601"><name><![CDATA[Gislaved Lekia, Gislaved]]></name></wpt>
  <wpt lat="57.302792" lon="13.538069"><name><![CDATA[Gislaved Babya, Gislaved]]></name></wpt>
  <wpt lat="56.158242" lon="13.764861"><name><![CDATA[Hässleholm Lekia, Hässleholm]]></name></wpt>
  <wpt lat="55.42893" lon="13.818933"><name><![CDATA[Ystad Lekia, Ystad]]></name></wpt>
  <wpt lat="55.435919" lon="13.838328"><name><![CDATA[Ystad Ohlssons Basar Lekia, Ystad]]></name></wpt>
  <wpt lat="58.406133" lon="13.854742"><name><![CDATA[Skövde Lekia, Skövde]]></name></wpt>
  <wpt lat="56.834199" lon="13.942087"><name><![CDATA[Ljungby Lekia och Babya, Ljungby]]></name></wpt>
  <wpt lat="57.763192" lon="14.183109"><name><![CDATA[Jönköping Lekia och Babya, Jönköping]]></name></wpt>
  <wpt lat="56.02621" lon="14.203757"><name><![CDATA[Kristianstad C4 Lekia, Kristianstad]]></name></wpt>
  <wpt lat="57.775207" lon="14.205765"><name><![CDATA[Jönköping Asecs Lekia, Jönköping]]></name></wpt>
  <wpt lat="59.32699" lon="14.52629"><name><![CDATA[Karlskoga Lekia och Babya, Karlskoga]]></name></wpt>
  <wpt lat="63.176398" lon="14.638649"><name><![CDATA[Östersund Kärnan Lekia, Östersund]]></name></wpt>
  <wpt lat="63.162516" lon="14.687669"><name><![CDATA[Östersund Lekia och Babya, Östersund]]></name></wpt>
  <wpt lat="56.876896" lon="14.765994"><name><![CDATA[Växjö i11 Lekia och Babya, Växjö]]></name></wpt>
  <wpt lat="56.877819" lon="14.805465"><name><![CDATA[Växjö Lekia, Växjö]]></name></wpt>
  <wpt lat="56.169146" lon="14.86284"><name><![CDATA[Karlshamn Lekia, Karlshamn]]></name></wpt>
  <wpt lat="58.879049" lon="14.90366"><name><![CDATA[Askersund Lekia, Askersund]]></name></wpt>
  <wpt lat="58.557043" lon="15.045566"><name><![CDATA[Motala Bråstorp Lekia och Babya, Motala]]></name></wpt>
  <wpt lat="57.44432" lon="15.066726"><name><![CDATA[Vetlanda Lekia och Babya, Vetlanda]]></name></wpt>
  <wpt lat="59.217262" lon="15.135639"><name><![CDATA[Örebro Marieberg Galleria, Örebro]]></name></wpt>
  <wpt lat="59.211056" lon="15.136706"><name><![CDATA[Örebro Marieberg Lekia och Babya, Örebro]]></name></wpt>
  <wpt lat="60.14973" lon="15.186207"><name><![CDATA[Ludvika Lekia och Babya, Ludvika]]></name></wpt>
  <wpt lat="59.295944" lon="15.19799"><name><![CDATA[Örebro Boglundsängen Lekia Babya, Örebro]]></name></wpt>
  <wpt lat="59.269168" lon="15.210809"><name><![CDATA[Örebro City Lekia, Örebro]]></name></wpt>
  <wpt lat="60.484447" lon="15.416211"><name><![CDATA[Borlänge Lekia, Borlänge]]></name></wpt>
  <wpt lat="58.432888" lon="15.588504"><name><![CDATA[Linköping I-Huset Lekia, Linköping]]></name></wpt>
  <wpt lat="58.433045" lon="15.590207"><name><![CDATA[Linköping Sagoland Lekia och Babya, Linköping]]></name></wpt>
  <wpt lat="58.410081" lon="15.626623"><name><![CDATA[Linköping City Lekia, Linköping]]></name></wpt>
  <wpt lat="56.195341" lon="15.633508"><name><![CDATA[Karlskrona Lekia och Babya, Karlskrona]]></name></wpt>
  <wpt lat="57.667487" lon="15.8476"><name><![CDATA[Vimmerby Lekia, Vimmerby Lekia]]></name></wpt>
  <wpt lat="59.513322" lon="15.995408"><name><![CDATA[Köping Lekia och Babya, Köping]]></name></wpt>
  <wpt lat="58.618684" lon="16.156909"><name><![CDATA[Norrköping Ingelsta Shopping Lekia, Norrköping]]></name></wpt>
  <wpt lat="58.610232" lon="16.162125"><name><![CDATA[Norrköping Ingelsta Lekia och Babya, Norrköping]]></name></wpt>
  <wpt lat="58.587601" lon="16.18986"><name><![CDATA[Norrköping City Lekia, Norrköping]]></name></wpt>
  <wpt lat="58.572774" lon="16.211073"><name><![CDATA[Norrköping Mirum Galleria Lekia, Norrköping]]></name></wpt>
  <wpt lat="56.687189" lon="16.31761"><name><![CDATA[Kalmar Hansa Lekia, Kalmar]]></name></wpt>
  <wpt lat="56.670795" lon="16.338713"><name><![CDATA[Kalmar Giraffen Lekia och Babya, Kalmar]]></name></wpt>
  <wpt lat="61.335873" lon="16.396448"><name><![CDATA[Bollnäs Lekia och Babya, Bollnäs]]></name></wpt>
  <wpt lat="59.402036" lon="16.426421"><name><![CDATA[Eskilstuna Folkesta Lekia och Babya, Eskilstuna]]></name></wpt>
  <wpt lat="57.263921" lon="16.446377"><name><![CDATA[Oskarshamn Lekia och Babya, Oskarshamn]]></name></wpt>
  <wpt lat="59.608847" lon="16.452596"><name><![CDATA[Västerås Erikslund Shopping Center, Västerås]]></name></wpt>
  <wpt lat="59.37135" lon="16.47011"><name><![CDATA[Eskilstuna Tuna Park Lekia, Eskilstuna]]></name></wpt>
  <wpt lat="59.610368" lon="16.6216"><name><![CDATA[Västerås Hälla Shopping Lekia, Västerås]]></name></wpt>
  <wpt lat="60.633542" lon="16.990784"><name><![CDATA[Gävle Valbo Lekia, Gävle]]></name></wpt>
  <wpt lat="61.295022" lon="17.01661"><name><![CDATA[Söderhamn Lekia och Babya, Söderhamn]]></name></wpt>
  <wpt lat="58.772275" lon="17.018152"><name><![CDATA[Nyköping Lekia och Babya, Nyköping]]></name></wpt>
  <wpt lat="59.3352" lon="17.02028"><name><![CDATA[Strängnäs Solberga Lekia och Babya, Strängnäs]]></name></wpt>
  <wpt lat="59.376086" lon="17.027454"><name><![CDATA[Strängnäs Präntaren Lekia, Strängnäs]]></name></wpt>
  <wpt lat="59.653288" lon="17.079122"><name><![CDATA[Enköping Lekia, Enköping]]></name></wpt>
  <wpt lat="61.732961" lon="17.094391"><name><![CDATA[Hudiksvall Lekia och Babya, Hudiksvall]]></name></wpt>
  <wpt lat="60.644978" lon="17.145247"><name><![CDATA[Gävle Lekia och Babya, Gävle]]></name></wpt>
  <wpt lat="62.44756" lon="17.32826"><name><![CDATA[Sundsvall Lekia och Babya, Sundsvall]]></name></wpt>
  <wpt lat="62.447001" lon="17.333744"><name><![CDATA[Sundsvall Birstacity Lekia, Sundsvall]]></name></wpt>
  <wpt lat="59.567572" lon="17.529275"><name><![CDATA[Bålsta Lekia, Bålsta]]></name></wpt>
  <wpt lat="59.196" lon="17.62768"><name><![CDATA[Södertälje Centrum Lekia, Södertälje]]></name></wpt>
  <wpt lat="59.877711" lon="17.673352"><name><![CDATA[Uppsala Gränbystaden Lekia, Uppsala]]></name></wpt>
  <wpt lat="59.851398" lon="17.689542"><name><![CDATA[Uppsala Lekia, Uppsala]]></name></wpt>
  <wpt lat="59.198675" lon="17.832821"><name><![CDATA[Stockholm Tumba Lekia, Stockholm]]></name></wpt>
  <wpt lat="59.412631" lon="17.862974"><name><![CDATA[Stockholm Barkarby Lekia, Stockholm]]></name></wpt>
  <wpt lat="59.36329" lon="17.872059"><name><![CDATA[Stockholm Vällingby Centrum Lekia, Stockholm]]></name></wpt>
  <wpt lat="59.518566" lon="17.911104"><name><![CDATA[Stockholm Väsby Centrum Lekia, Stockholm]]></name></wpt>
  <wpt lat="59.269795" lon="17.916976"><name><![CDATA[Stockholm Kungens Kurva Lekia, Stockholm]]></name></wpt>
  <wpt lat="59.402418" lon="17.945512"><name><![CDATA[Stockholm Kista Galleria Lekia, Stockholm]]></name></wpt>
  <wpt lat="59.428161" lon="17.949026"><name><![CDATA[Stockholm Sollentuna Lekia, Stockholm]]></name></wpt>
  <wpt lat="59.355742" lon="17.956535"><name><![CDATA[Stockholm Bromma Lekia, Stockholm]]></name></wpt>
  <wpt lat="59.359861" lon="18.000718"><name><![CDATA[Stockholm Solna Centrum Lekia och Babya, Stockholm]]></name></wpt>
  <wpt lat="59.370011" lon="18.003151"><name><![CDATA[Stockholm Westfield Solna Mall of Scandinavia Lekia, Stockholm]]></name></wpt>
  <wpt lat="59.309421" lon="18.020418"><name><![CDATA[Stockholm Liljeholmen Lekia, Stockholm]]></name></wpt>
  <wpt lat="59.398257" lon="18.036118"><name><![CDATA[Stockholm Mörby Centrum Lekia, Stockholm]]></name></wpt>
  <wpt lat="59.331227" lon="18.063865"><name><![CDATA[Stockholm Drottninggatan Lekia, Stockholm]]></name></wpt>
  <wpt lat="59.445102" lon="18.067541"><name><![CDATA[Stockholm Westfield Täby Centrum Lekia, Stockholm]]></name></wpt>
  <wpt lat="59.242993" lon="18.089053"><name><![CDATA[Stockholm Farsta Centrum Lekia, Stockholm]]></name></wpt>
  <wpt lat="59.305495" lon="18.126776"><name><![CDATA[Stockholm Sickla Lekia, Stockholm]]></name></wpt>
  <wpt lat="59.365071" lon="18.130632"><name><![CDATA[Stockholm Lidingö Lekia, Stockholm]]></name></wpt>
  <wpt lat="59.459352" lon="18.138431"><name><![CDATA[Stockholm Arninge Station Lekia, Stockholm]]></name></wpt>
  <wpt lat="59.308793" lon="18.162694"><name><![CDATA[Stockholm Nacka Lekia, Stockholm]]></name></wpt>
  <wpt lat="59.245092" lon="18.229408"><name><![CDATA[Stockholm Tyresö Lekia, Stockholm]]></name></wpt>
  <wpt lat="59.480729" lon="18.298101"><name><![CDATA[Åkersberga Lekia, Åkersberga]]></name></wpt>
  <wpt lat="57.637745" lon="18.300707"><name><![CDATA[Visby Lekia, Visby]]></name></wpt>
  <wpt lat="59.313305" lon="18.430476"><name><![CDATA[Stockholm Värmdö Lekia, Stockholm]]></name></wpt>
  <wpt lat="59.75715" lon="18.698755"><name><![CDATA[Norrtälje Lekia, Norrtälje]]></name></wpt>
  <wpt lat="60.130081" lon="19.933818"><name><![CDATA[Mariehamn Åland Lekia, Mariehamn]]></name></wpt>
  <wpt lat="60.098962" lon="19.943022"><name><![CDATA[Mariehamn Åland Sittkoff Lekia, Mariehamn]]></name></wpt>
  <wpt lat="67.855447" lon="20.227892"><name><![CDATA[Kiruna Lekia, Kiruna]]></name></wpt>
  <wpt lat="63.824757" lon="20.264284"><name><![CDATA[Umeå Lekia, Umeå]]></name></wpt>
  <wpt lat="67.149132" lon="20.657289"><name><![CDATA[Gällivare Lekia och Babya, Gällivare]]></name></wpt>
  <wpt lat="64.750206" lon="20.953367"><name><![CDATA[Skellefteå Lekia, Skellefteå]]></name></wpt>
  <wpt lat="64.766281" lon="21.023076"><name><![CDATA[Skellefteå Solbacken Lekia och Babya, Skellefteå]]></name></wpt>
  <wpt lat="65.316797" lon="21.481189"><name><![CDATA[Piteå Lekia, Piteå]]></name></wpt>
  <wpt lat="65.824664" lon="21.685275"><name><![CDATA[Boden Lekia, Boden]]></name></wpt>
  <wpt lat="65.61618" lon="22.05162"><name><![CDATA[Luleå Storheden Lekia, Luleå]]></name></wpt>
  <wpt lat="65.584653" lon="22.153785"><name><![CDATA[Luleå Lekia, Luleå]]></name></wpt>
  <wpt lat="65.843964" lon="24.125772"><name><![CDATA[Haparanda Lekia och Babya, Haparanda]]></name></wpt>
</gpx>