<?xml version="1.0" encoding="UTF-8"?>
<!-- Source: https://github.com/cisene/se-poi -->
<gpx creator="se-poi" xmlns="http://www.topografix.com/GPX/1/1" xmlns:xsi="http://www.w3.org/2001/XMLSchema-instance" xsi:schemaLocation="http://www.topografix.com/GPX/1/1 http://www.topografix.com/GPX/1/1/gpx.xsd" version="1.1">
  <metadata>
    <name><![CDATA[Panduro]]></name>
    <desc><![CDATA[Koordinater - Panduro]]></desc>
    <link href="https://panduro.com/">
      <text><![CDATA[Panduro]]></text>
       <type>text/html</type>
    </link>
   <time>2023-08-28T18:31:34+02:00</time>
  </metadata>
  <bounds minlat="55.563993" minlon="11.2099" maxlat="63.806484" maxlon="20.254025" />
  <wpt lat="59.06491" lon="11.2099"><name><![CDATA[Panduro Strömstad, Strömstad]]></name></wpt>
  <wpt lat="58.346764" lon="11.845055"><name><![CDATA[Panduro Uddevalla, Uddevalla]]></name></wpt>
  <wpt lat="57.652222" lon="11.909805"><name><![CDATA[Panduro Västra Frölunda, Västra Frölunda]]></name></wpt>
  <wpt lat="57.70409" lon="11.96092"><name><![CDATA[Kreatima Göteborg, Göteborg]]></name></wpt>
  <wpt lat="57.70559" lon="11.968347"><name><![CDATA[Panduro Göteborg, Göteborg]]></name></wpt>
  <wpt lat="57.737017" lon="12.105222"><name><![CDATA[Panduro Partille, Partille]]></name></wpt>
  <wpt lat="57.135304" lon="12.71559"><name><![CDATA[Panduro Outlet Ullared, Ullared]]></name></wpt>
  <wpt lat="56.0936" lon="12.7604"><name><![CDATA[Panduro Helsingborg, Helsingborg]]></name></wpt>
  <wpt lat="56.095802" lon="12.761784"><name><![CDATA[Pando Pando, Pando]]></name></wpt>
  <wpt lat="56.655329" lon="12.909162"><name><![CDATA[Panduro Halmstad, Halmstad]]></name></wpt>
  <wpt lat="57.72071" lon="12.941508"><name><![CDATA[Panduro Borås, Borås]]></name></wpt>
  <wpt lat="55.563993" lon="12.974596"><name><![CDATA[Panduro Malmö, Malmö]]></name></wpt>
  <wpt lat="55.76955" lon="12.9905"><name><![CDATA[Panduro Löddeköpinge, Löddeköpinge]]></name></wpt>
  <wpt lat="55.603944" lon="13.005518"><name><![CDATA[Panduro Malmö, Malmö]]></name></wpt>
  <wpt lat="55.714" lon="13.159966"><name><![CDATA[Pando Pando, Pando]]></name></wpt>
  <wpt lat="55.703142" lon="13.191197"><name><![CDATA[Panduro Lund, Lund]]></name></wpt>
  <wpt lat="59.402925" lon="13.517616"><name><![CDATA[Panduro Karlstad, Karlstad]]></name></wpt>
  <wpt lat="56.025474" lon="14.202958"><name><![CDATA[Panduro Kristianstad, Kristianstad]]></name></wpt>
  <wpt lat="57.773939" lon="14.203657"><name><![CDATA[Panduro Jönköping, Jönköping]]></name></wpt>
  <wpt lat="56.878088" lon="14.805074"><name><![CDATA[Panduro Växjö, Växjö]]></name></wpt>
  <wpt lat="59.2165" lon="15.1392"><name><![CDATA[Panduro Örebro, Örebro]]></name></wpt>
  <wpt lat="60.4841" lon="15.4179"><name><![CDATA[Panduro Borlänge, Borlänge]]></name></wpt>
  <wpt lat="58.410345" lon="15.624018"><name><![CDATA[Panduro Linköping, Linköping]]></name></wpt>
  <wpt lat="58.572838" lon="16.211401"><name><![CDATA[Panduro Norrköping, Norrköping]]></name></wpt>
  <wpt lat="59.611817" lon="16.544552"><name><![CDATA[Panduro Västerås, Västerås]]></name></wpt>
  <wpt lat="60.633585" lon="16.990721"><name><![CDATA[Panduro Valbo, Valbo]]></name></wpt>
  <wpt lat="62.444568" lon="17.334636"><name><![CDATA[Panduro Sundsvall, Sundsvall]]></name></wpt>
  <wpt lat="59.875991" lon="17.674518"><name><![CDATA[Panduro Uppsala, Uppsala]]></name></wpt>
  <wpt lat="59.413023" lon="17.863274"><name><![CDATA[Panduro Outlet Barkarby, Barkarby]]></name></wpt>
  <wpt lat="59.275315" lon="17.906353"><name><![CDATA[Panduro Skärholmen, Skärholmen]]></name></wpt>
  <wpt lat="59.428507" lon="17.949032"><name><![CDATA[Panduro Sollentuna, Sollentuna]]></name></wpt>
  <wpt lat="59.356493" lon="17.954842"><name><![CDATA[Panduro Bromma, Bromma]]></name></wpt>
  <wpt lat="59.369498" lon="18.005408"><name><![CDATA[Panduro Solna, Solna]]></name></wpt>
  <wpt lat="59.309863" lon="18.02208"><name><![CDATA[Panduro Stockholm, Stockholm]]></name></wpt>
  <wpt lat="59.334505" lon="18.056809"><name><![CDATA[Kreatima Stockholm, Stockholm]]></name></wpt>
  <wpt lat="59.335937" lon="18.064774"><name><![CDATA[Panduro Stockholm, Stockholm]]></name></wpt>
  <wpt lat="59.444922" lon="18.069076"><name><![CDATA[Panduro Täby, Täby]]></name></wpt>
  <wpt lat="59.242943" lon="18.093102"><name><![CDATA[Panduro Farsta, Farsta]]></name></wpt>
  <wpt lat="59.304232" lon="18.128738"><name><![CDATA[Panduro Nacka, Nacka]]></name></wpt>
  <wpt lat="59.309419" lon="18.16439"><name><![CDATA[Panduro Nacka, Nacka]]></name></wpt>
  <wpt lat="63.806484" lon="20.254025"><name><![CDATA[Panduro Umeå, Umeå]]></name></wpt>
</gpx>