<?xml version="1.0" encoding="UTF-8"?>
<!-- Source: https://github.com/cisene/se-poi -->
<gpx creator="se-poi" xmlns="http://www.topografix.com/GPX/1/1" xmlns:xsi="http://www.w3.org/2001/XMLSchema-instance" xsi:schemaLocation="http://www.topografix.com/GPX/1/1 http://www.topografix.com/GPX/1/1/gpx.xsd" version="1.1">
  <metadata>
    <name><![CDATA[Pinchos]]></name>
    <desc><![CDATA[Koordinater - Pinchos]]></desc>
    <link href="https://pinchos.se/">
      <text><![CDATA[Pinchos]]></text>
       <type>text/html</type>
    </link>
   <time>2023-08-28T18:31:34+02:00</time>
  </metadata>
  <bounds minlat="55.374437" minlon="11.937812" maxlat="65.583812" maxlon="22.150312" />
  <wpt lat="58.349812" lon="11.937812"><name><![CDATA[Pinchos, Trädgårdsgatan 3, Uddevalla]]></name></wpt>
  <wpt lat="57.693562" lon="11.951313"><name><![CDATA[Pinchos, Övre Majorsgatan 4, Göteborg]]></name></wpt>
  <wpt lat="57.705437" lon="11.961688"><name><![CDATA[Pinchos, Lilla Torget 3, Göteborg]]></name></wpt>
  <wpt lat="57.698187" lon="11.973813"><name><![CDATA[Pinchos, Götabergsgatan 28a, Göteborg]]></name></wpt>
  <wpt lat="57.700688" lon="11.975313"><name><![CDATA[Pinchos, Vasagatan 43b, Göteborg]]></name></wpt>
  <wpt lat="57.484687" lon="12.075688"><name><![CDATA[Pinchos, Aranäs Allé 2, Kungsbacka]]></name></wpt>
  <wpt lat="57.105062" lon="12.251563"><name><![CDATA[Pinchos, Drottninggatan 27, Varberg]]></name></wpt>
  <wpt lat="58.285562" lon="12.288063"><name><![CDATA[Pinchos, Storgatan 36, Trollhättan]]></name></wpt>
  <wpt lat="56.902812" lon="12.492188"><name><![CDATA[Pinchos, Storgatan 37, Falkenberg]]></name></wpt>
  <wpt lat="57.929187" lon="12.531937"><name><![CDATA[Pinchos, Lilla Torget 3, Alingsås]]></name></wpt>
  <wpt lat="56.040312" lon="12.701688"><name><![CDATA[Pinchos, Södergatan 32, Helsingborg]]></name></wpt>
  <wpt lat="55.870062" lon="12.830938"><name><![CDATA[Pinchos, Rådhusgatan 9, Landskrona]]></name></wpt>
  <wpt lat="56.676063" lon="12.859188"><name><![CDATA[Pinchos, Storgatan 36, Halmstad]]></name></wpt>
  <wpt lat="56.246313" lon="12.864937"><name><![CDATA[Pinchos, Skolgatan 1, Ängelholm]]></name></wpt>
  <wpt lat="57.720562" lon="12.941813"><name><![CDATA[Pinchos, Lilla Brogatan 30, Borås]]></name></wpt>
  <wpt lat="55.603437" lon="12.996063"><name><![CDATA[Pinchos, Generalsgatan 1, Malmö]]></name></wpt>
  <wpt lat="55.374437" lon="13.152062"><name><![CDATA[Pinchos, Algatan 53, Trelleborg]]></name></wpt>
  <wpt lat="58.507687" lon="13.159187"><name><![CDATA[Pinchos, Fabriksgatan 4, Lidköping]]></name></wpt>
  <wpt lat="61.165762" lon="13.175422"><name><![CDATA[Pinchos, Sälfjällstorget, Sälen]]></name></wpt>
  <wpt lat="55.701313" lon="13.197188"><name><![CDATA[Pinchos, Mårtenstorget 12, Lund]]></name></wpt>
  <wpt lat="59.378687" lon="13.501313"><name><![CDATA[Pinchos, Västra Torggatan 1, Karlstad]]></name></wpt>
  <wpt lat="59.376687" lon="13.507437"><name><![CDATA[Pinchos, Inre Hamn Magasin 1, Karlstad]]></name></wpt>
  <wpt lat="55.429063" lon="13.821188"><name><![CDATA[Pinchos, Hamngatan 5, Ystad]]></name></wpt>
  <wpt lat="58.390062" lon="13.847812"><name><![CDATA[Pinchos, S:t Sigfridsgatan 3, Skövde]]></name></wpt>
  <wpt lat="56.813437" lon="13.905687"><name><![CDATA[Pinchos, Ringvägen 1, Ljungby]]></name></wpt>
  <wpt lat="57.183688" lon="14.037063"><name><![CDATA[Pinchos, Järnvägsgatan 3, Värnamo]]></name></wpt>
  <wpt lat="56.030438" lon="14.156187"><name><![CDATA[Pinchos, Östra Storgatan 30, Kristianstad]]></name></wpt>
  <wpt lat="57.782312" lon="14.171812"><name><![CDATA[Pinchos, Östra Storgatan 16, Jönköping]]></name></wpt>
  <wpt lat="63.175187" lon="14.639938"><name><![CDATA[Pinchos, Thomégränd 18, Östersund]]></name></wpt>
  <wpt lat="58.535438" lon="15.040062"><name><![CDATA[Pinchos, Poppelgatan 1, Motala]]></name></wpt>
  <wpt lat="57.425812" lon="15.082688"><name><![CDATA[Pinchos, Bangårdsgatan 9a, Vetlanda]]></name></wpt>
  <wpt lat="59.269188" lon="15.209062"><name><![CDATA[Pinchos, Drottninggatan 38, Örebro]]></name></wpt>
  <wpt lat="60.487437" lon="15.435063"><name><![CDATA[Pinchos, Borganäsvägen 48, Borlänge]]></name></wpt>
  <wpt lat="56.162188" lon="15.587563"><name><![CDATA[Pinchos, Ronnebygatan 38, Karlskrona]]></name></wpt>
  <wpt lat="58.410937" lon="15.626188"><name><![CDATA[Pinchos, Storgatan 30, Linköping]]></name></wpt>
  <wpt lat="60.605688" lon="15.634937"><name><![CDATA[Pinchos, Trotzgatan 3, Falun]]></name></wpt>
  <wpt lat="58.591812" lon="16.177687"><name><![CDATA[Pinchos, Kungsgatan 30, Norrköping]]></name></wpt>
  <wpt lat="58.995062" lon="16.207062"><name><![CDATA[Pinchos, Hantverkaregatan 2, Katrineholm]]></name></wpt>
  <wpt lat="56.663062" lon="16.363312"><name><![CDATA[Pinchos, Kaggensgatan 16, Kalmar]]></name></wpt>
  <wpt lat="61.347687" lon="16.395437"><name><![CDATA[Pinchos, Nygatan 7, Bollnäs]]></name></wpt>
  <wpt lat="57.264437" lon="16.447313"><name><![CDATA[Pinchos, Västra Torggatan 8a, Oskarshamn]]></name></wpt>
  <wpt lat="59.370812" lon="16.516562"><name><![CDATA[Pinchos, Rademarchergatan 6, Eskilstuna]]></name></wpt>
  <wpt lat="59.610563" lon="16.541562"><name><![CDATA[Pinchos, Stora Torget 5, Västerås]]></name></wpt>
  <wpt lat="57.758562" lon="16.638188"><name><![CDATA[Pinchos, Storgatan 16, Västervik]]></name></wpt>
  <wpt lat="58.749562" lon="16.989312"><name><![CDATA[Pinchos, Norrköpingsvägen 13, Nyköping]]></name></wpt>
  <wpt lat="59.635813" lon="17.076687"><name><![CDATA[Pinchos, Källgatan 15, Enköping]]></name></wpt>
  <wpt lat="61.729188" lon="17.108688"><name><![CDATA[Pinchos, Trädgårdsgatan 7, Hudiksvall]]></name></wpt>
  <wpt lat="60.676063" lon="17.149563"><name><![CDATA[Pinchos, Centralplan 5, Gävle]]></name></wpt>
  <wpt lat="62.389312" lon="17.307187"><name><![CDATA[Pinchos, Esplanaden 12, Sundsvall]]></name></wpt>
  <wpt lat="59.195062" lon="17.628437"><name><![CDATA[Pinchos, Storgatan 2a, Södertälje]]></name></wpt>
  <wpt lat="59.860687" lon="17.636938"><name><![CDATA[Pinchos, Klostergatan 6-8, Uppsala]]></name></wpt>
  <wpt lat="59.875438" lon="17.674563"><name><![CDATA[Pinchos, Marknadsgatan 3j, Gränby]]></name></wpt>
  <wpt lat="59.362063" lon="17.966563"><name><![CDATA[Pinchos, Sundbybergs Torg 1, Sundbyberg]]></name></wpt>
  <wpt lat="59.336188" lon="18.028937"><name><![CDATA[Pinchos, Alströmergatan 20, Stockholm]]></name></wpt>
  <wpt lat="59.336562" lon="18.070687"><name><![CDATA[Pinchos, Norrlandsgatan 31-33, Stockholm]]></name></wpt>
  <wpt lat="59.315687" lon="18.085187"><name><![CDATA[Pinchos, Folkungagatan 105, Stockholm]]></name></wpt>
  <wpt lat="59.302813" lon="18.094563"><name><![CDATA[Pinchos, Heliosgången 2, Stockholm]]></name></wpt>
  <wpt lat="57.634937" lon="18.291688"><name><![CDATA[Pinchos, Södertorg 16, Visby]]></name></wpt>
  <wpt lat="59.757438" lon="18.705438"><name><![CDATA[Pinchos, Lilla Brogatan 4, Norrtälje]]></name></wpt>
  <wpt lat="63.287188" lon="18.719687"><name><![CDATA[Pinchos, Nygatan 2a, Örnsköldsvik]]></name></wpt>
  <wpt lat="63.826437" lon="20.258563"><name><![CDATA[Pinchos, Kungsgatan 48, Umeå]]></name></wpt>
  <wpt lat="64.750438" lon="20.958813"><name><![CDATA[Pinchos, Nygatan 63, Skellefteå]]></name></wpt>
  <wpt lat="65.316187" lon="21.482312"><name><![CDATA[Pinchos, Storgatan 39, Piteå]]></name></wpt>
  <wpt lat="65.583812" lon="22.150312"><name><![CDATA[Pinchos, Storgatan 30, Luleå]]></name></wpt>
</gpx>