<?xml version="1.0" encoding="UTF-8"?>
<!-- Source: https://github.com/cisene/se-poi -->
<gpx creator="se-poi" xmlns="http://www.topografix.com/GPX/1/1" xmlns:xsi="http://www.w3.org/2001/XMLSchema-instance" xsi:schemaLocation="http://www.topografix.com/GPX/1/1 http://www.topografix.com/GPX/1/1/gpx.xsd" version="1.1">
  <metadata>
    <name><![CDATA[Rituals]]></name>
    <desc><![CDATA[Koordinater - Rituals]]></desc>
    <link href="https://www.rituals.com/">
      <text><![CDATA[Rituals]]></text>
       <type>text/html</type>
    </link>
   <time>2023-08-28T18:31:35+02:00</time>
  </metadata>
  <bounds minlat="55.564812" minlon="11.207734" maxlat="65.584563" maxlon="22.150188" />
  <wpt lat="59.064087" lon="11.207734"><name><![CDATA[Rituals Strömstad Nordby, Strömstad]]></name></wpt>
  <wpt lat="58.354312" lon="11.810437"><name><![CDATA[Rituals Uddevalla Torp Köpcentrum, Uddevalla]]></name></wpt>
  <wpt lat="57.651562" lon="11.911437"><name><![CDATA[Rituals Göteborg Frölunda Torg, Västra Frölunda]]></name></wpt>
  <wpt lat="57.704563" lon="11.967562"><name><![CDATA[Rituals Göteborg Kungsgatan, Göteborg]]></name></wpt>
  <wpt lat="57.872563" lon="11.968359"><name><![CDATA[Rituals Kungälv Kongahälla Center, Kungälv]]></name></wpt>
  <wpt lat="57.708562" lon="11.969563"><name><![CDATA[Rituals Göteborg Nordstan, Göteborg]]></name></wpt>
  <wpt lat="57.655187" lon="12.013938"><name><![CDATA[Rituals Mölndal Galleria, Möndal]]></name></wpt>
  <wpt lat="57.492688" lon="12.074484"><name><![CDATA[Rituals Kungsbacka Kungsmässan, Kungsbacka]]></name></wpt>
  <wpt lat="57.738088" lon="12.105734"><name><![CDATA[Rituals Göteborg Allum, Partille]]></name></wpt>
  <wpt lat="57.106188" lon="12.248437"><name><![CDATA[Rituals Varberg Galleria Trädgården, Varberg]]></name></wpt>
  <wpt lat="58.312438" lon="12.306188"><name><![CDATA[Rituals Trollhättan SIBA-Huset, Trollhättan]]></name></wpt>
  <wpt lat="56.047687" lon="12.694187"><name><![CDATA[Rituals Helsingborg Kullagatan, Helsingborg]]></name></wpt>
  <wpt lat="56.091313" lon="12.756937"><name><![CDATA[Rituals Ödåkra Väla Centrum, Ödåkra]]></name></wpt>
  <wpt lat="56.674563" lon="12.856438"><name><![CDATA[Rituals Halmstad Brogatan, Halmstad]]></name></wpt>
  <wpt lat="56.656188" lon="12.908687"><name><![CDATA[Rituals Halmstad Hallarna, Halmstad]]></name></wpt>
  <wpt lat="57.719938" lon="12.939063"><name><![CDATA[Rituals Borås Pallas Shopping, Borås]]></name></wpt>
  <wpt lat="55.564812" lon="12.973063"><name><![CDATA[Rituals Malmö Emporia, Malmö]]></name></wpt>
  <wpt lat="55.769437" lon="12.989062"><name><![CDATA[Rituals Löddeköpinge Center Syd, Löddeköpinge]]></name></wpt>
  <wpt lat="55.595687" lon="13.002063"><name><![CDATA[Rituals Malmö Triangeln, Malmö]]></name></wpt>
  <wpt lat="55.582138" lon="13.004359"><name><![CDATA[Rituals Malmö Mobilia Galleria, Malmö]]></name></wpt>
  <wpt lat="55.713962" lon="13.159922"><name><![CDATA[Rituals Nova Lund, Lund]]></name></wpt>
  <wpt lat="55.703137" lon="13.190516"><name><![CDATA[Rituals Lund City, Lund]]></name></wpt>
  <wpt lat="59.376013" lon="13.426922"><name><![CDATA[Rituals Karlstad Bergvik Galleria, Karlstad]]></name></wpt>
  <wpt lat="59.379837" lon="13.500547"><name><![CDATA[Rituals Karlstad Mitt i City, Karlstad]]></name></wpt>
  <wpt lat="58.390563" lon="13.844812"><name><![CDATA[Rituals Skövde Commerce, Skövde]]></name></wpt>
  <wpt lat="56.030687" lon="14.158687"><name><![CDATA[Rituals Kristianstad Boulevard, Kristianstad]]></name></wpt>
  <wpt lat="57.782562" lon="14.172313"><name><![CDATA[Rituals Jönköping Östra Storgatan, Jönköping]]></name></wpt>
  <wpt lat="57.773688" lon="14.203672"><name><![CDATA[Rituals Jönköping Asecs, Jönköping]]></name></wpt>
  <wpt lat="56.025937" lon="14.206188"><name><![CDATA[Rituals Kristianstad C4, Kristianstad]]></name></wpt>
  <wpt lat="63.176313" lon="14.638312"><name><![CDATA[Rituals Östersund Kärnan, Östersund]]></name></wpt>
  <wpt lat="56.884812" lon="14.766312"><name><![CDATA[Rituals Växjö Grand Samarkand, Växjö Grand Samarkand]]></name></wpt>
  <wpt lat="56.879312" lon="14.800562"><name><![CDATA[Rituals Växjö Tegnér, Växjö]]></name></wpt>
  <wpt lat="59.217312" lon="15.137438"><name><![CDATA[Rituals Örebro Marieberg, Örebro]]></name></wpt>
  <wpt lat="59.269913" lon="15.210672"><name><![CDATA[Rituals Örebro Vågen, Örebro]]></name></wpt>
  <wpt lat="60.484313" lon="15.418188"><name><![CDATA[Rituals Borlänge Kupolen, Borlänge]]></name></wpt>
  <wpt lat="58.433537" lon="15.585453"><name><![CDATA[Rituals Linköping I-Huset, Linköping]]></name></wpt>
  <wpt lat="56.162063" lon="15.589562"><name><![CDATA[Rituals Karlskrona Ronnebygatan, Karlskrona]]></name></wpt>
  <wpt lat="58.410187" lon="15.623563"><name><![CDATA[Rituals Linköping Tanneforsgatan, Linköping]]></name></wpt>
  <wpt lat="60.605563" lon="15.632062"><name><![CDATA[Rituals Falun Bergströms Galleria, Falun]]></name></wpt>
  <wpt lat="58.618688" lon="16.156562"><name><![CDATA[Rituals Norrköping Ingelsta, Norrköping]]></name></wpt>
  <wpt lat="58.587937" lon="16.190062"><name><![CDATA[Rituals Norrköping Linden, Norrköping]]></name></wpt>
  <wpt lat="56.660663" lon="16.365172"><name><![CDATA[Rituals Kalmar Baronen, Kalmar]]></name></wpt>
  <wpt lat="59.609562" lon="16.454062"><name><![CDATA[Rituals Västerås Erikslund, Västerås]]></name></wpt>
  <wpt lat="59.371562" lon="16.468812"><name><![CDATA[Rituals Eskilstuna Tunapark, Eskilstuna]]></name></wpt>
  <wpt lat="59.611537" lon="16.543984"><name><![CDATA[Rituals Västerås Igor Gallerian, Västerås]]></name></wpt>
  <wpt lat="60.633687" lon="16.993172"><name><![CDATA[Rituals Gävle Valbo Köpcentrum, Valbo]]></name></wpt>
  <wpt lat="58.751687" lon="17.003813"><name><![CDATA[Rituals Nyköping Västerport, Nyköping]]></name></wpt>
  <wpt lat="60.673938" lon="17.139812"><name><![CDATA[Rituals Gävle Gallerian Nian, Gävle]]></name></wpt>
  <wpt lat="62.446938" lon="17.335938"><name><![CDATA[Rituals Sundsvall Birsta, Sundsvall]]></name></wpt>
  <wpt lat="59.195937" lon="17.628188"><name><![CDATA[Rituals Södertälje Kringlan, Södertälje]]></name></wpt>
  <wpt lat="59.860062" lon="17.636437"><name><![CDATA[Rituals Uppsala St Per Gallerian, Uppsala]]></name></wpt>
  <wpt lat="59.858087" lon="17.641484"><name><![CDATA[Rituals Uppsala Forumgallerian, Uppsala]]></name></wpt>
  <wpt lat="59.877063" lon="17.673938"><name><![CDATA[Rituals Uppsala Gränbystaden, Uppsala]]></name></wpt>
  <wpt lat="59.275813" lon="17.907812"><name><![CDATA[Rituals Stockholm Skärholmen, Skärholmen]]></name></wpt>
  <wpt lat="59.269437" lon="17.916812"><name><![CDATA[Rituals Stockholm Kungens Kurva, Kungens Kurva]]></name></wpt>
  <wpt lat="59.402812" lon="17.944938"><name><![CDATA[Rituals Stockholm Kista Galleria, Kista]]></name></wpt>
  <wpt lat="59.428562" lon="17.951188"><name><![CDATA[Rituals Stockholm Sollentuna Centrum, Sollentuna]]></name></wpt>
  <wpt lat="59.369187" lon="18.005313"><name><![CDATA[Rituals Stockholm Mall of Scandinavia, Solna]]></name></wpt>
  <wpt lat="59.309613" lon="18.021578"><name><![CDATA[Rituals Stockholm Liljeholmstorget, Stockholm]]></name></wpt>
  <wpt lat="59.334688" lon="18.032312"><name><![CDATA[Rituals Stockholm Västermalmsgallerian, Stockholm]]></name></wpt>
  <wpt lat="59.330488" lon="18.058172"><name><![CDATA[Rituals Stockholm Centralstation, Stockholm]]></name></wpt>
  <wpt lat="59.331437" lon="18.067563"><name><![CDATA[Rituals Stockholm Gallerian, Stockholm]]></name></wpt>
  <wpt lat="59.334388" lon="18.068141"><name><![CDATA[Rituals Stockholm Mood, Stockholm]]></name></wpt>
  <wpt lat="59.445062" lon="18.071688"><name><![CDATA[Rituals Stockholm Täby Centrum, Täby]]></name></wpt>
  <wpt lat="59.312062" lon="18.073937"><name><![CDATA[Rituals Stockholm Skrapan, Stockholm]]></name></wpt>
  <wpt lat="59.336213" lon="18.074141"><name><![CDATA[Rituals Stockholm Sturegallerian, Stockholm]]></name></wpt>
  <wpt lat="59.338812" lon="18.090938"><name><![CDATA[Rituals Stockholm Fältöversten, Stockholm]]></name></wpt>
  <wpt lat="59.243063" lon="18.091313"><name><![CDATA[Rituals Stockholm Farsta Centrum, Farsta]]></name></wpt>
  <wpt lat="59.305913" lon="18.124641"><name><![CDATA[Rituals Nacka Sickla Köpkvarter, Nacka]]></name></wpt>
  <wpt lat="59.310063" lon="18.164813"><name><![CDATA[Rituals Stockholm Nacka Forum, Nacka]]></name></wpt>
  <wpt lat="59.244888" lon="18.229078"><name><![CDATA[Rituals Tyresö Centrum, Tyresö]]></name></wpt>
  <wpt lat="57.637687" lon="18.301437"><name><![CDATA[Rituals Visby Galleria, Visby]]></name></wpt>
  <wpt lat="63.291187" lon="18.714813"><name><![CDATA[Rituals Örnsköldsvik Oskargallerian, Örnsköldsvik]]></name></wpt>
  <wpt lat="63.806812" lon="20.255313"><name><![CDATA[Rituals Umeå Avion Shopping, Umeå]]></name></wpt>
  <wpt lat="63.825688" lon="20.264688"><name><![CDATA[Rituals Umeå Utopia, Umeå]]></name></wpt>
  <wpt lat="64.750062" lon="20.954437"><name><![CDATA[Rituals Skellefteå Citykompaniet, Skellefteå]]></name></wpt>
  <wpt lat="65.584563" lon="22.150188"><name><![CDATA[Rituals Luleå Strandgallerian, Luleå]]></name></wpt>
</gpx>