<?xml version="1.0" encoding="UTF-8"?>
<!-- Source: https://github.com/cisene/se-poi -->
<gpx creator="se-poi" xmlns="http://www.topografix.com/GPX/1/1" xmlns:xsi="http://www.w3.org/2001/XMLSchema-instance" xsi:schemaLocation="http://www.topografix.com/GPX/1/1 http://www.topografix.com/GPX/1/1/gpx.xsd" version="1.1">
  <metadata>
    <name><![CDATA[Grundskolor Piteå Kommun]]></name>
    <desc><![CDATA[Koordinater - Grundskolor Piteå Kommun]]></desc>
    <link href="https://www.pitea.se/">
      <text><![CDATA[Grundskolor Piteå Kommun]]></text>
       <type>text/html</type>
    </link>
   <time>2023-08-28T18:09:25+02:00</time>
  </metadata>
  <bounds minlat="59.728813" minlon="13.138063" maxlat="65.533062" maxlon="21.692188" />
  <wpt lat="59.728813" lon="13.138063"><name><![CDATA[Svensby skola, Svensby]]></name></wpt>
  <wpt lat="65.533062" lon="21.198563"><name><![CDATA[I ur och skur - Forsen, Sikfors]]></name></wpt>
  <wpt lat="65.344813" lon="21.240437"><name><![CDATA[Sjulnässkolan, Sjulsnäs]]></name></wpt>
  <wpt lat="65.223062" lon="21.285438"><name><![CDATA[Dalbackens Friskola, Hemmingsmark]]></name></wpt>
  <wpt lat="65.385562" lon="21.310938"><name><![CDATA[Böle skola, Piteå]]></name></wpt>
  <wpt lat="65.307937" lon="21.381813"><name><![CDATA[Tolvmans Friskola, Bergsviken]]></name></wpt>
  <wpt lat="65.303438" lon="21.392688"><name><![CDATA[Bergsviksskolan, Bergsviken]]></name></wpt>
  <wpt lat="65.343187" lon="21.400062"><name><![CDATA[Björklundaskolan, Öjebyn]]></name></wpt>
  <wpt lat="65.345187" lon="21.402687"><name><![CDATA[Solanderskolan, Öjebyn]]></name></wpt>
  <wpt lat="65.285938" lon="21.408313"><name><![CDATA[Hortlax skola, Hortlax]]></name></wpt>
  <wpt lat="65.326437" lon="21.408687"><name><![CDATA[Kullenskolan, Piteå]]></name></wpt>
  <wpt lat="65.286812" lon="21.409312"><name><![CDATA[Norrbyskolan, Piteå]]></name></wpt>
  <wpt lat="65.319437" lon="21.459938"><name><![CDATA[Backeskolan, Piteå]]></name></wpt>
  <wpt lat="65.337563" lon="21.471063"><name><![CDATA[Långskataskolan, Piteå]]></name></wpt>
  <wpt lat="65.319563" lon="21.481938"><name><![CDATA[Norrmalmskolan, Piteå]]></name></wpt>
  <wpt lat="65.319437" lon="21.485188"><name><![CDATA[Rönnskolan, Piteå]]></name></wpt>
  <wpt lat="65.319437" lon="21.486312"><name><![CDATA[Christinaskolan, Piteå]]></name></wpt>
  <wpt lat="65.155937" lon="21.486312"><name><![CDATA[Jävre skola, Jävre]]></name></wpt>
  <wpt lat="65.522937" lon="21.488813"><name><![CDATA[Sjulsmarks skola, Sjulsmark]]></name></wpt>
  <wpt lat="65.303313" lon="21.491312"><name><![CDATA[Klubbgärdsskolan, Piteå]]></name></wpt>
  <wpt lat="65.420563" lon="21.491437"><name><![CDATA[Porsnässkolan, Norrfjärden]]></name></wpt>
  <wpt lat="65.280937" lon="21.496313"><name><![CDATA[Munksunds skola, Piteå]]></name></wpt>
  <wpt lat="65.315562" lon="21.497937"><name><![CDATA[Strömbacka Hugin, Piteå]]></name></wpt>
  <wpt lat="65.315562" lon="21.497937"><name><![CDATA[Strömbacka Mjölner, Piteå]]></name></wpt>
  <wpt lat="65.315562" lon="21.497937"><name><![CDATA[Strömbacka Munin, Piteå]]></name></wpt>
  <wpt lat="65.315562" lon="21.497937"><name><![CDATA[Strömbacka Mimer, Piteå]]></name></wpt>
  <wpt lat="65.315562" lon="21.497937"><name><![CDATA[Strömbacka Magne, Piteå]]></name></wpt>
  <wpt lat="65.419562" lon="21.504062"><name><![CDATA[Backgårdsskolan, Norrfjärden]]></name></wpt>
  <wpt lat="65.298312" lon="21.505187"><name><![CDATA[Pitholmsskolan 4-6, Piteå]]></name></wpt>
  <wpt lat="65.298187" lon="21.506062"><name><![CDATA[Pitholmsskolan 7-9, Piteå]]></name></wpt>
  <wpt lat="65.311813" lon="21.506563"><name><![CDATA[Strömnäs skola, Piteå]]></name></wpt>
  <wpt lat="65.426937" lon="21.692188"><name><![CDATA[Rosviks skola, Rosvik]]></name></wpt>
</gpx>