<?xml version="1.0" encoding="UTF-8"?>
<!-- Source: https://github.com/cisene/se-poi -->
<gpx creator="se-poi" xmlns="http://www.topografix.com/GPX/1/1" xmlns:xsi="http://www.w3.org/2001/XMLSchema-instance" xsi:schemaLocation="http://www.topografix.com/GPX/1/1 http://www.topografix.com/GPX/1/1/gpx.xsd" version="1.1">
  <metadata>
    <name><![CDATA[St1 Finland]]></name>
    <desc><![CDATA[Koordinater - St1 Finland]]></desc>
    <link href="https://www.st1.fi/">
      <text><![CDATA[St1 Finland]]></text>
       <type>text/html</type>
    </link>
   <time>2023-08-28T18:09:25+02:00</time>
  </metadata>
  <bounds minlat="59.818409" minlon="19.538994" maxlat="68.654483" maxlon="30.018373" />
  <wpt lat="60.232523" lon="19.538994"><name><![CDATA[St1 Eckerö Käringsund, Eckerö]]></name></wpt>
  <wpt lat="60.223385" lon="19.559923"><name><![CDATA[St1 Eckerö Eckerövägen, Eckerö]]></name></wpt>
  <wpt lat="60.099042" lon="19.923912"><name><![CDATA[St1 Maarianhamina ÅSS Marina, Mariehamn]]></name></wpt>
  <wpt lat="60.129977" lon="19.933324"><name><![CDATA[St1 Jomala Sparmacken, Jomala]]></name></wpt>
  <wpt lat="60.133125" lon="19.934349"><name><![CDATA[St1 Jomala Kantarellen, Jomala]]></name></wpt>
  <wpt lat="60.125795" lon="19.936487"><name><![CDATA[St1 TS Maarianhamina Vikingagränd, Mariehamn]]></name></wpt>
  <wpt lat="60.106899" lon="19.941853"><name><![CDATA[St1 Maarianhamina Strandgatan, Mariehamn]]></name></wpt>
  <wpt lat="60.106917" lon="19.941903"><name><![CDATA[St1 Veneasema Maarianhamina ÅSS Mariehamn, Mariehamn]]></name></wpt>
  <wpt lat="60.089633" lon="19.956765"><name><![CDATA[St1 Småbåtsvarvet, Mariehamn]]></name></wpt>
  <wpt lat="60.089633" lon="19.956765"><name><![CDATA[St1 Småbåtsvarvet (AUT), Mariehamn]]></name></wpt>
  <wpt lat="60.229354" lon="19.987731"><name><![CDATA[St1 Automat Finström Godby, Godby]]></name></wpt>
  <wpt lat="60.229354" lon="19.987731"><name><![CDATA[St1 Finström Godby HelmiSimpukkaExpress, Godby]]></name></wpt>
  <wpt lat="60.071136" lon="20.084693"><name><![CDATA[St1 Lemland, Lemland]]></name></wpt>
  <wpt lat="60.257335" lon="20.73817"><name><![CDATA[St1 Kumlinge Gästhamn, Kumlinge]]></name></wpt>
  <wpt lat="62.478884" lon="21.373225"><name><![CDATA[St1 Automaatti Närpiö, Närpiö as]]></name></wpt>
  <wpt lat="60.80253" lon="21.465037"><name><![CDATA[St1 Uusikaupunki, Uusikaupunki]]></name></wpt>
  <wpt lat="61.123872" lon="21.503358"><name><![CDATA[St1 Rauma Nortamonkatu, Rauma]]></name></wpt>
  <wpt lat="61.100805" lon="21.506113"><name><![CDATA[St1 Automaatti Rauma Kortela, Rauma]]></name></wpt>
  <wpt lat="63.105869" lon="21.60244"><name><![CDATA[St1 Vaasa Palosaari, Vaasa]]></name></wpt>
  <wpt lat="61.862454" lon="21.639532"><name><![CDATA[St1 Automaatti Merikarvia Tuorila, Tuorila]]></name></wpt>
  <wpt lat="61.365976" lon="21.647449"><name><![CDATA[St1 Luvia, Luvia]]></name></wpt>
  <wpt lat="63.090416" lon="21.68552"><name><![CDATA[St1 Automaatti Vaasa Huutoniemi, Vaasa]]></name></wpt>
  <wpt lat="60.678951" lon="21.708872"><name><![CDATA[St1 Vehmaa Vinkkilä, Vinkkilä]]></name></wpt>
  <wpt lat="60.613113" lon="21.710883"><name><![CDATA[St1 Vehmaa Rautila, Rautila]]></name></wpt>
  <wpt lat="61.47993" lon="21.760817"><name><![CDATA[St1 Automaatti Pori Musa, Pori]]></name></wpt>
  <wpt lat="61.498477" lon="21.806534"><name><![CDATA[St1 Automaatti Pori Toejoki, Pori]]></name></wpt>
  <wpt lat="63.155922" lon="21.821482"><name><![CDATA[St1 Koivulahti, Koivulahti]]></name></wpt>
  <wpt lat="61.451295" lon="21.835368"><name><![CDATA[St1 Automaatti Pori Mikkola, Pori]]></name></wpt>
  <wpt lat="61.428474" lon="21.875835"><name><![CDATA[St1 Automaatti Ulvila, Ulvila]]></name></wpt>
  <wpt lat="60.683779" lon="21.990002"><name><![CDATA[St1 Mynämäki, Mynämäki]]></name></wpt>
  <wpt lat="61.364618" lon="22.005934"><name><![CDATA[St1 Automaatti Nakkila, Nakkila]]></name></wpt>
  <wpt lat="61.459181" lon="22.012847"><name><![CDATA[St1 Automaatti Ulvila Kaasmarkku, Kaasmarkku]]></name></wpt>
  <wpt lat="60.466783" lon="22.031035"><name><![CDATA[St1 Naantali Alppilankatu, Naantali]]></name></wpt>
  <wpt lat="60.505982" lon="22.134821"><name><![CDATA[St1 Automaatti Raisio Petäsmäki, Raisio]]></name></wpt>
  <wpt lat="61.3107" lon="22.134883"><name><![CDATA[St1 Automaatti Harjavalta, Harjavalta]]></name></wpt>
  <wpt lat="61.121897" lon="22.139193"><name><![CDATA[St1 Eura, Eura]]></name></wpt>
  <wpt lat="60.484772" lon="22.171106"><name><![CDATA[St1 Raisio Keskusta, Raisio]]></name></wpt>
  <wpt lat="60.49294" lon="22.20306"><name><![CDATA[St1 Automaatti Raisio Hauninen, Raisio]]></name></wpt>
  <wpt lat="60.493483" lon="22.223366"><name><![CDATA[St1 Automaatti Raisio Kuninkoja, Raisio]]></name></wpt>
  <wpt lat="60.47234" lon="22.226729"><name><![CDATA[St1 Automaatti Turku Länsikeskus, Turku]]></name></wpt>
  <wpt lat="60.418768" lon="22.229322"><name><![CDATA[St1 Automaatti Turku Hirvensalo, Turku]]></name></wpt>
  <wpt lat="62.454842" lon="22.232167"><name><![CDATA[St1 Kauhajoki As, Kauhajoki as]]></name></wpt>
  <wpt lat="61.991969" lon="22.242753"><name><![CDATA[St1 Honkajoki, Honkajoki]]></name></wpt>
  <wpt lat="60.436048" lon="22.24882"><name><![CDATA[St1 Turku Stålarminkatu 32, Turku]]></name></wpt>
  <wpt lat="60.445487" lon="22.284198"><name><![CDATA[St1 Automaatti Turku Kupittaa, Turku]]></name></wpt>
  <wpt lat="60.305826" lon="22.300666"><name><![CDATA[St1 Automaatti Parainen Rantatie, Parainen]]></name></wpt>
  <wpt lat="60.533557" lon="22.306038"><name><![CDATA[St1 Automaatti Turku Moisio, Turku]]></name></wpt>
  <wpt lat="61.25532" lon="22.344428"><name><![CDATA[St1 Automaatti Kokemäki, Kokemäki]]></name></wpt>
  <wpt lat="60.469268" lon="22.355846"><name><![CDATA[St1 Automaatti Kaarina, Turku]]></name></wpt>
  <wpt lat="60.338149" lon="22.365263"><name><![CDATA[St1 Automaatti Parainen Lielahti, Kirjala]]></name></wpt>
  <wpt lat="63.304341" lon="22.378797"><name><![CDATA[St1 Oravainen HelmiSimpukkaExpress, Oravainen]]></name></wpt>
  <wpt lat="63.304347" lon="22.378881"><name><![CDATA[St1 Automaatti Vöyri Oravainen, Oravainen]]></name></wpt>
  <wpt lat="61.813386" lon="22.379368"><name><![CDATA[St1 Kankaanpää, Kankaanpää]]></name></wpt>
  <wpt lat="60.444883" lon="22.392716"><name><![CDATA[St1 Automaatti Littoinen, Littoinen]]></name></wpt>
  <wpt lat="62.613963" lon="22.395784"><name><![CDATA[St1 Automaatti Kurikka Saumantie (ent. keskusta), Kurikka]]></name></wpt>
  <wpt lat="60.876975" lon="22.396458"><name><![CDATA[St1 Automaatti Yläne, Yläne]]></name></wpt>
  <wpt lat="60.465311" lon="22.413675"><name><![CDATA[St1 Automaatti Lieto, Lieto]]></name></wpt>
  <wpt lat="62.93554" lon="22.51051"><name><![CDATA[St1 Automaatti Ylistaro, Ylistaro]]></name></wpt>
  <wpt lat="62.93576" lon="22.51078"><name><![CDATA[St1 Ylistaro Kk Helmisimpukka Express, Ylistaro]]></name></wpt>
  <wpt lat="62.140106" lon="22.563141"><name><![CDATA[St1 Karvia, Karvia]]></name></wpt>
  <wpt lat="62.733309" lon="22.581652"><name><![CDATA[St1 Automaatti Ilmajoki, Ilmajoki]]></name></wpt>
  <wpt lat="63.678419" lon="22.737528"><name><![CDATA[St1 Automaatti Pietarsaari Vaunusepäntie, Pietarsaari]]></name></wpt>
  <wpt lat="60.167531" lon="22.737732"><name><![CDATA[St1 Kemiö, Kimito, Kemiö]]></name></wpt>
  <wpt lat="60.70775" lon="22.742434"><name><![CDATA[St1 Automaatti Pöytyä Kyrö Sahantie, Kyrö]]></name></wpt>
  <wpt lat="60.70775" lon="22.742434"><name><![CDATA[St1 TS Pöytyä Kyrö Sahantie, Kyrö]]></name></wpt>
  <wpt lat="60.70226" lon="22.761406"><name><![CDATA[St1 Pöytyä Kyrö Ollilantie, Kyrö]]></name></wpt>
  <wpt lat="62.792028" lon="22.808065"><name><![CDATA[St1 Automaatti Seinäjoki Jouppi, Seinäjoki]]></name></wpt>
  <wpt lat="62.799872" lon="22.846378"><name><![CDATA[St1 Automaatti Seinäjoki Itikka, Seinäjoki]]></name></wpt>
  <wpt lat="63.238978" lon="22.846851"><name><![CDATA[St1 Automaatti Kauhava Alahärmä, Härmä]]></name></wpt>
  <wpt lat="62.792224" lon="22.869643"><name><![CDATA[St1 Automaatti Seinäjoki Päivölänkatu, Seinäjoki]]></name></wpt>
  <wpt lat="62.773231" lon="22.877849"><name><![CDATA[St1 Automaatti Seinäjoki Kasperi, Seinäjoki]]></name></wpt>
  <wpt lat="62.807083" lon="22.880552"><name><![CDATA[St1 Seinäjoki Nurmo, Hyllykallio]]></name></wpt>
  <wpt lat="61.332664" lon="22.920724"><name><![CDATA[St1 Automaatti Sastamala Vammala, Sastamala]]></name></wpt>
  <wpt lat="59.842365" lon="22.947646"><name><![CDATA[St1 Veneasema Hanko Hangonkylä, Hanko]]></name></wpt>
  <wpt lat="59.825083" lon="22.964389"><name><![CDATA[St1 Automaatti Hanko Kauppatori, Hanko]]></name></wpt>
  <wpt lat="59.818409" lon="22.968305"><name><![CDATA[St1 Veneasema Hanko Itäsatama, Hanko]]></name></wpt>
  <wpt lat="62.972209" lon="23.001414"><name><![CDATA[St1 Automaatti Lapua Poutuntie, Lapua]]></name></wpt>
  <wpt lat="62.010803" lon="23.019232"><name><![CDATA[St1 Automaatti Parkano Keskuskatu, Parkano]]></name></wpt>
  <wpt lat="62.97531" lon="23.021693"><name><![CDATA[St1 Automaatti Lapua Keskusta, Lapua]]></name></wpt>
  <wpt lat="60.855789" lon="23.036558"><name><![CDATA[St1 Loimaa, Loimaa]]></name></wpt>
  <wpt lat="61.757138" lon="23.03739"><name><![CDATA[St1 Ikaalinen, Ikaalinen]]></name></wpt>
  <wpt lat="63.094483" lon="23.056181"><name><![CDATA[St1 Automaatti Kauhava, Kauhava]]></name></wpt>
  <wpt lat="63.833826" lon="23.06433"><name><![CDATA[St1 Automaatti Kokkola Koivuhaka, Kokkola]]></name></wpt>
  <wpt lat="60.388787" lon="23.121746"><name><![CDATA[St1 Automaatti Salo Turuntie, Salo]]></name></wpt>
  <wpt lat="60.226" lon="23.122573"><name><![CDATA[St1 Perniö, Perniö]]></name></wpt>
  <wpt lat="63.84907" lon="23.15655"><name><![CDATA[St1 Automaatti Kokkola Rytimäki, Kokkola]]></name></wpt>
  <wpt lat="63.826104" lon="23.159496"><name><![CDATA[St1 Automaatti Kokkola Heinola, Kokkola]]></name></wpt>
  <wpt lat="63.824703" lon="23.160529"><name><![CDATA[St1 TS Kokkola Heinola, Kokkola]]></name></wpt>
  <wpt lat="61.654284" lon="23.175849"><name><![CDATA[St1 Automaatti Hämeenkyrö Nuijamiestentie, Hämeenkyrö]]></name></wpt>
  <wpt lat="60.941071" lon="23.36577"><name><![CDATA[St1 Automaatti Humppila, Humppila]]></name></wpt>
  <wpt lat="59.985058" lon="23.41965"><name><![CDATA[St1 Automaatti Raasepori Tammisaari, Tammisaari]]></name></wpt>
  <wpt lat="63.866539" lon="23.453378"><name><![CDATA[St1 Automaatti Kälviä, Kälviä]]></name></wpt>
  <wpt lat="63.359751" lon="23.467081"><name><![CDATA[St1 Automaatti Evijärvi, Evijärvi]]></name></wpt>
  <wpt lat="61.465181" lon="23.505559"><name><![CDATA[St1 Automaatti Nokia Nuijamiestentie, Nokia]]></name></wpt>
  <wpt lat="60.638228" lon="23.512208"><name><![CDATA[St1 Automaatti Somero, Somero]]></name></wpt>
  <wpt lat="61.479965" lon="23.525576"><name><![CDATA[St1 Automaatti Nokia Yrittäjäkatu, Nokia]]></name></wpt>
  <wpt lat="61.494769" lon="23.533018"><name><![CDATA[St1 Automaatti Nokia Öljytie, Nokia]]></name></wpt>
  <wpt lat="61.716409" lon="23.546944"><name><![CDATA[St1 Automaatti Ylöjärvi Kyrönlahti, Kyrönlahti]]></name></wpt>
  <wpt lat="61.556821" lon="23.563461"><name><![CDATA[St1 Automaatti Ylöjärvi Kumitie, Ylöjärvi]]></name></wpt>
  <wpt lat="61.503263" lon="23.578587"><name><![CDATA[St1 Automaatti Tampere Myllypuro, Tampere]]></name></wpt>
  <wpt lat="68.385781" lon="23.603238"><name><![CDATA[St1 Enontekiö, Enontekiö]]></name></wpt>
  <wpt lat="60.802995" lon="23.607365"><name><![CDATA[St1 Automaatti Forssa, Forssa]]></name></wpt>
  <wpt lat="63.231857" lon="23.628975"><name><![CDATA[St1 Lappajärvi, Lappajärvi]]></name></wpt>
  <wpt lat="61.293937" lon="23.638029"><name><![CDATA[St1 Automaatti Vesilahti, Vesilahti]]></name></wpt>
  <wpt lat="61.517971" lon="23.658232"><name><![CDATA[St1 Automaatti Tampere Lielahti, Tampere]]></name></wpt>
  <wpt lat="61.469373" lon="23.684664"><name><![CDATA[St1 Pirkkala, Pirkkala]]></name></wpt>
  <wpt lat="63.549851" lon="23.686992"><name><![CDATA[St1 Automaatti Kaustinen, Kaustinen]]></name></wpt>
  <wpt lat="61.458656" lon="23.762324"><name><![CDATA[St1 Automaatti Tampere Lakalaiva, Tampere]]></name></wpt>
  <wpt lat="61.478489" lon="23.766414"><name><![CDATA[St1 Automaatti Tampere Hatanpää, Tampere]]></name></wpt>
  <wpt lat="61.381215" lon="23.780779"><name><![CDATA[St1 Automaatti Lempäälä Kulju, Lempäälä]]></name></wpt>
  <wpt lat="67.34779" lon="23.826813"><name><![CDATA[St1 Automaatti Kolari, Kolari]]></name></wpt>
  <wpt lat="61.503765" lon="23.861198"><name><![CDATA[St1 Automaatti Tampere Pappila, Tampere]]></name></wpt>
  <wpt lat="61.615235" lon="23.875897"><name><![CDATA[St1 Automaatti Tampere Kämmenniemi, Kämmenniemi]]></name></wpt>
  <wpt lat="59.97706" lon="23.876077"><name><![CDATA[St1 Veneasema Inkoo Barösund, Barösund]]></name></wpt>
  <wpt lat="61.318533" lon="23.912824"><name><![CDATA[St1 Automaatti Lempäälä Helsingintie, Lempäälä]]></name></wpt>
  <wpt lat="60.37988" lon="23.958821"><name><![CDATA[St1 Lohja Saukkola, Saukkola]]></name></wpt>
  <wpt lat="60.178419" lon="23.997878"><name><![CDATA[St1 Lohja Virkkala, Lohja]]></name></wpt>
  <wpt lat="60.227881" lon="24.021006"><name><![CDATA[St1 Automaatti Lohja Ojamo, Lohja]]></name></wpt>
  <wpt lat="60.060664" lon="24.024099"><name><![CDATA[St1 Automaatti Inkoo, Inkoo]]></name></wpt>
  <wpt lat="61.471561" lon="24.031466"><name><![CDATA[St1 Automaatti Kangasala Kt 921, Kangasala]]></name></wpt>
  <wpt lat="61.465013" lon="24.056551"><name><![CDATA[St1 Automaatti Kangasala Kt 1070, Kangasala]]></name></wpt>
  <wpt lat="60.385208" lon="24.083241"><name><![CDATA[St1 Automaatti Lohja Koisjärvi, Koisjärvi]]></name></wpt>
  <wpt lat="65.91532" lon="24.136817"><name><![CDATA[St1 Automaatti Tornio Vojakkala, Tornio]]></name></wpt>
  <wpt lat="61.096838" lon="24.159549"><name><![CDATA[St1 Automaatti Hämeenlinna Iittala, Iittala]]></name></wpt>
  <wpt lat="65.8442" lon="24.177447"><name><![CDATA[St1 Automaatti Tornio Torpinkatu, Tornio]]></name></wpt>
  <wpt lat="62.872587" lon="24.208524"><name><![CDATA[St1 Soini Multiantie, Soini]]></name></wpt>
  <wpt lat="60.901204" lon="24.291189"><name><![CDATA[St1 Automaatti Hämeenlinna Renko, Renko]]></name></wpt>
  <wpt lat="60.333562" lon="24.334151"><name><![CDATA[St1 Automaatti Vihti Nummela, Nummela]]></name></wpt>
  <wpt lat="61.692415" lon="24.355999"><name><![CDATA[St1 Automaatti Orivesi, Orivesi]]></name></wpt>
  <wpt lat="61.785524" lon="24.391388"><name><![CDATA[St1 Automaatti Korkeakoski Juupajoki, Korkeakoski]]></name></wpt>
  <wpt lat="61.008052" lon="24.418029"><name><![CDATA[St1 Automaatti Hämeenlinna Tiiriö, Hämeenlinna]]></name></wpt>
  <wpt lat="63.212107" lon="24.424931"><name><![CDATA[St1 Perho, Perho]]></name></wpt>
  <wpt lat="60.267992" lon="24.458829"><name><![CDATA[St1 Automaatti Kirkkonummi Veikkola, Veikkola]]></name></wpt>
  <wpt lat="64.682486" lon="24.481392"><name><![CDATA[St1 Automaatti Raahe, Raahe]]></name></wpt>
  <wpt lat="62.021308" lon="24.503717"><name><![CDATA[St1 Vilppula, Vilppula]]></name></wpt>
  <wpt lat="60.153897" lon="24.539083"><name><![CDATA[St1 Automaatti Kirkkonummi Masala, Masala]]></name></wpt>
  <wpt lat="65.76405" lon="24.564046"><name><![CDATA[St1 Automaatti Kemi Paattio, Kemi]]></name></wpt>
  <wpt lat="65.742417" lon="24.575509"><name><![CDATA[St1 Automaatti Kemi Karjalahti, Kemi]]></name></wpt>
  <wpt lat="65.728401" lon="24.584912"><name><![CDATA[St1 Automaatti Kemi Syväkangas, Kemi]]></name></wpt>
  <wpt lat="60.238144" lon="24.594779"><name><![CDATA[St1 Automaatti Espoo Nupuri, Espoo]]></name></wpt>
  <wpt lat="61.361779" lon="24.642188"><name><![CDATA[St1 Automaatti Pälkäne Luopioinen, Luopioinen]]></name></wpt>
  <wpt lat="60.173696" lon="24.661651"><name><![CDATA[St1 Automaatti Espoo Latokaski, Espoo]]></name></wpt>
  <wpt lat="60.141986" lon="24.671295"><name><![CDATA[St1 Automaatti Espoo Soukka, Espoo]]></name></wpt>
  <wpt lat="60.222806" lon="24.672498"><name><![CDATA[St1 Espoo Bemböle, Espoo]]></name></wpt>
  <wpt lat="60.159764" lon="24.693095"><name><![CDATA[St1 Automaatti Espoo Suomenoja, Espoo]]></name></wpt>
  <wpt lat="62.258124" lon="24.698652"><name><![CDATA[St1 Automaatti Keuruu, Keuruu]]></name></wpt>
  <wpt lat="60.240468" lon="24.699875"><name><![CDATA[St1 Automaatti Espoo Auroranportti, Espoo]]></name></wpt>
  <wpt lat="60.240178" lon="24.741577"><name><![CDATA[St1 Automaatti Espoo Lähderanta, Espoo]]></name></wpt>
  <wpt lat="60.377086" lon="24.758007"><name><![CDATA[St1 Automaatti Nurmijärvi Klaukkala, Klaukkala]]></name></wpt>
  <wpt lat="60.180277" lon="24.760329"><name><![CDATA[St1 Automaatti Espoo Olarinluoma, Espoo]]></name></wpt>
  <wpt lat="60.194117" lon="24.768124"><name><![CDATA[St1 Automaatti Espoo Mankkaa, Espoo]]></name></wpt>
  <wpt lat="60.747747" lon="24.780808"><name><![CDATA[St1 Automaatti Riihimäki Petsamo, Riihimäki]]></name></wpt>
  <wpt lat="60.277316" lon="24.811626"><name><![CDATA[St1 Automaatti Vantaa Petikko, Vantaa]]></name></wpt>
  <wpt lat="60.219825" lon="24.820869"><name><![CDATA[St1 Automaatti Espoo Leppävaara, Espoo]]></name></wpt>
  <wpt lat="60.253471" lon="24.822447"><name><![CDATA[St1 Automaatti Vantaa Rajatorppa, Vantaa]]></name></wpt>
  <wpt lat="60.45797" lon="24.82756"><name><![CDATA[St1 Automaatti Nurmijärvi Kauppanummenkuja, Nurmijärvi]]></name></wpt>
  <wpt lat="60.605367" lon="24.866653"><name><![CDATA[St1 Automaatti Hyvinkää Hakakallio, Hyvinkää]]></name></wpt>
  <wpt lat="60.2444" lon="24.889543"><name><![CDATA[St1 Automaatti Helsinki Kannelmäki, Helsinki]]></name></wpt>
  <wpt lat="60.1498" lon="24.89215"><name><![CDATA[St1 Veneasema Helsinki Lauttasaari, Helsinki]]></name></wpt>
  <wpt lat="60.299149" lon="24.905165"><name><![CDATA[St1 Automaatti Vantaa Voutila, Vantaa]]></name></wpt>
  <wpt lat="60.297102" lon="24.951947"><name><![CDATA[St1 Automaatti Vantaa Virkatie, Vantaa]]></name></wpt>
  <wpt lat="60.191109" lon="24.953917"><name><![CDATA[St1 Automaatti Helsinki Vallila, Helsinki]]></name></wpt>
  <wpt lat="63.9294" lon="24.967141"><name><![CDATA[St1 Automaatti Nivala, Nivala]]></name></wpt>
  <wpt lat="60.312982" lon="24.971201"><name><![CDATA[St1 Vantaa Lentoasema, Vantaa]]></name></wpt>
  <wpt lat="60.279964" lon="25.010845"><name><![CDATA[St1 Automaatti Helsinki Suutarila, Helsinki]]></name></wpt>
  <wpt lat="60.374721" lon="25.017366"><name><![CDATA[St1 Automaatti Tuusula Riihikallio, Tuusula]]></name></wpt>
  <wpt lat="60.344138" lon="25.021697"><name><![CDATA[St1 Automaatti Tuusula Kulomäentie, Tuusula]]></name></wpt>
  <wpt lat="60.309172" lon="25.028015"><name><![CDATA[St1 Automaatti Vantaa Simonkylä, Vantaa]]></name></wpt>
  <wpt lat="60.193105" lon="25.04229"><name><![CDATA[St1 Automaatti Helsinki Herttoniemi AWT, Helsinki]]></name></wpt>
  <wpt lat="60.2062" lon="25.051896"><name><![CDATA[St1 Automaatti Helsinki Herttoniemi Sahaajankatu, Helsinki]]></name></wpt>
  <wpt lat="60.231134" lon="25.053963"><name><![CDATA[St1 Automaatti Helsinki Kivikko, Helsinki]]></name></wpt>
  <wpt lat="60.25885" lon="25.062465"><name><![CDATA[St1 Automaatti Helsinki Tattarisuo, Helsinki]]></name></wpt>
  <wpt lat="60.353792" lon="25.078561"><name><![CDATA[St1 Automaatti Vantaa Korso, Vantaa]]></name></wpt>
  <wpt lat="60.280937" lon="25.084646"><name><![CDATA[St1 Automaatti Vantaa Porttisuo, Vantaa]]></name></wpt>
  <wpt lat="60.497935" lon="25.089885"><name><![CDATA[St1 Automaatti Järvenpää Yrittäjänkatu, Järvenpää]]></name></wpt>
  <wpt lat="60.39912" lon="25.111505"><name><![CDATA[St1 Automaatti Kerava Keskusta, Kerava]]></name></wpt>
  <wpt lat="62.252614" lon="25.193721"><name><![CDATA[St1 Automaatti Petäjävesi, Petäjävesi]]></name></wpt>
  <wpt lat="60.369016" lon="25.23106"><name><![CDATA[St1 Automaatti Sipoo Jokivarrentie, Sipoo]]></name></wpt>
  <wpt lat="61.870476" lon="25.236002"><name><![CDATA[St1 Automaatti Jämsä Patalahti, Jämsä]]></name></wpt>
  <wpt lat="61.870834" lon="25.236777"><name><![CDATA[St1 TS Jämsä Patalahti, Jämsä]]></name></wpt>
  <wpt lat="62.697252" lon="25.289331"><name><![CDATA[St1 Automaatti Saarijärvi, Saarijärvi]]></name></wpt>
  <wpt lat="60.629619" lon="25.307985"><name><![CDATA[St1 Automaatti Mäntsälä Keskusta, Mäntsälä]]></name></wpt>
  <wpt lat="60.675586" lon="25.353427"><name><![CDATA[St1 Automaatti Mäntsälä Pohjoinen, Mäntsälä]]></name></wpt>
  <wpt lat="60.483734" lon="25.369679"><name><![CDATA[St1 Automaatti Pornainen, Pornainen]]></name></wpt>
  <wpt lat="65.002797" lon="25.464397"><name><![CDATA[St1 Automaatti Oulu Limingantie, Oulu]]></name></wpt>
  <wpt lat="64.996766" lon="25.483869"><name><![CDATA[St1 Oulu Karjasilta, Oulu]]></name></wpt>
  <wpt lat="64.962556" lon="25.502961"><name><![CDATA[St1 Automaatti Oulu Automuseontie, Oulu]]></name></wpt>
  <wpt lat="60.980261" lon="25.546616"><name><![CDATA[St1 Automaatti Hollola Kunnantie, Hollola]]></name></wpt>
  <wpt lat="64.996128" lon="25.553806"><name><![CDATA[St1 Automaatti Oulu Knuutilankangas, Oulu]]></name></wpt>
  <wpt lat="60.379172" lon="25.611936"><name><![CDATA[St1 Automaatti Porvoo Eestinmäki, Porvoo]]></name></wpt>
  <wpt lat="60.941279" lon="25.63941"><name><![CDATA[St1 Automaatti Lahti Renkomäki, Lahti]]></name></wpt>
  <wpt lat="61.1203" lon="25.640879"><name><![CDATA[St1 Automaatti Asikkala Vesivehmaa, Vesivehmaa]]></name></wpt>
  <wpt lat="60.966154" lon="25.659628"><name><![CDATA[St1 Automaatti Lahti Liipola, Lahti]]></name></wpt>
  <wpt lat="66.514627" lon="25.666065"><name><![CDATA[St1 Automaatti Rovaniemi Korkalovaara, Rovaniemi]]></name></wpt>
  <wpt lat="60.97363" lon="25.67797"><name><![CDATA[St1 Lahti Saksala, Lahti]]></name></wpt>
  <wpt lat="60.403482" lon="25.687221"><name><![CDATA[St1 Automaatti Porvoo Tarmola, Porvoo]]></name></wpt>
  <wpt lat="62.245255" lon="25.726732"><name><![CDATA[St1 Automaatti Jyväskylä Viitaniemi, Jyväskylä]]></name></wpt>
  <wpt lat="63.982131" lon="25.756767"><name><![CDATA[St1 Automaatti Kärsämäki, Kärsämäki]]></name></wpt>
  <wpt lat="62.255124" lon="25.777463"><name><![CDATA[St1 Automaatti Jyväskylä Seppälä, Jyväskylä]]></name></wpt>
  <wpt lat="66.491884" lon="25.780805"><name><![CDATA[St1 Automaatti Rovaniemi Ounasrinne, Rovaniemi]]></name></wpt>
  <wpt lat="66.515863" lon="25.785259"><name><![CDATA[St1 Rovaniemi Saarenkylä, Saarenkylä]]></name></wpt>
  <wpt lat="62.366982" lon="25.886519"><name><![CDATA[St1 Laukaa Vihtavuori, Vihtavuori]]></name></wpt>
  <wpt lat="62.418924" lon="25.943715"><name><![CDATA[St1 Laukaa, Laukaa]]></name></wpt>
  <wpt lat="61.519244" lon="26.00071"><name><![CDATA[St1 TS Hartola Pohela, Pohela]]></name></wpt>
  <wpt lat="61.203918" lon="26.038253"><name><![CDATA[St1 Automaatti Heinola, Heinola]]></name></wpt>
  <wpt lat="60.458605" lon="26.191502"><name><![CDATA[St1 Automaatti Loviisa Länsikaari, Loviisa]]></name></wpt>
  <wpt lat="63.189859" lon="26.344159"><name><![CDATA[St1 Automaatti Keitele, Keitele]]></name></wpt>
  <wpt lat="60.882961" lon="26.385801"><name><![CDATA[St1 Automaatti Iitti Kausala, Kausala]]></name></wpt>
  <wpt lat="67.429166" lon="26.57784"><name><![CDATA[St1 Sodankylä, Sodankylä]]></name></wpt>
  <wpt lat="61.43491" lon="26.59569"><name><![CDATA[St1 Mäntyharju Karankamäki, Karankamäki]]></name></wpt>
  <wpt lat="60.940819" lon="26.619841"><name><![CDATA[St1 Automaatti Kuusankoski Voikkaa, Voikkaa]]></name></wpt>
  <wpt lat="61.990227" lon="26.635121"><name><![CDATA[St1 Automaatti Kangasniemi, Kangasniemi]]></name></wpt>
  <wpt lat="60.8524" lon="26.6954"><name><![CDATA[St1 Automaatti Kouvola Kankaro, Kouvola]]></name></wpt>
  <wpt lat="60.765151" lon="26.784771"><name><![CDATA[St1 Kouvola Myllykoski, Myllykoski]]></name></wpt>
  <wpt lat="61.420926" lon="26.891555"><name><![CDATA[St1 Mäntyharju, Mäntyharju]]></name></wpt>
  <wpt lat="60.486381" lon="26.906177"><name><![CDATA[St1 Automaatti Kotka Metsola, Kotka]]></name></wpt>
  <wpt lat="60.51283" lon="26.919128"><name><![CDATA[St1 Automaatti Kotka Karhula, Kotka]]></name></wpt>
  <wpt lat="60.586269" lon="26.978518"><name><![CDATA[St1 Automaatti Kotka Tavastila, Tavastila]]></name></wpt>
  <wpt lat="65.360247" lon="26.986392"><name><![CDATA[St1 Automaatti Pudasjärvi, Pudasjärvi]]></name></wpt>
  <wpt lat="62.290492" lon="27.10626"><name><![CDATA[St1 Automaatti Pieksämäki Tukikohdantie, Pieksämäki]]></name></wpt>
  <wpt lat="60.563808" lon="27.161837"><name><![CDATA[St1 Automaatti Hamina Poitsila, Poitsila]]></name></wpt>
  <wpt lat="60.565908" lon="27.190968"><name><![CDATA[St1 Automaatti Hamina Satamakatu, Hamina]]></name></wpt>
  <wpt lat="61.676163" lon="27.200692"><name><![CDATA[St1 Mikkeli Rantakylä, Mikkeli]]></name></wpt>
  <wpt lat="61.695261" lon="27.219906"><name><![CDATA[St1 Automaatti Mikkeli Insinöörinkatu, Mikkeli]]></name></wpt>
  <wpt lat="61.69595" lon="27.28202"><name><![CDATA[St1 Automaatti Mikkeli Mannerheimintie, Mikkeli]]></name></wpt>
  <wpt lat="61.689104" lon="27.300221"><name><![CDATA[St1 Automaatti Mikkeli Graani, Mikkeli]]></name></wpt>
  <wpt lat="66.716672" lon="27.427964"><name><![CDATA[St1 Kemijärvi HelmiSimpukkkaExpress, Kemijärvi]]></name></wpt>
  <wpt lat="66.71656" lon="27.428218"><name><![CDATA[St1 Automaatti Kemijärvi, Kemijärvi]]></name></wpt>
  <wpt lat="68.654483" lon="27.542247"><name><![CDATA[St1 Ivalo, Ivalo]]></name></wpt>
  <wpt lat="60.92833" lon="27.631529"><name><![CDATA[St1 Automaatti Luumäki Uro, Uro]]></name></wpt>
  <wpt lat="62.839637" lon="27.64864"><name><![CDATA[St1 Automaatti Kuopio Petonen, Kuopio]]></name></wpt>
  <wpt lat="62.874774" lon="27.664099"><name><![CDATA[St1 Automaatti Kuopio Saaristokatu, Kuopio]]></name></wpt>
  <wpt lat="62.8925" lon="27.670721"><name><![CDATA[St1 Automaatti Kuopio Tulliportinkatu, Kuopio]]></name></wpt>
  <wpt lat="64.227436" lon="27.722632"><name><![CDATA[St1 Automaatti Kajaani Sissikatu, Kajaani]]></name></wpt>
  <wpt lat="62.982419" lon="27.732199"><name><![CDATA[St1 Siilinjärvi Toivala, Toivala]]></name></wpt>
  <wpt lat="64.21107" lon="27.732403"><name><![CDATA[St1 Automaatti Kajaani Sotkamontie, Kajaani]]></name></wpt>
  <wpt lat="62.48989" lon="27.77117"><name><![CDATA[St1 Leppävirta, Leppävirta]]></name></wpt>
  <wpt lat="64.211345" lon="27.772388"><name><![CDATA[St1 Automaatti Kajaani Kehräämöntie, Kajaani]]></name></wpt>
  <wpt lat="61.898067" lon="27.801217"><name><![CDATA[St1 Automaatti Juva Kylmäpurontie, Juva]]></name></wpt>
  <wpt lat="62.762696" lon="28.032026"><name><![CDATA[St1 Vehmersalmi, Vehmersalmi]]></name></wpt>
  <wpt lat="61.043668" lon="28.217915"><name><![CDATA[St1 Automaatti Lappeenranta Hyrymäki, Lappeenranta]]></name></wpt>
  <wpt lat="61.07178" lon="28.265022"><name><![CDATA[St1 Lappeenranta, Lauritsala, Lappeenranta]]></name></wpt>
  <wpt lat="61.069087" lon="28.283874"><name><![CDATA[St1 Lappeenranta Hakali, Lappeenranta]]></name></wpt>
  <wpt lat="64.134608" lon="28.347127"><name><![CDATA[St1 Automaatti Sotkamo, Sotkamo]]></name></wpt>
  <wpt lat="61.220422" lon="28.82841"><name><![CDATA[St1 Automaatti Imatra Vuoksenniska, Imatra]]></name></wpt>
  <wpt lat="61.867897" lon="28.866407"><name><![CDATA[St1 Automaatti Savonlinna Tulliportinkatu, Savonlinna]]></name></wpt>
  <wpt lat="64.887361" lon="28.913009"><name><![CDATA[St1 Automaatti Suomussalmi Ämmänsaari, Suomussalmi]]></name></wpt>
  <wpt lat="62.714545" lon="28.986388"><name><![CDATA[St1 Automaatti Outokumpu, Outokumpu]]></name></wpt>
  <wpt lat="63.553158" lon="29.106704"><name><![CDATA[St1 Automaatti Nurmes, Nurmes]]></name></wpt>
  <wpt lat="61.9072" lon="29.2616"><name><![CDATA[St1 Kerimäki, Kerimäki]]></name></wpt>
  <wpt lat="62.854737" lon="29.364445"><name><![CDATA[St1 Automaatti Polvijärvi, Polvijärvi]]></name></wpt>
  <wpt lat="62.535488" lon="29.402397"><name><![CDATA[St1 Liperi Kuusikkolantie, Liperi]]></name></wpt>
  <wpt lat="62.628716" lon="29.773385"><name><![CDATA[St1 Automaatti Joensuu Raatekangas, Joensuu]]></name></wpt>
  <wpt lat="61.904455" lon="29.812034"><name><![CDATA[St1 Kesälahti, Kesälahti]]></name></wpt>
  <wpt lat="62.543588" lon="29.84142"><name><![CDATA[St1 Automaatti Joensuu Reijola, Reijola]]></name></wpt>
  <wpt lat="62.743608" lon="29.86476"><name><![CDATA[St1 Automaatti Kontiolahti, Kontiolahti]]></name></wpt>
  <wpt lat="62.743608" lon="29.86476"><name><![CDATA[St1 Kontiolahti HelmiSimpukkaExpress, Kontiolahti as]]></name></wpt>
  <wpt lat="63.319201" lon="30.018373"><name><![CDATA[St1 Automaatti Lieksa, Lieksa]]></name></wpt>
</gpx>