<?xml version="1.0" encoding="UTF-8"?>
<!-- Source: https://github.com/cisene/se-poi -->
<gpx creator="se-poi" xmlns="http://www.topografix.com/GPX/1/1" xmlns:xsi="http://www.w3.org/2001/XMLSchema-instance" xsi:schemaLocation="http://www.topografix.com/GPX/1/1 http://www.topografix.com/GPX/1/1/gpx.xsd" version="1.1">
  <metadata>
    <name><![CDATA[Sushi Yama]]></name>
    <desc><![CDATA[Koordinater - Sushi Yama]]></desc>
    <link href="https://sushiyama.se/">
      <text><![CDATA[Sushi Yama]]></text>
       <type>text/html</type>
    </link>
   <time>2023-08-28T18:09:25+02:00</time>
  </metadata>
  <bounds minlat="55.564281" minlon="11.81077" maxlat="63.825661" maxlon="20.264792" />
  <wpt lat="58.354273" lon="11.81077"><name><![CDATA[Torp, Uddevalla]]></name></wpt>
  <wpt lat="57.651466" lon="11.911776"><name><![CDATA[Frölunda Torg, Göteborg]]></name></wpt>
  <wpt lat="57.706171" lon="11.957202"><name><![CDATA[Stenpiren Resecentrum, Göteborg]]></name></wpt>
  <wpt lat="57.872891" lon="11.968263"><name><![CDATA[Kongahälla Center, Kungälv]]></name></wpt>
  <wpt lat="57.708591" lon="11.969307"><name><![CDATA[Femman &#8211; Nordstan, Göteborg]]></name></wpt>
  <wpt lat="57.654857" lon="12.012492"><name><![CDATA[Mölndal Galleria, Göteborg]]></name></wpt>
  <wpt lat="57.737239" lon="12.105496"><name><![CDATA[Allum Partille, Göteborg]]></name></wpt>
  <wpt lat="56.676428" lon="12.859122"><name><![CDATA[Storgatan, Halmstad]]></name></wpt>
  <wpt lat="55.564281" lon="12.973213"><name><![CDATA[Emporia, Malmö]]></name></wpt>
  <wpt lat="55.581362" lon="13.00447"><name><![CDATA[Mobilia, Malmö]]></name></wpt>
  <wpt lat="55.713938" lon="13.159814"><name><![CDATA[Nova, Lund]]></name></wpt>
  <wpt lat="59.377469" lon="13.425666"><name><![CDATA[Bergvik, Karlstad]]></name></wpt>
  <wpt lat="59.379937" lon="13.499551"><name><![CDATA[Mitt i City, Karlstad]]></name></wpt>
  <wpt lat="58.404829" lon="13.856421"><name><![CDATA[Elins Esplanad, Skövde]]></name></wpt>
  <wpt lat="57.773013" lon="14.205676"><name><![CDATA[A6 Center, Jönköping]]></name></wpt>
  <wpt lat="56.883718" lon="14.766424"><name><![CDATA[Grand Samarkand, Växjö]]></name></wpt>
  <wpt lat="59.217439" lon="15.137261"><name><![CDATA[Marieberg Galleria, Örebro]]></name></wpt>
  <wpt lat="59.271557" lon="15.213667"><name><![CDATA[Stortorget, Örebro]]></name></wpt>
  <wpt lat="60.483837" lon="15.417514"><name><![CDATA[Kupolen, Borlänge]]></name></wpt>
  <wpt lat="58.433326" lon="15.586777"><name><![CDATA[I-Huset, Linköping]]></name></wpt>
  <wpt lat="58.411187" lon="15.621094"><name><![CDATA[Stora Torget, Linköping]]></name></wpt>
  <wpt lat="58.618213" lon="16.156003"><name><![CDATA[Ingelsta Shopping, Norrköping]]></name></wpt>
  <wpt lat="58.586711" lon="16.188921"><name><![CDATA[Drottninggatan, Norrköping]]></name></wpt>
  <wpt lat="59.609819" lon="16.452082"><name><![CDATA[Erikslund Shopping Center, Västerås]]></name></wpt>
  <wpt lat="59.371834" lon="16.50995"><name><![CDATA[Cityhuset, Eskilstuna]]></name></wpt>
  <wpt lat="59.610493" lon="16.547411"><name><![CDATA[Centra, Västerås]]></name></wpt>
  <wpt lat="60.633832" lon="16.993104"><name><![CDATA[Valbo Köpcentrum, Gävle]]></name></wpt>
  <wpt lat="58.751908" lon="17.003984"><name><![CDATA[Västra Storgatan, Nyköping]]></name></wpt>
  <wpt lat="60.673793" lon="17.140111"><name><![CDATA[Gallerian Nian, Gävle]]></name></wpt>
  <wpt lat="59.859945" lon="17.636527"><name><![CDATA[S:t Per Gallerian, Uppsala]]></name></wpt>
  <wpt lat="59.858131" lon="17.646595"><name><![CDATA[Centralstation, Uppsala]]></name></wpt>
  <wpt lat="59.413431" lon="17.866039"><name><![CDATA[Barkarby Järfälla, Stockholm]]></name></wpt>
  <wpt lat="59.309317" lon="18.022328"><name><![CDATA[Liljeholmstorget Galleria, Stockholm]]></name></wpt>
  <wpt lat="59.334921" lon="18.031886"><name><![CDATA[Västermalmsgallerian, Stockholm]]></name></wpt>
  <wpt lat="59.330297" lon="18.058509"><name><![CDATA[Centralstation, Stockholm]]></name></wpt>
  <wpt lat="59.330865" lon="18.067351"><name><![CDATA[Gallerian, Stockholm]]></name></wpt>
  <wpt lat="59.332992" lon="18.07103"><name><![CDATA[PK-huset, Stockholm]]></name></wpt>
  <wpt lat="59.298532" lon="18.079026"><name><![CDATA[Gullmarsplan Johanneshov, Stockholm]]></name></wpt>
  <wpt lat="59.340306" lon="18.090013"><name><![CDATA[Fältöversten, Stockholm]]></name></wpt>
  <wpt lat="59.242391" lon="18.092436"><name><![CDATA[Farsta Centrum, Stockholm]]></name></wpt>
  <wpt lat="63.806904" lon="20.255806"><name><![CDATA[Avion Shopping, Umeå]]></name></wpt>
  <wpt lat="63.825661" lon="20.264792"><name><![CDATA[Utopia, Umeå]]></name></wpt>
</gpx>