<?xml version="1.0" encoding="UTF-8"?>
<!-- Source: https://github.com/cisene/se-poi -->
<gpx creator="se-poi" xmlns="http://www.topografix.com/GPX/1/1" xmlns:xsi="http://www.w3.org/2001/XMLSchema-instance" xsi:schemaLocation="http://www.topografix.com/GPX/1/1 http://www.topografix.com/GPX/1/1/gpx.xsd" version="1.1">
  <metadata>
    <name><![CDATA[Tanka]]></name>
    <desc><![CDATA[Koordinater - Tanka]]></desc>
    <link href="https://tanka.se/">
      <text><![CDATA[Tanka]]></text>
       <type>text/html</type>
    </link>
   <time>2023-07-15T16:21:25+02:00</time>
  </metadata>
  <bounds minlat="55.381508" minlon="11.195685" maxlat="67.84862" maxlon="23.117662" />
  <wpt lat="58.948" lon="11.195685"><name><![CDATA[Tanka Strömstad, Strömstad]]></name></wpt>
  <wpt lat="58.45217" lon="11.315633"><name><![CDATA[Tanka Hunnebostrand, Hunnebostrand]]></name></wpt>
  <wpt lat="58.721066" lon="11.327904"><name><![CDATA[Tanka Tanumshede, Tanumshede]]></name></wpt>
  <wpt lat="58.285904" lon="11.462104"><name><![CDATA[Tanka Lysekil, Lysekil]]></name></wpt>
  <wpt lat="58.526806" lon="11.574648"><name><![CDATA[Tanka Dingle, Dingle]]></name></wpt>
  <wpt lat="58.074314" lon="11.839823"><name><![CDATA[Tanka Stenungsund, Stenungsund]]></name></wpt>
  <wpt lat="57.713253" lon="11.84227"><name><![CDATA[Tanka & Tvätta Torslanda, Göteborg]]></name></wpt>
  <wpt lat="58.349594" lon="11.869193"><name><![CDATA[Tanka & Tvätta Kärranäsvägen, Uddevalla]]></name></wpt>
  <wpt lat="57.75505" lon="11.879675"><name><![CDATA[Tanka & Tvätta Tuve, Göteborg]]></name></wpt>
  <wpt lat="57.716053" lon="11.922609"><name><![CDATA[Tanka & Tvätta Lundby, Göteborg]]></name></wpt>
  <wpt lat="58.346176" lon="11.930291"><name><![CDATA[Tanka Uddevalla Göteborgsvägen, Uddevalla]]></name></wpt>
  <wpt lat="57.712315" lon="11.931367"><name><![CDATA[Tanka Lundbyled, Göteborg]]></name></wpt>
  <wpt lat="57.880817" lon="11.948524"><name><![CDATA[Tanka & Tvätta Kungälv, Kungälv]]></name></wpt>
  <wpt lat="58.900173" lon="11.954932"><name><![CDATA[Tanka Ed, Ed]]></name></wpt>
  <wpt lat="57.649536" lon="11.955198"><name><![CDATA[Tanka & Tvätta Sisjön, Västra Frölunda]]></name></wpt>
  <wpt lat="57.747337" lon="11.993911"><name><![CDATA[Tanka Stig Center, Hisings Backa]]></name></wpt>
  <wpt lat="57.64176" lon="12.007867"><name><![CDATA[Tanka Åbro, Mölndal]]></name></wpt>
  <wpt lat="57.731476" lon="12.063269"><name><![CDATA[Tanka Sävedalen, Sävedalen]]></name></wpt>
  <wpt lat="58.339424" lon="12.239936"><name><![CDATA[Tanka Vänersborg Trestad, Vänersborg]]></name></wpt>
  <wpt lat="57.122932" lon="12.27744"><name><![CDATA[Tanka & Tvätta Varberg, Varberg]]></name></wpt>
  <wpt lat="58.28951" lon="12.299588"><name><![CDATA[Tanka & Tvätta Tunhemsvägen, Trollhättan]]></name></wpt>
  <wpt lat="58.35549" lon="12.315411"><name><![CDATA[Tanka Vänersborg, Vänersborg]]></name></wpt>
  <wpt lat="58.309376" lon="12.322114"><name><![CDATA[Tanka Stallbacka, Trollhättan]]></name></wpt>
  <wpt lat="58.69916" lon="12.448491"><name><![CDATA[Tanka & Tvätta Mellerud, Mellerud]]></name></wpt>
  <wpt lat="56.91468" lon="12.503772"><name><![CDATA[Tanka & Tvätta Falkenberg, Falkenberg]]></name></wpt>
  <wpt lat="57.92528" lon="12.530497"><name><![CDATA[Tanka Alingsås, Alingsås]]></name></wpt>
  <wpt lat="59.66089" lon="12.61337"><name><![CDATA[Tanka Arvika, Arvika]]></name></wpt>
  <wpt lat="57.5145" lon="12.710378"><name><![CDATA[Tanka Kinna, Kinna]]></name></wpt>
  <wpt lat="56.070415" lon="12.719208"><name><![CDATA[Tanka & Tvätta Helsingborg, Helsingborg]]></name></wpt>
  <wpt lat="55.886475" lon="12.831545"><name><![CDATA[Tanka & Tvätta Landskrona, Landskrona]]></name></wpt>
  <wpt lat="56.677628" lon="12.880099"><name><![CDATA[Tanka & Tvätta Halmstad, Halmstad]]></name></wpt>
  <wpt lat="56.246796" lon="12.895581"><name><![CDATA[Tanka & Tvätta Ängelholm, Ängelholm]]></name></wpt>
  <wpt lat="59.1411" lon="12.943485"><name><![CDATA[Tanka Säffle, Säffle]]></name></wpt>
  <wpt lat="58.256763" lon="12.963961"><name><![CDATA[Tanka & Tvätta Vara, Vara]]></name></wpt>
  <wpt lat="57.722446" lon="12.989875"><name><![CDATA[Tanka & Tvätta Borås, Borås]]></name></wpt>
  <wpt lat="60.130836" lon="12.994222"><name><![CDATA[Tanka Torsby, Torsby]]></name></wpt>
  <wpt lat="56.5012" lon="13.0291"><name><![CDATA[Tanka & Tvätta Laholm, Laholm]]></name></wpt>
  <wpt lat="55.570347" lon="13.054612"><name><![CDATA[Tanka Jägersro, Malmö]]></name></wpt>
  <wpt lat="56.9577" lon="13.089529"><name><![CDATA[Tanka Torup, Torup]]></name></wpt>
  <wpt lat="56.136738" lon="13.126804"><name><![CDATA[Tanka Klippan, Klippan]]></name></wpt>
  <wpt lat="59.838238" lon="13.127047"><name><![CDATA[Tanka & Tvätta Sunne, Sunne]]></name></wpt>
  <wpt lat="58.496525" lon="13.149158"><name><![CDATA[Tanka Lidköping, Lidköping]]></name></wpt>
  <wpt lat="55.381508" lon="13.149771"><name><![CDATA[Tanka Trelleborg, Trelleborg]]></name></wpt>
  <wpt lat="55.695988" lon="13.223405"><name><![CDATA[Tanka Lund, Lund]]></name></wpt>
  <wpt lat="55.841026" lon="13.326861"><name><![CDATA[Tanka & Tvätta Eslöv, Eslöv]]></name></wpt>
  <wpt lat="57.492275" lon="13.340181"><name><![CDATA[Tanka Tranemo, Tranemo]]></name></wpt>
  <wpt lat="57.156948" lon="13.407228"><name><![CDATA[Tanka Smålandsstenar, Smålandsstenar]]></name></wpt>
  <wpt lat="58.378204" lon="13.418513"><name><![CDATA[Tanka Skara, Skara]]></name></wpt>
  <wpt lat="57.80668" lon="13.42187"><name><![CDATA[Tanka & Tvätta Ulricehamn, Ulricehamn]]></name></wpt>
  <wpt lat="59.3743" lon="13.504558"><name><![CDATA[Tanka Karlstad, Karlstad]]></name></wpt>
  <wpt lat="57.297955" lon="13.568124"><name><![CDATA[Tanka Gislaved, Gislaved]]></name></wpt>
  <wpt lat="58.168858" lon="13.579999"><name><![CDATA[Tanka Falköping, Falköping]]></name></wpt>
  <wpt lat="56.455276" lon="13.594218"><name><![CDATA[Tanka & Tvätta Markaryd, Markaryd]]></name></wpt>
  <wpt lat="55.8646" lon="13.662741"><name><![CDATA[Tanka & Tvätta Hörby, Hörby]]></name></wpt>
  <wpt lat="55.63532" lon="13.68363"><name><![CDATA[Tanka & Tvätta Sjöbo, Sjöbo]]></name></wpt>
  <wpt lat="60.687614" lon="13.720033"><name><![CDATA[Tanka & Tvätta Malung, Malung]]></name></wpt>
  <wpt lat="56.56005" lon="13.722335"><name><![CDATA[OKQ8 Strömsnäsbruk, Strömsnäsbruk]]></name></wpt>
  <wpt lat="56.169746" lon="13.758408"><name><![CDATA[Tanka & Tvätta Hässleholm, Hässleholm]]></name></wpt>
  <wpt lat="58.67771" lon="13.820914"><name><![CDATA[Tanka Mariestad, Mariestad]]></name></wpt>
  <wpt lat="55.445198" lon="13.839516"><name><![CDATA[Tanka & Tvätta Ystad, Ystad]]></name></wpt>
  <wpt lat="58.419086" lon="13.870283"><name><![CDATA[Tanka Skövde, Skövde]]></name></wpt>
  <wpt lat="56.8122" lon="13.9094"><name><![CDATA[Tanka & Tvätta Ljungby, Ljungby]]></name></wpt>
  <wpt lat="55.546806" lon="13.946783"><name><![CDATA[Tanka Tomelilla, Tomelilla]]></name></wpt>
  <wpt lat="56.377773" lon="13.992749"><name><![CDATA[Tanka & Tvätta Osby, Osby]]></name></wpt>
  <wpt lat="57.19182" lon="14.064587"><name><![CDATA[Tanka Värnamo, Värnamo]]></name></wpt>
  <wpt lat="59.29862" lon="14.120272"><name><![CDATA[Tanka Kristinehamn, Kristinehamn]]></name></wpt>
  <wpt lat="56.555035" lon="14.143591"><name><![CDATA[Tanka & Tvätta Älmhult, Älmhult]]></name></wpt>
  <wpt lat="59.714603" lon="14.174933"><name><![CDATA[Tanka Filipstad, Filipstad]]></name></wpt>
  <wpt lat="57.778313" lon="14.184303"><name><![CDATA[Nybergs Bil Jönköping, Jönköping]]></name></wpt>
  <wpt lat="56.028416" lon="14.210113"><name><![CDATA[Tanka Kristianstad, Kristianstad]]></name></wpt>
  <wpt lat="55.54558" lon="14.33464"><name><![CDATA[Tanka & Tvätta Simrishamn, Simrishamn]]></name></wpt>
  <wpt lat="59.299976" lon="14.491333"><name><![CDATA[Tanka & Tvätta Karlskoga, Karlskoga]]></name></wpt>
  <wpt lat="56.275898" lon="14.542374"><name><![CDATA[Tanka & Tvätta Olofström, Olofström]]></name></wpt>
  <wpt lat="61.01008" lon="14.56374"><name><![CDATA[Tanka & Tvätta Mora, Mora]]></name></wpt>
  <wpt lat="56.05576" lon="14.566369"><name><![CDATA[Tanka Sölvesborg, Sölvesborg]]></name></wpt>
  <wpt lat="63.1703" lon="14.678641"><name><![CDATA[Tanka Östersund, Östersund]]></name></wpt>
  <wpt lat="57.647373" lon="14.730571"><name><![CDATA[Tanka Nässjö, Nässjö]]></name></wpt>
  <wpt lat="56.884907" lon="14.771494"><name><![CDATA[Tanka & Tvätta Växjö, Växjö]]></name></wpt>
  <wpt lat="56.193787" lon="14.8439"><name><![CDATA[Tanka Asarum, Asarum]]></name></wpt>
  <wpt lat="58.890255" lon="14.897427"><name><![CDATA[Tanka Askersund, Askersund]]></name></wpt>
  <wpt lat="58.03541" lon="14.978176"><name><![CDATA[Tanka Tranås, Tranås]]></name></wpt>
  <wpt lat="56.519073" lon="14.985709"><name><![CDATA[Tanka Tingsryd, Tingsryd]]></name></wpt>
  <wpt lat="60.73773" lon="15.005306"><name><![CDATA[Tanka & Tvätta Leksand, Leksand]]></name></wpt>
  <wpt lat="58.535976" lon="15.016001"><name><![CDATA[Tanka Motala, Motala]]></name></wpt>
  <wpt lat="57.44523" lon="15.065186"><name><![CDATA[Tanka & Tvätta Kolvägen, Vetlanda]]></name></wpt>
  <wpt lat="58.331654" lon="15.149674"><name><![CDATA[Tanka & Tvätta Mjölby, Mjölby]]></name></wpt>
  <wpt lat="60.14426" lon="15.179722"><name><![CDATA[Tanka & Tvätta Ludvika, Ludvika]]></name></wpt>
  <wpt lat="59.60319" lon="15.207782"><name><![CDATA[Tanka & Tvätta Lindesberg, Lindesberg]]></name></wpt>
  <wpt lat="59.297604" lon="15.229571"><name><![CDATA[Tanka & Tvätta Örebro, Örebro]]></name></wpt>
  <wpt lat="60.44842" lon="15.488271"><name><![CDATA[Tanka & Tvätta Borlänge, Borlänge]]></name></wpt>
  <wpt lat="63.855137" lon="15.560944"><name><![CDATA[Tanka Strömsund, Strömsund]]></name></wpt>
  <wpt lat="58.429558" lon="15.591895"><name><![CDATA[Tage Rejmes i Linköping AB, Linköping]]></name></wpt>
  <wpt lat="56.2026" lon="15.635476"><name><![CDATA[Tanka Karlskrona, Karlskrona]]></name></wpt>
  <wpt lat="57.98223" lon="15.637854"><name><![CDATA[Tanka Kisa, Kisa]]></name></wpt>
  <wpt lat="58.4169" lon="15.638593"><name><![CDATA[Tanka & Tvätta Linköping, Linköping]]></name></wpt>
  <wpt lat="60.60771" lon="15.66319"><name><![CDATA[Tanka & Tvätta Kolonv Falun, Falun]]></name></wpt>
  <wpt lat="58.703724" lon="15.794308"><name><![CDATA[Tanka & Tvätta Finspång, Finspång]]></name></wpt>
  <wpt lat="59.98203" lon="15.808657"><name><![CDATA[Bilkompaniet Fagersta, Fagersta]]></name></wpt>
  <wpt lat="57.661255" lon="15.850099"><name><![CDATA[Tanka & Tvätta Vimmerby, Vimmerby]]></name></wpt>
  <wpt lat="56.74327" lon="15.893687"><name><![CDATA[Tanka & Tvätta Nybro, Nybro]]></name></wpt>
  <wpt lat="59.519917" lon="15.972877"><name><![CDATA[Tanka Köping, Köping]]></name></wpt>
  <wpt lat="60.283165" lon="15.991695"><name><![CDATA[Tanka Hedemora, Hedemora]]></name></wpt>
  <wpt lat="58.203533" lon="15.999894"><name><![CDATA[Tanka & Tvätta Åtvidaberg, Åtvidaberg]]></name></wpt>
  <wpt lat="60.141876" lon="16.194542"><name><![CDATA[Tanka Avesta, Avesta]]></name></wpt>
  <wpt lat="58.587826" lon="16.217945"><name><![CDATA[Tanka & Tvätta Norrköping, Norrköping]]></name></wpt>
  <wpt lat="59.00119" lon="16.223257"><name><![CDATA[Tanka Katrineholm, Katrineholm]]></name></wpt>
  <wpt lat="56.688747" lon="16.314375"><name><![CDATA[Tanka & Tvätta Kalmar, Kalmar]]></name></wpt>
  <wpt lat="56.689323" lon="16.314428"><name><![CDATA[Tanka & Tvätta Kalmar, Kalmar]]></name></wpt>
  <wpt lat="61.34375" lon="16.38057"><name><![CDATA[Tanka Bollnäs, Bollnäs]]></name></wpt>
  <wpt lat="57.251305" lon="16.44435"><name><![CDATA[Tanka Oskarshamn, Oskarshamn]]></name></wpt>
  <wpt lat="59.38864" lon="16.468376"><name><![CDATA[Tanka Eskilstuna, Eskilstuna]]></name></wpt>
  <wpt lat="59.64168" lon="16.565891"><name><![CDATA[Tanka Västerås, Västerås]]></name></wpt>
  <wpt lat="59.608047" lon="16.573435"><name><![CDATA[Tanka Västerås, Västerås]]></name></wpt>
  <wpt lat="58.211933" lon="16.58248"><name><![CDATA[Tanka Valdemarsvik, Valdemarsvik]]></name></wpt>
  <wpt lat="59.922993" lon="16.587677"><name><![CDATA[Tanka Sala, Sala]]></name></wpt>
  <wpt lat="57.76786" lon="16.60408"><name><![CDATA[Tanka Västervik, Västervik]]></name></wpt>
  <wpt lat="56.877457" lon="16.6637"><name><![CDATA[Tanka Borgholm, Borgholm]]></name></wpt>
  <wpt lat="60.6233" lon="16.768776"><name><![CDATA[Tanka & Tvätta Sandviken, Sandviken]]></name></wpt>
  <wpt lat="58.749134" lon="16.976976"><name><![CDATA[Tanka Nyköping, Nyköping]]></name></wpt>
  <wpt lat="59.32831" lon="17.019283"><name><![CDATA[Tanka Strängnäs, Strängnäs]]></name></wpt>
  <wpt lat="61.294296" lon="17.064123"><name><![CDATA[Tanka Söderhamn, Söderhamn]]></name></wpt>
  <wpt lat="59.65779" lon="17.0771"><name><![CDATA[Tanka Enköping, Enköping]]></name></wpt>
  <wpt lat="59.65441" lon="17.08221"><name><![CDATA[Volvo Car Retail AB, Enköping]]></name></wpt>
  <wpt lat="61.73388" lon="17.096636"><name><![CDATA[Tanka Hudiksvall, Hudiksvall]]></name></wpt>
  <wpt lat="60.662872" lon="17.157293"><name><![CDATA[Tanka Gävle, Gävle]]></name></wpt>
  <wpt lat="62.3898" lon="17.277224"><name><![CDATA[Tanka & Tvätta Bultgatan, Sundsvall]]></name></wpt>
  <wpt lat="63.162296" lon="17.305195"><name><![CDATA[Tanka Sollefteå, Sollefteå]]></name></wpt>
  <wpt lat="62.493908" lon="17.32749"><name><![CDATA[Tanka Timrå, Timrå]]></name></wpt>
  <wpt lat="62.38054" lon="17.356977"><name><![CDATA[Tanka Sundsvall, Sundsvall]]></name></wpt>
  <wpt lat="59.560402" lon="17.552736"><name><![CDATA[Volvo Car Retail AB, Bålsta]]></name></wpt>
  <wpt lat="59.203327" lon="17.657509"><name><![CDATA[Tanka Södertälje, Södertälje]]></name></wpt>
  <wpt lat="59.848797" lon="17.65991"><name><![CDATA[Tanka Uppsala, Uppsala]]></name></wpt>
  <wpt lat="59.213844" lon="17.828646"><name><![CDATA[Tanka Tumba, Tumba]]></name></wpt>
  <wpt lat="59.420925" lon="17.84499"><name><![CDATA[Tanka & Tvätta Jakobsberg, Järfälla]]></name></wpt>
  <wpt lat="59.373524" lon="17.855282"><name><![CDATA[Tanka Vällingby, Vällingby]]></name></wpt>
  <wpt lat="59.61401" lon="17.87105"><name><![CDATA[Tanka Arlanda, Arlandastad]]></name></wpt>
  <wpt lat="62.639668" lon="17.91138"><name><![CDATA[Tanka Härnösand, Härnösand]]></name></wpt>
  <wpt lat="59.421352" lon="17.924286"><name><![CDATA[Volvo Car Retail, Sollentuna]]></name></wpt>
  <wpt lat="59.516033" lon="17.925978"><name><![CDATA[Tanka & Tvätta Upplands Väsby, Upplands Väsby]]></name></wpt>
  <wpt lat="59.515263" lon="17.926346"><name><![CDATA[Volvo Car Retail AB, Kungsängen]]></name></wpt>
  <wpt lat="59.40623" lon="17.938023"><name><![CDATA[Tanka Kista, Kista]]></name></wpt>
  <wpt lat="59.28493" lon="17.947046"><name><![CDATA[Tanka & Tvätta Segeltorp, Segeltorp]]></name></wpt>
  <wpt lat="59.334885" lon="17.969929"><name><![CDATA[Tanka Bromma, Bromma]]></name></wpt>
  <wpt lat="59.35778" lon="17.98651"><name><![CDATA[Tanka Solna, Solna]]></name></wpt>
  <wpt lat="59.438717" lon="18.052223"><name><![CDATA[Tanka Täby, Täby]]></name></wpt>
  <wpt lat="59.531406" lon="18.08392"><name><![CDATA[Tanka & Tvätta Vallentuna, Vallentuna]]></name></wpt>
  <wpt lat="59.20228" lon="18.125872"><name><![CDATA[Volvo Car Retail, Skogås]]></name></wpt>
  <wpt lat="59.16496" lon="18.160374"><name><![CDATA[Tanka Handen, Handen]]></name></wpt>
  <wpt lat="59.242813" lon="18.215525"><name><![CDATA[Tanka Tyresö, Tyresö]]></name></wpt>
  <wpt lat="59.481285" lon="18.27969"><name><![CDATA[Tanka Åkersberga, Åkersberga]]></name></wpt>
  <wpt lat="60.25329" lon="18.348093"><name><![CDATA[Bilbolaget  Östhammar, Östhammar]]></name></wpt>
  <wpt lat="60.25619" lon="18.349487"><name><![CDATA[Tanka Östhammar, Östhammar]]></name></wpt>
  <wpt lat="64.59981" lon="18.666641"><name><![CDATA[Tanka Lycksele, Lycksele]]></name></wpt>
  <wpt lat="59.7599" lon="18.68957"><name><![CDATA[Tanka & Tvätta Norrtälje, Norrtälje]]></name></wpt>
  <wpt lat="63.30322" lon="18.722235"><name><![CDATA[Tanka Örnsköldsvik, Örnsköldsvik]]></name></wpt>
  <wpt lat="63.93252" lon="19.225924"><name><![CDATA[Tanka Bjurholm, Bjurholm]]></name></wpt>
  <wpt lat="63.813663" lon="20.247797"><name><![CDATA[Tanka Umeå, Umeå]]></name></wpt>
  <wpt lat="67.84862" lon="20.262087"><name><![CDATA[Tanka Kiruna, Kiruna]]></name></wpt>
  <wpt lat="67.149826" lon="20.660872"><name><![CDATA[Tanka Gällivare, Gällivare]]></name></wpt>
  <wpt lat="64.73117" lon="20.971577"><name><![CDATA[Tanka Skellefteå, Skellefteå]]></name></wpt>
  <wpt lat="65.31967" lon="21.416864"><name><![CDATA[Tanka & Tvätta Piteå, Öjebyn]]></name></wpt>
  <wpt lat="65.820595" lon="21.698736"><name><![CDATA[Tanka Boden, Boden]]></name></wpt>
  <wpt lat="65.59545" lon="22.152424"><name><![CDATA[Tanka & Tvätta Luleå, Luleå]]></name></wpt>
  <wpt lat="65.850296" lon="23.117662"><name><![CDATA[Tanka Kalix, Kalix]]></name></wpt>
</gpx>