<?xml version="1.0" encoding="UTF-8"?>
<!-- Source: https://github.com/cisene/se-poi -->
<gpx creator="se-poi" xmlns="http://www.topografix.com/GPX/1/1" xmlns:xsi="http://www.w3.org/2001/XMLSchema-instance" xsi:schemaLocation="http://www.topografix.com/GPX/1/1 http://www.topografix.com/GPX/1/1/gpx.xsd" version="1.1">
  <metadata>
    <name><![CDATA[Teknikmagasinet]]></name>
    <desc><![CDATA[Koordinater - Teknikmagasinet]]></desc>
    <link href="https://www.teknikmagasinet.se/">
      <text><![CDATA[Teknikmagasinet]]></text>
       <type>text/html</type>
    </link>
   <time>2023-07-15T16:21:25+02:00</time>
  </metadata>
  <bounds minlat="55.565376" minlon="11.80927" maxlat="62.447344" maxlon="18.300795" />
  <wpt lat="58.35383" lon="11.80927"><name><![CDATA[Teknikmagasinet Uddevalla - Torp Köpcentrum, Uddevalla]]></name></wpt>
  <wpt lat="57.652006" lon="11.911392"><name><![CDATA[Teknikmagasinet Göteborg - Frölunda Torg, Göteborg]]></name></wpt>
  <wpt lat="57.709636" lon="11.968861"><name><![CDATA[Teknikmagasinet Göteborg - Nordstan, Göteborg]]></name></wpt>
  <wpt lat="57.70664" lon="11.96889"><name><![CDATA[Teknikmagasinet Göteborg - Arkaden, Göteborg]]></name></wpt>
  <wpt lat="57.708768" lon="11.972892"><name><![CDATA[Teknikmagasinet Göteborg - Centralstation, Göteborg]]></name></wpt>
  <wpt lat="57.492691" lon="12.074193"><name><![CDATA[Teknikmagasinet Kungsbacka - Kungsmässan, Kungsbacka]]></name></wpt>
  <wpt lat="56.090974" lon="12.755816"><name><![CDATA[Teknikmagasinet Helsingborg - Väla Köpcentrum, Helsingborg]]></name></wpt>
  <wpt lat="56.65582" lon="12.909397"><name><![CDATA[Teknikmagasinet Halmstad - Hallarna, Halmstad]]></name></wpt>
  <wpt lat="55.565376" lon="12.973311"><name><![CDATA[Teknikmagasinet Malmö - Emporia, Malmö]]></name></wpt>
  <wpt lat="55.703443" lon="13.18981"><name><![CDATA[Teknikmagasinet Lund - City, Lilla Fiskaregatan 12, Lund]]></name></wpt>
  <wpt lat="59.376165" lon="13.427401"><name><![CDATA[Teknikmagasinet Karlstad - Bergvik, Karlstad]]></name></wpt>
  <wpt lat="57.774093" lon="14.203973"><name><![CDATA[Teknikmagasinet Jönköping - Asecs, Jönköping]]></name></wpt>
  <wpt lat="56.884827" lon="14.765172"><name><![CDATA[Teknikmagasinet Växjö - Grand Samarkand, Växjö]]></name></wpt>
  <wpt lat="59.2175" lon="15.138056"><name><![CDATA[Teknikmagasinet Örebro - Marieberg, Örebro]]></name></wpt>
  <wpt lat="58.433043" lon="15.586209"><name><![CDATA[Teknikmagasinet Linköping - i-Huset, Linköping]]></name></wpt>
  <wpt lat="58.618554" lon="16.15647"><name><![CDATA[Teknikmagasinet Norrköping - Ingelsta Shopping, Norrköping]]></name></wpt>
  <wpt lat="56.670787" lon="16.336251"><name><![CDATA[Teknikmagasinet Kalmar - Giraffen, Kalmar]]></name></wpt>
  <wpt lat="59.37157" lon="16.46925"><name><![CDATA[Teknikmagasinet Eskilstuna - Tuna Park, Eskilstuna]]></name></wpt>
  <wpt lat="60.674185" lon="17.140936"><name><![CDATA[Teknikmagasinet Gävle - Nian, Gävle]]></name></wpt>
  <wpt lat="62.447344" lon="17.335063"><name><![CDATA[Teknikmagasinet Sundsvall - Birsta City, Sundsvall]]></name></wpt>
  <wpt lat="59.858237" lon="17.639405"><name><![CDATA[Teknikmagasinet Uppsala - City, Uppsala]]></name></wpt>
  <wpt lat="59.876902" lon="17.673264"><name><![CDATA[Teknikmagasinet Uppsala - Gränbystaden, Uppsala]]></name></wpt>
  <wpt lat="59.428204" lon="17.949823"><name><![CDATA[Teknikmagasinet Stockholm - Sollentuna Centrum, Stockholm]]></name></wpt>
  <wpt lat="59.235632" lon="17.981334"><name><![CDATA[Teknikmagasinet Stockholm - Huddinge Centrum, Stockholm]]></name></wpt>
  <wpt lat="59.370146" lon="18.004368"><name><![CDATA[Teknikmagasinet Stockholm - Westfield Mall of Scandinavia, Stockholm]]></name></wpt>
  <wpt lat="59.309475" lon="18.022788"><name><![CDATA[Teknikmagasinet Stockholm - Liljeholmstorget, Liljeholmen, Stockholm]]></name></wpt>
  <wpt lat="59.335059" lon="18.03193"><name><![CDATA[Teknikmagasinet Stockholm - Västermalmsgallerian, Stockholm]]></name></wpt>
  <wpt lat="59.397619" lon="18.03711"><name><![CDATA[Teknikmagasinet Stockholm - Mörby Centrum, Stockholm]]></name></wpt>
  <wpt lat="59.330532" lon="18.057493"><name><![CDATA[Teknikmagasinet Stockholm - City, Centralstationen, Stockholm]]></name></wpt>
  <wpt lat="59.44399" lon="18.072091"><name><![CDATA[Teknikmagasinet Stockholm - Täby Centrum, Stockholm]]></name></wpt>
  <wpt lat="59.308194" lon="18.075932"><name><![CDATA[Teknikmagasinet Stockholm - Ringen, Stockholm]]></name></wpt>
  <wpt lat="59.29287" lon="18.081536"><name><![CDATA[Teknikmagasinet Stockholm - Globen City, Stockholm]]></name></wpt>
  <wpt lat="59.339183" lon="18.091358"><name><![CDATA[Teknikmagasinet Stockholm - Fältöversten, Stockholm]]></name></wpt>
  <wpt lat="59.242985" lon="18.091404"><name><![CDATA[Teknikmagasinet Stockholm - Farsta Centrum, Stockholm]]></name></wpt>
  <wpt lat="57.637647" lon="18.300795"><name><![CDATA[Teknikmagasinet Visby, Visby]]></name></wpt>
</gpx>