<?xml version="1.0" encoding="UTF-8"?>
<!-- Source: https://github.com/cisene/se-poi -->
<gpx creator="se-poi" xmlns="http://www.topografix.com/GPX/1/1" xmlns:xsi="http://www.w3.org/2001/XMLSchema-instance" xsi:schemaLocation="http://www.topografix.com/GPX/1/1 http://www.topografix.com/GPX/1/1/gpx.xsd" version="1.1">
  <metadata>
    <name><![CDATA[Telia]]></name>
    <desc><![CDATA[Koordinater - Telia]]></desc>
    <link href="https://www.telia.se/">
      <text><![CDATA[Telia]]></text>
       <type>text/html</type>
    </link>
   <time>2023-07-15T16:21:25+02:00</time>
  </metadata>
  <bounds minlat="55.564563" minlon="11.805563" maxlat="65.583938" maxlon="22.153188" />
  <wpt lat="58.352688" lon="11.805563"><name><![CDATA[Telia Uddevalla, Torp Köpcentrum, Uddevalla]]></name></wpt>
  <wpt lat="57.652438" lon="11.911188"><name><![CDATA[Telia Västra Frölunda, Frölunda Torg, Västra Frölunda]]></name></wpt>
  <wpt lat="57.873812" lon="11.967437"><name><![CDATA[Telia Kungälv, Kongahälla, Kungälv]]></name></wpt>
  <wpt lat="57.708312" lon="11.968937"><name><![CDATA[Telia Göteborg, Nordstan, Göteborg]]></name></wpt>
  <wpt lat="57.704187" lon="11.970063"><name><![CDATA[Telia Göteborg, Kungsportsplatsen, Göteborg]]></name></wpt>
  <wpt lat="57.492687" lon="12.074562"><name><![CDATA[Telia Kungsbacka, Kungsmässan, Kungsbacka]]></name></wpt>
  <wpt lat="57.737313" lon="12.106188"><name><![CDATA[Telia Partille, Allum, Partille]]></name></wpt>
  <wpt lat="57.108062" lon="12.254062"><name><![CDATA[Telia Varberg, Östra Långgatan, Varberg]]></name></wpt>
  <wpt lat="58.311937" lon="12.306563"><name><![CDATA[Telia Trollhättan, Ladugårdsvägen, Trollhättan]]></name></wpt>
  <wpt lat="56.904312" lon="12.490562"><name><![CDATA[Telia Falkenberg, Torggatan, Falkenberg]]></name></wpt>
  <wpt lat="56.092062" lon="12.759438"><name><![CDATA[Telia Ödåkra-Väla, Väla Centrum, Ödåkra-Väla]]></name></wpt>
  <wpt lat="56.655563" lon="12.910187"><name><![CDATA[Telia Halmstad, Hallarna, Halmstad]]></name></wpt>
  <wpt lat="57.721062" lon="12.942438"><name><![CDATA[Telia Borås, Allégatan, Borås]]></name></wpt>
  <wpt lat="55.564563" lon="12.972437"><name><![CDATA[Telia Malmö, Emporia Shoppingcenter, Malmö]]></name></wpt>
  <wpt lat="55.595687" lon="13.002063"><name><![CDATA[Telia Malmö, Triangeln, Malmö]]></name></wpt>
  <wpt lat="55.580687" lon="13.004062"><name><![CDATA[Telia Malmö, Mobilia Shoppingcenter, Malmö]]></name></wpt>
  <wpt lat="55.705188" lon="13.188688"><name><![CDATA[Telia Lund, Knut den Stores Torg, Lund]]></name></wpt>
  <wpt lat="59.376562" lon="13.426562"><name><![CDATA[Telia Karlstad, Bergvik, Karlstad]]></name></wpt>
  <wpt lat="59.379562" lon="13.499063"><name><![CDATA[Telia Karlstad, Järnvägsgatan 7, Karlstad]]></name></wpt>
  <wpt lat="58.405187" lon="13.855562"><name><![CDATA[Telia Skövde, Köpmannagatan, Skövde]]></name></wpt>
  <wpt lat="57.773812" lon="14.203563"><name><![CDATA[Telia Jönköping, Asecs, Jönköping]]></name></wpt>
  <wpt lat="56.026937" lon="14.205312"><name><![CDATA[Telia Kristianstad, C4, Kristianstad]]></name></wpt>
  <wpt lat="63.176562" lon="14.638562"><name><![CDATA[Telia Östersund, Kyrkgatan, Östersund]]></name></wpt>
  <wpt lat="56.883813" lon="14.766188"><name><![CDATA[Telia Växjö, Grand Samarkand, Växjö]]></name></wpt>
  <wpt lat="59.217188" lon="15.137313"><name><![CDATA[Telia Örebro, Marieberg Galleria, Örebro]]></name></wpt>
  <wpt lat="59.271563" lon="15.210938"><name><![CDATA[Telia Örebro, Drottninggatan, Örebro]]></name></wpt>
  <wpt lat="60.484063" lon="15.418563"><name><![CDATA[Telia Borlänge, Kupolen, Borlänge]]></name></wpt>
  <wpt lat="58.433437" lon="15.585438"><name><![CDATA[Telia Linköping, I-Huset, Linköping]]></name></wpt>
  <wpt lat="60.606687" lon="15.629563"><name><![CDATA[Telia Falun, Gallerian, Falun]]></name></wpt>
  <wpt lat="58.588563" lon="16.188688"><name><![CDATA[Telia Norrköping, Repslagaregatan, Norrköping]]></name></wpt>
  <wpt lat="56.664313" lon="16.361688"><name><![CDATA[Telia Kalmar, Kaggensgatan, Kalmar]]></name></wpt>
  <wpt lat="59.609562" lon="16.453063"><name><![CDATA[Telia Västerås, Erikslund, Västerås]]></name></wpt>
  <wpt lat="59.371063" lon="16.470188"><name><![CDATA[Telia Eskilstuna, Tuna Park, Eskilstuna]]></name></wpt>
  <wpt lat="60.632813" lon="16.993938"><name><![CDATA[Telia Valbo, Valbo Köpcentrum, Valbo]]></name></wpt>
  <wpt lat="58.751937" lon="17.003687"><name><![CDATA[Telia Nyköping, Galleria Axet, Nyköping]]></name></wpt>
  <wpt lat="61.728313" lon="17.104813"><name><![CDATA[Telia Hudiksvall, Guldsmeden, Hudiksvall]]></name></wpt>
  <wpt lat="60.674062" lon="17.141813"><name><![CDATA[Telia Gävle, Drottninggatan 12, Gävle]]></name></wpt>
  <wpt lat="62.446938" lon="17.337438"><name><![CDATA[Telia Sundsvall, Birsta City, Sundsvall]]></name></wpt>
  <wpt lat="59.857687" lon="17.641562"><name><![CDATA[Telia Uppsala, Bredgränd, Uppsala]]></name></wpt>
  <wpt lat="59.877063" lon="17.672812"><name><![CDATA[Telia Uppsala, Gränby Centrum, Uppsala]]></name></wpt>
  <wpt lat="59.362188" lon="17.872687"><name><![CDATA[Telia Vällingby, Vällingby Torg, Vällingby]]></name></wpt>
  <wpt lat="59.275437" lon="17.906937"><name><![CDATA[Telia Skärholmen, Skärholmen Centrum, Skärholmen]]></name></wpt>
  <wpt lat="59.428313" lon="17.951062"><name><![CDATA[Telia Sollentuna, Sollentuna Centrum, Sollentuna]]></name></wpt>
  <wpt lat="59.369062" lon="18.005688"><name><![CDATA[Telia Solna, Mall of Scandinavia, Solna]]></name></wpt>
  <wpt lat="59.334688" lon="18.032312"><name><![CDATA[Telia Stockholm, Västermalmsgallerian, Stockholm]]></name></wpt>
  <wpt lat="59.334937" lon="18.060437"><name><![CDATA[Telia Stockholm, Drottninggatan, Stockholm]]></name></wpt>
  <wpt lat="59.332313" lon="18.061687"><name><![CDATA[Telia Stockholm, Åhlens City, Stockholm]]></name></wpt>
  <wpt lat="59.335812" lon="18.064188"><name><![CDATA[Telia Stockholm, Kungsgatan, Stockholm]]></name></wpt>
  <wpt lat="59.444187" lon="18.071937"><name><![CDATA[Telia Täby, Marknadsvägen, Täby]]></name></wpt>
  <wpt lat="59.307812" lon="18.075313"><name><![CDATA[Telia Stockholm, Ringen, Stockholm]]></name></wpt>
  <wpt lat="59.338938" lon="18.091437"><name><![CDATA[Telia Stockholm, Fältöversten, Stockholm]]></name></wpt>
  <wpt lat="59.242937" lon="18.091563"><name><![CDATA[Telia Farsta, Farsta Centrum, Farsta]]></name></wpt>
  <wpt lat="59.170187" lon="18.140313"><name><![CDATA[Telia Haninge, Haninge Centrum, Handen]]></name></wpt>
  <wpt lat="59.309062" lon="18.165188"><name><![CDATA[Telia Nacka, Nacka Centrum, Nacka]]></name></wpt>
  <wpt lat="57.637687" lon="18.299937"><name><![CDATA[Telia Visby, Österväg 6, Visby]]></name></wpt>
  <wpt lat="63.290437" lon="18.715688"><name><![CDATA[Telia Örnsköldsvik, Storgatan, Örnsköldsvik]]></name></wpt>
  <wpt lat="63.806687" lon="20.253937"><name><![CDATA[Telia Umeå, Avion Shopping, Umeå]]></name></wpt>
  <wpt lat="63.825063" lon="20.266188"><name><![CDATA[Telia Umeå, Kungsgatan, Umeå]]></name></wpt>
  <wpt lat="64.750812" lon="20.954313"><name><![CDATA[Telia Skellefteå, Nygatan, Skellefteå]]></name></wpt>
  <wpt lat="65.583938" lon="22.153188"><name><![CDATA[Telia Luleå, Smedjan, Luleå]]></name></wpt>
</gpx>