<?xml version="1.0" encoding="UTF-8"?>
<!-- Source: https://github.com/cisene/se-poi -->
<gpx creator="se-poi" xmlns="http://www.topografix.com/GPX/1/1" xmlns:xsi="http://www.w3.org/2001/XMLSchema-instance" xsi:schemaLocation="http://www.topografix.com/GPX/1/1 http://www.topografix.com/GPX/1/1/gpx.xsd" version="1.1">
  <metadata>
    <name><![CDATA[The Body Shop]]></name>
    <desc><![CDATA[Koordinater - The Body Shop]]></desc>
    <link href="https://www.thebodyshop.com/">
      <text><![CDATA[The Body Shop]]></text>
       <type>text/html</type>
    </link>
   <time>2023-08-28T18:09:26+02:00</time>
  </metadata>
  <bounds minlat="55.594938" minlon="11.811187" maxlat="63.826187" maxlon="20.265188" />
  <wpt lat="58.354437" lon="11.811187"><name><![CDATA[The Body Shop Torp Köpcentrum, Herrestad]]></name></wpt>
  <wpt lat="58.068637" lon="11.818016"><name><![CDATA[The Body Shop Stenugnsund, Stenugnsund]]></name></wpt>
  <wpt lat="57.652438" lon="11.912937"><name><![CDATA[The Body Shop Frölunda Torg, Västra Frölunda]]></name></wpt>
  <wpt lat="57.873438" lon="11.967813"><name><![CDATA[The Body Shop Kongahälla Center, Kungälv]]></name></wpt>
  <wpt lat="57.705988" lon="11.970547"><name><![CDATA[The Body Shop Fredsgatan, Göteborg]]></name></wpt>
  <wpt lat="57.655313" lon="12.014188"><name><![CDATA[The Body Shop Mölndal Galleria, Mölndal]]></name></wpt>
  <wpt lat="57.492687" lon="12.074063"><name><![CDATA[The Body Shop Kungsbacka, Kungsbacka]]></name></wpt>
  <wpt lat="57.737938" lon="12.105422"><name><![CDATA[The Body Shop Allum, Partille]]></name></wpt>
  <wpt lat="58.312438" lon="12.308063"><name><![CDATA[The Body Shop Trollhättan, Trollhättan]]></name></wpt>
  <wpt lat="56.047687" lon="12.693938"><name><![CDATA[The Body Shop Kullagatan, Helsingborg]]></name></wpt>
  <wpt lat="56.091563" lon="12.756937"><name><![CDATA[The Body Shop Väla, Helsingborg]]></name></wpt>
  <wpt lat="56.675937" lon="12.857188"><name><![CDATA[The Body Shop Halmstad, Halmstad]]></name></wpt>
  <wpt lat="57.720312" lon="12.940938"><name><![CDATA[The Body Shop Borås, Borås]]></name></wpt>
  <wpt lat="55.594938" lon="13.001313"><name><![CDATA[The Body Shop Triangeln, Malmö]]></name></wpt>
  <wpt lat="58.504188" lon="13.155812"><name><![CDATA[The Body Shop Lidköping, Lidköping]]></name></wpt>
  <wpt lat="55.714562" lon="13.160063"><name><![CDATA[The Body Shop Nova Lund, Lund]]></name></wpt>
  <wpt lat="55.703187" lon="13.190437"><name><![CDATA[The Body Shop Lund, Lund]]></name></wpt>
  <wpt lat="59.377187" lon="13.427188"><name><![CDATA[The Body Shop Bergvik, Karlstad]]></name></wpt>
  <wpt lat="56.029937" lon="14.156437"><name><![CDATA[The Body Shop Kristianstad, Kristianstad]]></name></wpt>
  <wpt lat="56.884563" lon="14.766312"><name><![CDATA[The Body Shop Växjö Grandsamarkand, Växjö]]></name></wpt>
  <wpt lat="60.484437" lon="15.418312"><name><![CDATA[The Body Shop Kupolen, Borlänge]]></name></wpt>
  <wpt lat="58.434687" lon="15.585812"><name><![CDATA[The Body Shop Linköping I-huset, Linköping]]></name></wpt>
  <wpt lat="58.410187" lon="15.622563"><name><![CDATA[The Body Shop Linköping City, Linköping]]></name></wpt>
  <wpt lat="60.606813" lon="15.628438"><name><![CDATA[The Body Shop Falun, Falun]]></name></wpt>
  <wpt lat="58.587812" lon="16.189062"><name><![CDATA[The Body Shop Norrköping, Norrköping]]></name></wpt>
  <wpt lat="59.609063" lon="16.455062"><name><![CDATA[The Body Shop Erikslund, Västerås]]></name></wpt>
  <wpt lat="59.371562" lon="16.468812"><name><![CDATA[The Body Shop Tuna Park, Eskilstuna]]></name></wpt>
  <wpt lat="56.651937" lon="16.469812"><name><![CDATA[The Body Shop Wachmeister Kopcenter, Karlskrona]]></name></wpt>
  <wpt lat="59.371938" lon="16.510438"><name><![CDATA[The Body Shop City, Eskilstuna]]></name></wpt>
  <wpt lat="60.674187" lon="17.139938"><name><![CDATA[The Body Shop Gallerian Nian, Gävle]]></name></wpt>
  <wpt lat="62.391937" lon="17.304437"><name><![CDATA[The Body Shop Sundsvall City, Sundsvall]]></name></wpt>
  <wpt lat="62.447063" lon="17.335938"><name><![CDATA[The Body Shop Birsta City, Sundsvall]]></name></wpt>
  <wpt lat="59.858062" lon="17.640313"><name><![CDATA[The Body Shop Forum, Uppsala]]></name></wpt>
  <wpt lat="59.877296" lon="17.672983"><name><![CDATA[The Body Shop Uppsala Gränby Centrum, Uppsala]]></name></wpt>
  <wpt lat="59.41772" lon="17.856421"><name><![CDATA[The Body Shop SQO Barkarby Outlet, Järfälla]]></name></wpt>
  <wpt lat="59.362562" lon="17.874437"><name><![CDATA[The Body Shop Vällingby, Vällingby]]></name></wpt>
  <wpt lat="59.275562" lon="17.907812"><name><![CDATA[The Body Shop Skärholmen, Skärholmen]]></name></wpt>
  <wpt lat="59.429063" lon="17.951687"><name><![CDATA[The Body Shop Sollentuna Centrum, Sollentuna]]></name></wpt>
  <wpt lat="59.355572" lon="17.955459"><name><![CDATA[The Body Shop Bromma Blocks, Bromma]]></name></wpt>
  <wpt lat="59.370465" lon="18.002013"><name><![CDATA[The Body Shop Westfield Mall of Scandanavia, Solna]]></name></wpt>
  <wpt lat="59.309687" lon="18.022188"><name><![CDATA[The Body Shop Liljeholmstorget, Stockholm]]></name></wpt>
  <wpt lat="59.333813" lon="18.061312"><name><![CDATA[The Body Shop Drottninggatan, Stockholm]]></name></wpt>
  <wpt lat="59.332313" lon="18.067188"><name><![CDATA[The Body Shop Gallerian, Stockholm]]></name></wpt>
  <wpt lat="59.444063" lon="18.069812"><name><![CDATA[The Body Shop Täby Centrum, Täby]]></name></wpt>
  <wpt lat="59.318438" lon="18.071312"><name><![CDATA[The Body Shop Götgatan, Stockholm]]></name></wpt>
  <wpt lat="59.336062" lon="18.073437"><name><![CDATA[The Body Shop Sturegallerian, Stockholm]]></name></wpt>
  <wpt lat="59.308437" lon="18.075812"><name><![CDATA[The Body Shop Ringen, Stockholm]]></name></wpt>
  <wpt lat="59.242812" lon="18.090938"><name><![CDATA[The Body Shop Farsta, Farsta]]></name></wpt>
  <wpt lat="59.339687" lon="18.091188"><name><![CDATA[The Body Shop Fältöversten, Stockholm]]></name></wpt>
  <wpt lat="59.309988" lon="18.164516"><name><![CDATA[The Body Shop Nacka Forum, Nacka]]></name></wpt>
  <wpt lat="57.637438" lon="18.301687"><name><![CDATA[The Body Shop Visby, Visby]]></name></wpt>
  <wpt lat="63.807187" lon="20.255187"><name><![CDATA[The Body Shop Umeå Avion, Umeå]]></name></wpt>
  <wpt lat="63.826187" lon="20.265188"><name><![CDATA[The Body Shop Umeå Utopia, Umeå]]></name></wpt>
</gpx>