meta:
  name: Apoteket AB
  web: https://www.apoteket.se/
  wikipedia: https://sv.wikipedia.org/wiki/Apoteket
  category: Apotek
  locations: 389

locations:
- location: Apoteket Flöjtskeppet
  city: Strömstad
  urn: urn:apoteket:store:id:a18830001
  country: Sverige
  latitude: 58.94638
  longitude: 11.18986

- location: Apoteket Nordby Shoppingcenter
  city: Strömstad
  urn: urn:apoteket:store:id:a22110001
  country: Sverige
  latitude: 59.064317
  longitude: 11.208395

- location: Apoteket Tärnan
  city: Hunnebostrand
  urn: urn:apoteket:store:id:a05290001
  country: Sverige
  latitude: 58.4403
  longitude: 11.3044

- location: Apoteket Tanum Shoppingcenter
  city: Tanumshede
  urn: urn:apoteket:store:id:a22120001
  country: Sverige
  latitude: 58.72242
  longitude: 11.346967

- location: Apoteket Kronan
  city: Lysekil
  urn: urn:apoteket:store:id:a05260001
  country: Sverige
  latitude: 58.2746
  longitude: 11.4337

- location: Apoteket Laxen
  city: Munkedal
  urn: urn:apoteket:store:id:a05320001
  country: Sverige
  latitude: 58.4666
  longitude: 11.6743

- location: Apoteket Amhult Torslanda
  city: Torslanda
  urn: urn:apoteket:store:id:a22230001
  country: Sverige
  latitude: 57.710049
  longitude: 11.776606

- location: Apoteket Måsen
  city: Uddevalla
  urn: urn:apoteket:store:id:a05220001
  country: Sverige
  latitude: 58.355145
  longitude: 11.812348

- location: Apoteket Stenungstorg Stenungsund
  city: Stenungsund
  urn: urn:apoteket:store:id:a21830001
  country: Sverige
  latitude: 58.068641
  longitude: 11.818001

- location: Apoteket Foxen
  city: Töcksfors
  urn: urn:apoteket:store:id:a07700001
  country: Sverige
  latitude: 59.5064
  longitude: 11.8449

- location: Apoteket Höstvädersgatan
  city: Göteborg
  urn: urn:apoteket:store:id:a08640001
  country: Sverige
  latitude: 57.7135
  longitude: 11.8944

- location: Apoteket Frölunda Torg
  city: Västra Frölunda
  urn: urn:apoteket:store:id:a16080001
  country: Sverige
  latitude: 57.6523
  longitude: 11.9116

- location: Apoteket Ytterby
  city: Ytterby
  urn: urn:apoteket:store:id:a21330001
  country: Sverige
  latitude: 57.859103
  longitude: 11.918012

- location: Apoteket Korpen
  city: Uddevalla
  urn: urn:apoteket:store:id:a05230001
  country: Sverige
  latitude: 58.3547
  longitude: 11.9294

- location: Apoteket Backaplan
  city: Göteborg
  urn: urn:apoteket:store:id:a16830001
  country: Sverige
  latitude: 57.7216
  longitude: 11.9516

- location: Apoteket Svanen
  city: Göteborg
  urn: urn:apoteket:store:id:a08470001
  country: Sverige
  latitude: 57.6978
  longitude: 11.9523

- location: Apoteket Kungsgatan
  city: Göteborg
  urn: urn:apoteket:store:id:a17850001
  country: Sverige
  latitude: 57.7037
  longitude: 11.96198

- location: Apoteket Hägern
  city: Särö
  urn: urn:apoteket:store:id:a09030001
  country: Sverige
  latitude: 57.5202
  longitude: 11.9667

- location: Apoteket Östra Hamngatan
  city: Göteborg
  urn: urn:apoteket:store:id:a17930001
  country: Sverige
  latitude: 57.707851
  longitude: 11.967822

- location: Apoteket Nordstan
  city: Göteborg
  urn: urn:apoteket:store:id:a22150001
  country: Sverige
  latitude: 57.709841
  longitude: 11.968071

- location: Apoteket Kongahälla Center
  city: Kungälv
  urn: urn:apoteket:store:id:a21990001
  country: Sverige
  latitude: 57.873222
  longitude: 11.968587

- location: Apoteket Kungälvs sjukhus
  city: Kungälv
  urn: urn:apoteket:store:id:a08750001
  country: Sverige
  latitude: 57.87848
  longitude: 11.96873

- location: Apoteket Centralen
  city: Göteborg
  urn: urn:apoteket:store:id:a11290301
  country: Sverige
  latitude: 57.7099
  longitude: 11.972

- location: Apoteket Centralen express Göteborg
  city: Göteborg
  urn: urn:apoteket:store:id:a21350001
  country: Sverige
  latitude: 57.709712
  longitude: 11.973093

- location: Apoteket Vita Fläcken Kungälv
  city: Kungälv
  urn: urn:apoteket:store:id:a18970001
  country: Sverige
  latitude: 57.87368
  longitude: 11.9736

- location: Apoteket Biet
  city: Göteborg
  urn: urn:apoteket:store:id:a08510001
  country: Sverige
  latitude: 57.6994
  longitude: 11.9788

- location: Apoteket Korsvägen
  city: Göteborg
  urn: urn:apoteket:store:id:a18920001
  country: Sverige
  latitude: 57.69706
  longitude: 11.9863

- location: Apoteket Korpen
  city: Göteborg
  urn: urn:apoteket:store:id:a20670001
  country: Sverige
  latitude: 57.7147
  longitude: 11.9888

- location: Apoteket Express Gamlestaden Göteborg
  city: Göteborg
  urn: urn:apoteket:store:id:a22270001
  country: Sverige
  latitude: 57.727848
  longitude: 12.004983

- location: Apoteket Mölndals sjukhus
  city: Mölndal
  urn: urn:apoteket:store:id:a07790001
  country: Sverige
  latitude: 57.66055
  longitude: 12.01205

- location: Apoteket Mölndal Galleria
  city: Mölndal
  urn: urn:apoteket:store:id:a21840001
  country: Sverige
  latitude: 57.654986
  longitude: 12.012265

- location: Apoteket Onsala
  city: Onsala
  urn: urn:apoteket:store:id:a09040001
  country: Sverige
  latitude: 57.4127
  longitude: 12.0168

- location: Apoteket Ekorren
  city: Göteborg
  urn: urn:apoteket:store:id:a19940001
  country: Sverige
  latitude: 57.751588
  longitude: 12.031566

- location: Apoteket Stabbetorget
  city: Göteborg
  urn: urn:apoteket:store:id:a07810001
  country: Sverige
  latitude: 57.7147
  longitude: 12.0467

- location: Apoteket Östra sjukhuset
  city: Göteborg
  urn: urn:apoteket:store:id:a07860001
  country: Sverige
  latitude: 57.722041
  longitude: 12.048442

- location: Apoteket Kungsmässan
  city: Kungsbacka
  urn: urn:apoteket:store:id:a09540001
  country: Sverige
  latitude: 57.493273
  longitude: 12.073978

- location: Apoteket Lindome
  city: Lindome
  urn: urn:apoteket:store:id:a07770001
  country: Sverige
  latitude: 57.5772
  longitude: 12.0877

- location: Apoteket Allum
  city: Partille
  urn: urn:apoteket:store:id:a20620001
  country: Sverige
  latitude: 57.7373
  longitude: 12.1062

- location: Apoteket Åsa
  city: Åsa
  urn: urn:apoteket:store:id:a08900001
  country: Sverige
  latitude: 57.3537
  longitude: 12.1086

- location: Apoteket Hjorten
  city: Lilla Edet
  urn: urn:apoteket:store:id:a05610001
  country: Sverige
  latitude: 58.1343
  longitude: 12.1245

- location: Apoteket Älvängen
  city: Älvängen
  urn: urn:apoteket:store:id:a05810001
  country: Sverige
  latitude: 57.96104
  longitude: 12.12606

- location: Apoteket Kronan
  city: Årjäng
  urn: urn:apoteket:store:id:a07600001
  country: Sverige
  latitude: 59.3916
  longitude: 12.1335

- location: Apoteket Landvetter
  city: Landvetter
  urn: urn:apoteket:store:id:a07900001
  country: Sverige
  latitude: 57.6866
  longitude: 12.2105

- location: Apoteket Galleria Trädgården Varberg
  city: Varberg
  urn: urn:apoteket:store:id:a22240001
  country: Sverige
  latitude: 57.105976
  longitude: 12.24834

- location: Apoteket Björnen
  city: Trollhättan
  urn: urn:apoteket:store:id:a05700001
  country: Sverige
  latitude: 58.3185
  longitude: 12.264

- location: Apoteket Lerum
  city: Lerum
  urn: urn:apoteket:store:id:a18520001
  country: Sverige
  latitude: 57.76989
  longitude: 12.27101

- location: Apoteket Måsen
  city: Varberg
  urn: urn:apoteket:store:id:a08880001
  country: Sverige
  latitude: 57.0992
  longitude: 12.2775

- location: Apoteket Tallen
  city: Charlottenberg
  urn: urn:apoteket:store:id:a07590001
  country: Sverige
  latitude: 59.8814
  longitude: 12.2896

- location: Apoteket Svanen
  city: Trollhättan
  urn: urn:apoteket:store:id:a05720001
  country: Sverige
  latitude: 58.2849
  longitude: 12.2906

- location: Apoteket Etagehuset
  city: Trollhättan
  urn: urn:apoteket:store:id:a17620001
  country: Sverige
  latitude: 58.3128
  longitude: 12.3079

- location: Apoteket Tranan
  city: Vänersborg
  urn: urn:apoteket:store:id:a05780001
  country: Sverige
  latitude: 58.37947
  longitude: 12.32337

- location: Apoteket Orren
  city: Floda
  urn: urn:apoteket:store:id:a19830001
  country: Sverige
  latitude: 57.8083
  longitude: 12.3625

- location: Apoteket Älgen
  city: Vargön
  urn: urn:apoteket:store:id:a05750001
  country: Sverige
  latitude: 58.3565
  longitude: 12.3896

- location: Apoteket Melleruds Handel
  city: Mellerud
  urn: urn:apoteket:store:id:a22130001
  country: Sverige
  latitude: 58.704328
  longitude: 12.450625

- location: Apoteket Falken
  city: Falkenberg
  urn: urn:apoteket:store:id:a12930001
  country: Sverige
  latitude: 56.9055
  longitude: 12.4921

- location: Apoteket Hjorten
  city: Alingsås
  urn: urn:apoteket:store:id:a05390001
  country: Sverige
  latitude: 57.93
  longitude: 12.5362

- location: Apoteket Flora Höganäs
  city: Höganäs
  urn: urn:apoteket:store:id:a19270001
  country: Sverige
  latitude: 56.19986
  longitude: 12.56029

- location: Apoteket Midgårdsgatan Höganäs
  city: Höganäs
  urn: urn:apoteket:store:id:a21870001
  country: Sverige
  latitude: 56.202121
  longitude: 12.567568

- location: Apoteket Linden
  city: Bollebygd
  urn: urn:apoteket:store:id:a05440001
  country: Sverige
  latitude: 57.6696
  longitude: 12.572

- location: Apoteket Kvarnen
  city: Grästorp
  urn: urn:apoteket:store:id:a00990001
  country: Sverige
  latitude: 58.3305
  longitude: 12.6774

- location: Apoteket Kullagatan Helsingborg
  city: Helsingborg
  urn: urn:apoteket:store:id:a21450001
  country: Sverige
  latitude: 56.048446
  longitude: 12.692987

- location: Apoteket Helsingborg Central
  city: Helsingborg
  urn: urn:apoteket:store:id:a11660301
  country: Sverige
  latitude: 56.0436
  longitude: 12.6944

- location: Apoteket Stattena Helsingborg
  city: Helsingborg
  urn: urn:apoteket:store:id:a21160001
  country: Sverige
  latitude: 56.057394
  longitude: 12.701233

- location: Apoteket Biet
  city: Helsingborg
  urn: urn:apoteket:store:id:a02580001
  country: Sverige
  latitude: 56.0284
  longitude: 12.7257

- location: Apoteket Svanen Råå Helsingborg
  city: Helsingborg
  urn: urn:apoteket:store:id:a02560001
  country: Sverige
  latitude: 56.0002
  longitude: 12.7389

- location: Apoteket Väla
  city: Ödåkra
  urn: urn:apoteket:store:id:a02450001
  country: Sverige
  latitude: 56.092004
  longitude: 12.758152

- location: Apoteket Rosen
  city: Sandared
  urn: urn:apoteket:store:id:a05640001
  country: Sverige
  latitude: 57.7094
  longitude: 12.7991

- location: Apoteket Östergatan Landskrona
  city: Landskrona
  urn: urn:apoteket:store:id:a02520001
  country: Sverige
  latitude: 55.870784
  longitude: 12.832589

- location: Apoteket Berguven
  city: Halmstad
  urn: urn:apoteket:store:id:a08970002
  country: Sverige
  latitude: 56.681
  longitude: 12.8477

- location: Apoteket Vakteln
  city: Halmstad
  urn: urn:apoteket:store:id:a09020001
  country: Sverige
  latitude: 56.6736
  longitude: 12.8587

- location: Apoteket Göteborgsvägen Borås
  city: Borås
  urn: urn:apoteket:store:id:a21280001
  country: Sverige
  latitude: 57.714521
  longitude: 12.86569

- location: Apoteket Entré Båstad
  city: Båstad
  urn: urn:apoteket:store:id:a21900001
  country: Sverige
  latitude: 56.426254
  longitude: 12.88742

- location: Apoteket Solrosen
  city: Ängelholm
  urn: urn:apoteket:store:id:a03330001
  country: Sverige
  latitude: 56.2551
  longitude: 12.8915

- location: Apoteket Vipan
  city: Halmstad
  urn: urn:apoteket:store:id:a08950001
  country: Sverige
  latitude: 56.6774
  longitude: 12.9092

- location: Apoteket Hallarna Halmstad
  city: Halmstad
  urn: urn:apoteket:store:id:a21500001
  country: Sverige
  latitude: 56.655453
  longitude: 12.911371

- location: Apoteket Bjuv
  city: Bjuv
  urn: urn:apoteket:store:id:a18510001
  country: Sverige
  latitude: 56.08678
  longitude: 12.91484

- location: Apoteket Multihuset Limhamn
  city: Limhamn
  urn: urn:apoteket:store:id:a22140001
  country: Sverige
  latitude: 55.587302
  longitude: 12.926891

- location: Apoteket Svanen
  city: Säffle
  urn: urn:apoteket:store:id:a07620001
  country: Sverige
  latitude: 59.13195
  longitude: 12.92922

- location: Apoteket Knalleland
  city: Borås
  urn: urn:apoteket:store:id:a18010001
  country: Sverige
  latitude: 57.73389
  longitude: 12.93751

- location: Apoteket Österlånggatan Borås
  city: Borås
  urn: urn:apoteket:store:id:a22260001
  country: Sverige
  latitude: 57.720752
  longitude: 12.941331

- location: Apoteket Juwelen
  city: Borås
  urn: urn:apoteket:store:id:a01860001
  country: Sverige
  latitude: 57.7253
  longitude: 12.9598

- location: Apoteket Vara
  city: Vara
  urn: urn:apoteket:store:id:a18410001
  country: Sverige
  latitude: 58.25701
  longitude: 12.96206

- location: Apoteket Bärnstenen
  city: Höllviken
  urn: urn:apoteket:store:id:a16050001
  country: Sverige
  latitude: 55.4258
  longitude: 12.9649

- location: Apoteket Lärkan
  city: Munka Ljungby
  urn: urn:apoteket:store:id:a03450001
  country: Sverige
  latitude: 56.259
  longitude: 12.9684

- location: Apoteket Emporia
  city: Malmö
  urn: urn:apoteket:store:id:a19110001
  country: Sverige
  latitude: 55.56381
  longitude: 12.97483

- location: Apoteket Strömstaren
  city: Oskarström
  urn: urn:apoteket:store:id:a08910001
  country: Sverige
  latitude: 56.8016
  longitude: 12.9753

- location: Apoteket Västra Hamnen
  city: Malmö
  urn: urn:apoteket:store:id:a19580001
  country: Sverige
  latitude: 55.611032
  longitude: 12.981827

- location: Apoteket Center Syd
  city: Löddeköpinge
  urn: urn:apoteket:store:id:a21080001
  country: Sverige
  latitude: 55.7693
  longitude: 12.9894

- location: Apoteket Lejonet
  city: Malmö
  urn: urn:apoteket:store:id:a08000001
  country: Sverige
  latitude: 55.6061
  longitude: 13.0012

- location: Apoteket Triangeln
  city: Malmö
  urn: urn:apoteket:store:id:a18330001
  country: Sverige
  latitude: 55.59685
  longitude: 13.00184

- location: Apoteket Mobilia
  city: Malmö
  urn: urn:apoteket:store:id:a12790001
  country: Sverige
  latitude: 55.5803
  longitude: 13.0035

- location: Apoteket Hansa Malmö
  city: Malmö
  urn: urn:apoteket:store:id:a21400001
  country: Sverige
  latitude: 55.603281
  longitude: 13.003974

- location: Apoteket Gripen
  city: Malmö
  urn: urn:apoteket:store:id:a08060001
  country: Sverige
  latitude: 55.5902
  longitude: 13.0062

- location: Apoteket Stjärnan
  city: Herrljunga
  urn: urn:apoteket:store:id:a05580001
  country: Sverige
  latitude: 58.076
  longitude: 13.0146

- location: Apoteket Hinden
  city: Malmö
  urn: urn:apoteket:store:id:a08010001
  country: Sverige
  latitude: 55.5739
  longitude: 13.0187

- location: Apoteket Värnhemstorget Malmö
  city: Malmö
  urn: urn:apoteket:store:id:a19410001
  country: Sverige
  latitude: 55.6064
  longitude: 13.0238

- location: Apoteket Entré Malmö
  city: Malmö
  urn: urn:apoteket:store:id:a21510001
  country: Sverige
  latitude: 55.607302
  longitude: 13.025327

- location: Apoteket Källan
  city: Arlöv
  urn: urn:apoteket:store:id:a19700001
  country: Sverige
  latitude: 55.6395
  longitude: 13.0842

- location: Apoteket Spoven
  city: Oxie
  urn: urn:apoteket:store:id:a08050001
  country: Sverige
  latitude: 55.5393
  longitude: 13.0956

- location: Apoteket Orren
  city: Grums
  urn: urn:apoteket:store:id:a07640001
  country: Sverige
  latitude: 59.3533
  longitude: 13.11232

- location: Apoteket Kronan
  city: Kävlinge
  urn: urn:apoteket:store:id:a02730001
  country: Sverige
  latitude: 55.7905
  longitude: 13.1127

- location: Apoteket Kronan
  city: Klippan
  urn: urn:apoteket:store:id:a09230001
  country: Sverige
  latitude: 56.13579
  longitude: 13.12975

- location: Apoteket Stjärnan
  city: Sunne
  urn: urn:apoteket:store:id:a07690001
  country: Sverige
  latitude: 59.8366
  longitude: 13.1439

- location: Apoteket Näckrosen
  city: Lidköping
  urn: urn:apoteket:store:id:a10930001
  country: Sverige
  latitude: 58.5087
  longitude: 13.145

- location: Apoteket Svea
  city: Trelleborg
  urn: urn:apoteket:store:id:a08170001
  country: Sverige
  latitude: 55.3742
  longitude: 13.1588

- location: Apoteket Svanen
  city: Lund
  urn: urn:apoteket:store:id:a02640001
  country: Sverige
  latitude: 55.7037
  longitude: 13.1925

- location: Apoteket Lönnen
  city: Svedala
  urn: urn:apoteket:store:id:a20570001
  country: Sverige
  latitude: 55.5089
  longitude: 13.2372

- location: Apoteket Tjädern
  city: Hyltebruk
  urn: urn:apoteket:store:id:a08990001
  country: Sverige
  latitude: 56.9998
  longitude: 13.2402

- location: Apoteket Linero
  city: Lund
  urn: urn:apoteket:store:id:a02780001
  country: Sverige
  latitude: 55.694821
  longitude: 13.242764

- location: Apoteket Ljungen
  city: Örkelljunga
  urn: urn:apoteket:store:id:a09340001
  country: Sverige
  latitude: 56.2835
  longitude: 13.2769

- location: Apoteket Flygstaden Eslöv
  city: Eslöv
  urn: urn:apoteket:store:id:a18380001
  country: Sverige
  latitude: 55.843663
  longitude: 13.328562

- location: Apoteket Tranan
  city: Tranemo
  urn: urn:apoteket:store:id:a05690001
  country: Sverige
  latitude: 57.4809
  longitude: 13.3474

- location: Apoteket Gladan
  city: Dalby
  urn: urn:apoteket:store:id:a02670001
  country: Sverige
  latitude: 55.6642
  longitude: 13.3489

- location: Apoteket Näckrosen
  city: Perstorp
  urn: urn:apoteket:store:id:a09330001
  country: Sverige
  latitude: 56.1384
  longitude: 13.3949

- location: Apoteket Kronan
  city: Ulricehamn
  urn: urn:apoteket:store:id:a05740001
  country: Sverige
  latitude: 57.7953
  longitude: 13.4144

- location: Apoteket Kronan
  city: Skara
  urn: urn:apoteket:store:id:a00940001
  country: Sverige
  latitude: 58.38576
  longitude: 13.437535

- location: Apoteket Källan
  city: Karlstad
  urn: urn:apoteket:store:id:a06020001
  country: Sverige
  latitude: 59.4357
  longitude: 13.4405

- location: Apoteket Vargen
  city: Karlstad
  urn: urn:apoteket:store:id:a05890001
  country: Sverige
  latitude: 59.3749
  longitude: 13.4781

- location: Apoteket Lärkan
  city: Forshaga
  urn: urn:apoteket:store:id:a05850001
  country: Sverige
  latitude: 59.5321
  longitude: 13.4806

- location: Apoteket Mitt i City
  city: Karlstad
  urn: urn:apoteket:store:id:a17180001
  country: Sverige
  latitude: 59.3798
  longitude: 13.4996

- location: Apoteket Örnen
  city: Karlstad
  urn: urn:apoteket:store:id:a06010001
  country: Sverige
  latitude: 59.3786
  longitude: 13.5003

- location: Apoteket Skurup
  city: Skurup
  urn: urn:apoteket:store:id:a18640001
  country: Sverige
  latitude: 55.479
  longitude: 13.5011

- location: Apoteket Björken
  city: Karlstad
  urn: urn:apoteket:store:id:a05900001
  country: Sverige
  latitude: 59.3916
  longitude: 13.517

- location: Apoteket Gislaved
  city: Gislaved
  urn: urn:apoteket:store:id:a18360001
  country: Sverige
  latitude: 57.30195
  longitude: 13.54088

- location: Apoteket Kronan
  city: Falköping
  urn: urn:apoteket:store:id:a01120001
  country: Sverige
  latitude: 58.161
  longitude: 13.5561

- location: Apoteket Höör
  city: Höör
  urn: urn:apoteket:store:id:a21410001
  country: Sverige
  latitude: 55.951336
  longitude: 13.563311

- location: Apoteket Välsviken Karlstad
  city: Karlstad
  urn: urn:apoteket:store:id:a21540001
  country: Sverige
  latitude: 59.395854
  longitude: 13.575721

- location: Apoteket Svanen
  city: Markaryd
  urn: urn:apoteket:store:id:a02350001
  country: Sverige
  latitude: 56.461
  longitude: 13.5976

- location: Apoteket Linden
  city: Sösdala
  urn: urn:apoteket:store:id:a09280001
  country: Sverige
  latitude: 56.0378
  longitude: 13.6803

- location: Apoteket Ängeln
  city: Sjöbo
  urn: urn:apoteket:store:id:a08120001
  country: Sverige
  latitude: 55.6317
  longitude: 13.7037

- location: Apoteket Gallerian
  city: Hässleholm
  urn: urn:apoteket:store:id:a19000001
  country: Sverige
  latitude: 56.15746
  longitude: 13.76676

- location: Apoteket Linné
  city: Hässleholm
  urn: urn:apoteket:store:id:a09270001
  country: Sverige
  latitude: 56.1594
  longitude: 13.7767

- location: Apoteket Doppingen
  city: Ystad
  urn: urn:apoteket:store:id:a08100001
  country: Sverige
  latitude: 55.4331
  longitude: 13.8166

- location: Apoteket Stortorget
  city: Ystad
  urn: urn:apoteket:store:id:a17700001
  country: Sverige
  latitude: 55.42981
  longitude: 13.82033

- location: Apoteket Oxen
  city: Mariestad
  urn: urn:apoteket:store:id:a18650001
  country: Sverige
  latitude: 58.7089
  longitude: 13.8228

- location: Apoteket Tranan
  city: Skövde
  urn: urn:apoteket:store:id:a01060001
  country: Sverige
  latitude: 58.4004
  longitude: 13.8387

- location: Apoteket Kärnan
  city: Skövde
  urn: urn:apoteket:store:id:a01050001
  country: Sverige
  latitude: 58.4254
  longitude: 13.8506

- location: Apoteket Kronan
  city: Ljungby
  urn: urn:apoteket:store:id:a02340001
  country: Sverige
  latitude: 56.8346
  longitude: 13.9406

- location: Apoteket Artemis
  city: Tomelilla
  urn: urn:apoteket:store:id:a18320001
  country: Sverige
  latitude: 55.54355
  longitude: 13.95331

- location: Apoteket Storken
  city: Tollarp
  urn: urn:apoteket:store:id:a09120001
  country: Sverige
  latitude: 55.9346
  longitude: 13.9721

- location: Apoteket Dufwan
  city: Osby
  urn: urn:apoteket:store:id:a09310001
  country: Sverige
  latitude: 56.3821
  longitude: 13.9952

- location: Apoteket Vågen
  city: Värnamo
  urn: urn:apoteket:store:id:a01550001
  country: Sverige
  latitude: 57.1745
  longitude: 14.028

- location: Apoteket Björnen
  city: Älvdalen
  urn: urn:apoteket:store:id:a04360001
  country: Sverige
  latitude: 61.231
  longitude: 14.0378

- location: Apoteket Änge
  city: Offerdal
  urn: urn:apoteket:store:id:a04630001
  country: Sverige
  latitude: 63.4577
  longitude: 14.0688

- location: Apoteket Lärkan
  city: Habo
  urn: urn:apoteket:store:id:a01140001
  country: Sverige
  latitude: 57.9104
  longitude: 14.0888

- location: Apoteket Björnen
  city: Kristinehamn
  urn: urn:apoteket:store:id:a05940001
  country: Sverige
  latitude: 59.3057
  longitude: 14.1011

- location: Apoteket Bojorten
  city: Kristinehamn
  urn: urn:apoteket:store:id:a18530001
  country: Sverige
  latitude: 59.30783
  longitude: 14.10842

- location: Apoteket Nyponet
  city: Norrahammar
  urn: urn:apoteket:store:id:a01430001
  country: Sverige
  latitude: 57.7038
  longitude: 14.1174

- location: Apoteket Ekorren
  city: Bankeryd
  urn: urn:apoteket:store:id:a01420001
  country: Sverige
  latitude: 57.8614
  longitude: 14.1261

- location: Apoteket Kronan
  city: Töreboda
  urn: urn:apoteket:store:id:a01040001
  country: Sverige
  latitude: 58.7074
  longitude: 14.1267

- location: Apoteket Fjällämmeln
  city: Gäddede
  urn: urn:apoteket:store:id:a04440001
  country: Sverige
  latitude: 64.501948
  longitude: 14.144343

- location: Apoteket Norringen
  city: Kristianstad
  urn: urn:apoteket:store:id:a11710001
  country: Sverige
  latitude: 56.043
  longitude: 14.1481

- location: Apoteket Kronan
  city: Kristianstad
  urn: urn:apoteket:store:id:a18390001
  country: Sverige
  latitude: 56.02957
  longitude: 14.15558

- location: Apoteket Svanen
  city: Tibro
  urn: urn:apoteket:store:id:a01070001
  country: Sverige
  latitude: 58.4254
  longitude: 14.1646

- location: Apoteket Östra Storgatan
  city: Jönköping
  urn: urn:apoteket:store:id:a18220001
  country: Sverige
  latitude: 57.782483
  longitude: 14.17435

- location: Apoteket Ryhov
  city: Jönköping
  urn: urn:apoteket:store:id:a01690001
  country: Sverige
  latitude: 57.7681
  longitude: 14.1953

- location: Apoteket Batterigatan Jönköping
  city: Jönköping
  urn: urn:apoteket:store:id:a21290001
  country: Sverige
  latitude: 57.767642
  longitude: 14.201709

- location: Apoteket Asecs
  city: Jönköping
  urn: urn:apoteket:store:id:a18480001
  country: Sverige
  latitude: 57.770891
  longitude: 14.203632

- location: Apoteket A6 Vakten
  city: Jönköping
  urn: urn:apoteket:store:id:a17610001
  country: Sverige
  latitude: 57.76904
  longitude: 14.20414

- location: Apoteket C4 Kristianstad
  city: Kristianstad
  urn: urn:apoteket:store:id:a21850001
  country: Sverige
  latitude: 56.02631
  longitude: 14.206223

- location: Apoteket Tallen
  city: Vansbro
  urn: urn:apoteket:store:id:a04330001
  country: Sverige
  latitude: 60.5106
  longitude: 14.2232

- location: Apoteket Alnen
  city: Rydaholm
  urn: urn:apoteket:store:id:a01710001
  country: Sverige
  latitude: 56.9849
  longitude: 14.3036

- location: Apoteket Vågen
  city: Degerfors
  urn: urn:apoteket:store:id:a05050001
  country: Sverige
  latitude: 59.2372
  longitude: 14.4329

- location: Apoteket Svanen
  city: Krokom
  urn: urn:apoteket:store:id:a04530001
  country: Sverige
  latitude: 63.3265
  longitude: 14.4498

- location: Apoteket Lärkan
  city: Karlskoga
  urn: urn:apoteket:store:id:a05020001
  country: Sverige
  latitude: 59.3153
  longitude: 14.506

- location: Apoteket Kulan
  city: Karlskoga
  urn: urn:apoteket:store:id:a18690001
  country: Sverige
  latitude: 59.32583
  longitude: 14.5234

- location: Apoteket Storgatan
  city: Olofström
  urn: urn:apoteket:store:id:a17690001
  country: Sverige
  latitude: 56.2776
  longitude: 14.52998

- location: Apoteket Svanen
  city: Alvesta
  urn: urn:apoteket:store:id:a02300001
  country: Sverige
  latitude: 56.8999
  longitude: 14.5531

- location: Apoteket Bävern
  city: Mora
  urn: urn:apoteket:store:id:a04290002
  country: Sverige
  latitude: 61.0163
  longitude: 14.5849

- location: Apoteket Biet
  city: Frösön
  urn: urn:apoteket:store:id:a04420001
  country: Sverige
  latitude: 63.1679
  longitude: 14.6004

- location: Apoteket Nornan
  city: Östersund
  urn: urn:apoteket:store:id:a04410002
  country: Sverige
  latitude: 63.1838
  longitude: 14.6369

- location: Apoteket Kärnan
  city: Östersund
  urn: urn:apoteket:store:id:a15940001
  country: Sverige
  latitude: 63.176
  longitude: 14.6374

- location: Apoteket Kronan
  city: Ödeshög
  urn: urn:apoteket:store:id:a00670001
  country: Sverige
  latitude: 58.2283
  longitude: 14.6494

- location: Apoteket Mjällby Sölvesborg
  city: Sölvesborg
  urn: urn:apoteket:store:id:a18550001
  country: Sverige
  latitude: 56.044568
  longitude: 14.674069

- location: Apoteket Lillänge
  city: Östersund
  urn: urn:apoteket:store:id:a11490001
  country: Sverige
  latitude: 63.1744
  longitude: 14.6938

- location: Apoteket Loket
  city: Nässjö
  urn: urn:apoteket:store:id:a18820001
  country: Sverige
  latitude: 57.65434
  longitude: 14.69572

- location: Apoteket Samarkand
  city: Växjö
  urn: urn:apoteket:store:id:a17600001
  country: Sverige
  latitude: 56.88301
  longitude: 14.76635

- location: Apoteket Sambandsvägen Växjö
  city: Växjö
  urn: urn:apoteket:store:id:a21320001
  country: Sverige
  latitude: 56.878351
  longitude: 14.772653

- location: Apoteket Storgatan
  city: Växjö
  urn: urn:apoteket:store:id:a17090001
  country: Sverige
  latitude: 56.87876
  longitude: 14.8047

- location: Apoteket Ugglan
  city: Karlshamn
  urn: urn:apoteket:store:id:a05650001
  country: Sverige
  latitude: 56.1873
  longitude: 14.8521

- location: Apoteket Örnen
  city: Vadstena
  urn: urn:apoteket:store:id:a00620001
  country: Sverige
  latitude: 58.4476
  longitude: 14.8877

- location: Apoteket Sjukhuset Eksjö
  city: Eksjö
  urn: urn:apoteket:store:id:a22160001
  country: Sverige
  latitude: 57.666977
  longitude: 14.965939

- location: Apoteket Lejonet
  city: Eksjö
  urn: urn:apoteket:store:id:a01580001
  country: Sverige
  latitude: 57.665535
  longitude: 14.97223

- location: Apoteket Tranan
  city: Tranås
  urn: urn:apoteket:store:id:a18660001
  country: Sverige
  latitude: 58.03599
  longitude: 14.97735

- location: Apoteket Uttern
  city: Tingsryd
  urn: urn:apoteket:store:id:a02360001
  country: Sverige
  latitude: 56.5231
  longitude: 14.9815

- location: Apoteket Leksand
  city: Leksand
  urn: urn:apoteket:store:id:a04270001
  country: Sverige
  latitude: 60.7306
  longitude: 14.9979

- location: Apoteket Marieberg
  city: Motala
  urn: urn:apoteket:store:id:a00590001
  country: Sverige
  latitude: 58.5399
  longitude: 15.0012

- location: Apoteket Kronan
  city: Motala
  urn: urn:apoteket:store:id:a00570001
  country: Sverige
  latitude: 58.5368
  longitude: 15.039

- location: Apoteket Lejonet
  city: Vetlanda
  urn: urn:apoteket:store:id:a01590001
  country: Sverige
  latitude: 57.426
  longitude: 15.0854

- location: Apoteket Kronan
  city: Skänninge
  urn: urn:apoteket:store:id:a00650001
  country: Sverige
  latitude: 58.3945
  longitude: 15.0874

- location: Apoteket Djurås
  city: Djurås
  urn: urn:apoteket:store:id:a04300001
  country: Sverige
  latitude: 60.5608
  longitude: 15.1311

- location: Apoteket Marieberg
  city: Örebro
  urn: urn:apoteket:store:id:a05160001
  country: Sverige
  latitude: 59.2166
  longitude: 15.1359

- location: Apoteket Liljan
  city: Ludvika
  urn: urn:apoteket:store:id:a04100001
  country: Sverige
  latitude: 60.1496
  longitude: 15.1869

- location: Apoteket Prologgatan Örebro
  city: Örebro
  urn: urn:apoteket:store:id:a21340001
  country: Sverige
  latitude: 59.295128
  longitude: 15.199474

- location: Apoteket Älgen
  city: Örebro
  urn: urn:apoteket:store:id:a04970001
  country: Sverige
  latitude: 59.276
  longitude: 15.2067

- location: Apoteket Våghustorget Örebro
  city: Örebro
  urn: urn:apoteket:store:id:a21650001
  country: Sverige
  latitude: 59.269899
  longitude: 15.210821

- location: Apoteket Kungsgatan
  city: Örebro
  urn: urn:apoteket:store:id:a17940001
  country: Sverige
  latitude: 59.27076
  longitude: 15.21449

- location: Apoteket Lokatten
  city: Lindesberg
  urn: urn:apoteket:store:id:a05080001
  country: Sverige
  latitude: 59.6028
  longitude: 15.2165

- location: Apoteket Universitetssjukhuset
  city: Örebro
  urn: urn:apoteket:store:id:a04960001
  country: Sverige
  latitude: 59.2764
  longitude: 15.2252

- location: Apoteket Tybble VC
  city: Örebro
  urn: urn:apoteket:store:id:a05150001
  country: Sverige
  latitude: 59.2544
  longitude: 15.237

- location: Apoteket Snäckan
  city: Ronneby
  urn: urn:apoteket:store:id:a11480001
  country: Sverige
  latitude: 56.2067
  longitude: 15.2705

- location: Apoteket Örnen
  city: Lessebo
  urn: urn:apoteket:store:id:a02380001
  country: Sverige
  latitude: 56.7515
  longitude: 15.2706

- location: Apoteket Räven
  city: Ydre
  urn: urn:apoteket:store:id:a01660001
  country: Sverige
  latitude: 57.8251
  longitude: 15.2767

- location: Apoteket Björnen
  city: Hammerdal
  urn: urn:apoteket:store:id:a04450001
  country: Sverige
  latitude: 63.5822
  longitude: 15.351

- location: Apoteket Falken
  city: Borlänge
  urn: urn:apoteket:store:id:a04080001
  country: Sverige
  latitude: 60.5158
  longitude: 15.4105

- location: Apoteket Kupolen
  city: Borlänge
  urn: urn:apoteket:store:id:a17230001
  country: Sverige
  latitude: 60.48443
  longitude: 15.418058

- location: Apoteket Mården
  city: Bräcke
  urn: urn:apoteket:store:id:a04490001
  country: Sverige
  latitude: 62.749222
  longitude: 15.419844

- location: Apoteket Humlan
  city: Linköping
  urn: urn:apoteket:store:id:a00680001
  country: Sverige
  latitude: 58.4204
  longitude: 15.5085

- location: Apoteket Svanen
  city: Odensbacken
  urn: urn:apoteket:store:id:a04930001
  country: Sverige
  latitude: 59.1564
  longitude: 15.5253

- location: Apoteket Älgen
  city: Strömsund
  urn: urn:apoteket:store:id:a04430001
  country: Sverige
  latitude: 63.852
  longitude: 15.5592

- location: Apoteket Lambohov
  city: Linköping
  urn: urn:apoteket:store:id:a09610001
  country: Sverige
  latitude: 58.3877
  longitude: 15.5639

- location: Apoteket Wachtmeister
  city: Karlskrona
  urn: urn:apoteket:store:id:a18050001
  country: Sverige
  latitude: 56.16172
  longitude: 15.58329

- location: Apoteket Filbyter
  city: Linköping
  urn: urn:apoteket:store:id:a17530001
  country: Sverige
  latitude: 58.41083
  longitude: 15.62098

- location: Apoteket Kronan
  city: Linköping
  urn: urn:apoteket:store:id:a00540001
  country: Sverige
  latitude: 58.4106
  longitude: 15.6274

- location: Apoteket Engelbrekt
  city: Falun
  urn: urn:apoteket:store:id:a12280301
  country: Sverige
  latitude: 60.6062
  longitude: 15.6322

- location: Apoteket Falu lasarett
  city: Falun
  urn: urn:apoteket:store:id:a04230001
  country: Sverige
  latitude: 60.6086
  longitude: 15.6425

- location: Apoteket Pantern
  city: Lyckeby
  urn: urn:apoteket:store:id:a01880001
  country: Sverige
  latitude: 56.1986
  longitude: 15.6497

- location: Apoteket Ugglan
  city: Ånge
  urn: urn:apoteket:store:id:a06430001
  country: Sverige
  latitude: 62.5242
  longitude: 15.659

- location: Apoteket Viggen
  city: Linköping
  urn: urn:apoteket:store:id:a00500001
  country: Sverige
  latitude: 58.3801
  longitude: 15.6816

- location: Apoteket Vallonen
  city: Finspång
  urn: urn:apoteket:store:id:a08390001
  country: Sverige
  latitude: 58.7107
  longitude: 15.7605

- location: Apoteket Lejonet
  city: Fagersta
  urn: urn:apoteket:store:id:a04790001
  country: Sverige
  latitude: 60.0054
  longitude: 15.797

- location: Apoteket Kronan
  city: Hultsfred
  urn: urn:apoteket:store:id:a01950001
  country: Sverige
  latitude: 57.4882
  longitude: 15.8426

- location: Apoteket Kråkan
  city: Svärdsjö
  urn: urn:apoteket:store:id:a04220001
  country: Sverige
  latitude: 60.7406
  longitude: 15.904

- location: Apoteket Lönnen
  city: Nybro
  urn: urn:apoteket:store:id:a18350001
  country: Sverige
  latitude: 56.74467
  longitude: 15.9064

- location: Apoteket Tärnan
  city: Köping
  urn: urn:apoteket:store:id:a04830001
  country: Sverige
  latitude: 59.5091
  longitude: 16.0027

- location: Apoteket Malen
  city: Högsby
  urn: urn:apoteket:store:id:a01980001
  country: Sverige
  latitude: 57.1649
  longitude: 16.0269

- location: Apoteket Nordstjärnan
  city: Alfta
  urn: urn:apoteket:store:id:a00370001
  country: Sverige
  latitude: 61.3463
  longitude: 16.0678

- location: Apoteket Kronan
  city: Kungsör
  urn: urn:apoteket:store:id:a04860001
  country: Sverige
  latitude: 59.4185
  longitude: 16.0962

- location: Apoteket Vargen
  city: Fränsta
  urn: urn:apoteket:store:id:a06440001
  country: Sverige
  latitude: 62.5005
  longitude: 16.167

- location: Apoteket Kronan
  city: Avesta
  urn: urn:apoteket:store:id:a04140001
  country: Sverige
  latitude: 60.1459
  longitude: 16.1683

- location: Apoteket Fasanen
  city: Norrköping
  urn: urn:apoteket:store:id:a08340001
  country: Sverige
  latitude: 58.5707
  longitude: 16.1698

- location: Apoteket Malmgatan Norrköping
  city: Norrköping
  urn: urn:apoteket:store:id:a21310001
  country: Sverige
  latitude: 58.616273
  longitude: 16.175529

- location: Apoteket Vrinnevisjukhuset
  city: Norrköping
  urn: urn:apoteket:store:id:a08250001
  country: Sverige
  latitude: 58.5636
  longitude: 16.1791

- location: Apoteket Spiralen
  city: Norrköping
  urn: urn:apoteket:store:id:a08330001
  country: Sverige
  latitude: 58.58699
  longitude: 16.18904

- location: Apoteket Hjorten
  city: Norrköping
  urn: urn:apoteket:store:id:a17520001
  country: Sverige
  latitude: 58.5876
  longitude: 16.19161

- location: Apoteket Visenten
  city: Avesta
  urn: urn:apoteket:store:id:a04160001
  country: Sverige
  latitude: 60.1412
  longitude: 16.2009

- location: Apoteket Björken
  city: Hoting
  urn: urn:apoteket:store:id:a04640001
  country: Sverige
  latitude: 64.1144
  longitude: 16.2077

- location: Apoteket Violen
  city: Katrineholm
  urn: urn:apoteket:store:id:a18420001
  country: Sverige
  latitude: 58.99441
  longitude: 16.20829

- location: Apoteket Illern
  city: Surahammar
  urn: urn:apoteket:store:id:a04770001
  country: Sverige
  latitude: 59.7077
  longitude: 16.2214

- location: Apoteket Solvändan
  city: Kalmar
  urn: urn:apoteket:store:id:a02120001
  country: Sverige
  latitude: 56.7342
  longitude: 16.2953

- location: Apoteket Trångsundsvägen Kalmar
  city: Kalmar
  urn: urn:apoteket:store:id:a21300001
  country: Sverige
  latitude: 56.685503
  longitude: 16.315165

- location: Apoteket Sundet
  city: Kalmar
  urn: urn:apoteket:store:id:a02090001
  country: Sverige
  latitude: 56.6575
  longitude: 16.3295

- location: Apoteket Hinden
  city: Kalmar
  urn: urn:apoteket:store:id:a02080001
  country: Sverige
  latitude: 56.692168
  longitude: 16.339004

- location: Apoteket Linblomman
  city: Bollnäs
  urn: urn:apoteket:store:id:a00390001
  country: Sverige
  latitude: 61.3542
  longitude: 16.3615

- location: Apoteket Baronen
  city: Kalmar
  urn: urn:apoteket:store:id:a13090301
  country: Sverige
  latitude: 56.6606
  longitude: 16.3652

- location: Apoteket Kronan
  city: Mörbylånga
  urn: urn:apoteket:store:id:a02060001
  country: Sverige
  latitude: 56.5266
  longitude: 16.379

- location: Apoteket Kronan
  city: Backe
  urn: urn:apoteket:store:id:a04460001
  country: Sverige
  latitude: 63.8109
  longitude: 16.4045

- location: Apoteket Blåklockan
  city: Horndal
  urn: urn:apoteket:store:id:a04240001
  country: Sverige
  latitude: 60.2949
  longitude: 16.4095

- location: Apoteket Lejonet
  city: Oskarshamn
  urn: urn:apoteket:store:id:a01970001
  country: Sverige
  latitude: 57.2641
  longitude: 16.449

- location: Apoteket Tuna Park
  city: Eskilstuna
  urn: urn:apoteket:store:id:a18200001
  country: Sverige
  latitude: 59.37134
  longitude: 16.47011

- location: Apoteket Svanen
  city: Torshälla
  urn: urn:apoteket:store:id:a00880001
  country: Sverige
  latitude: 59.4199
  longitude: 16.4753

- location: Apoteket Freja
  city: Eskilstuna
  urn: urn:apoteket:store:id:a16310001
  country: Sverige
  latitude: 59.371
  longitude: 16.5125

- location: Apoteket Duvan
  city: Storvik
  urn: urn:apoteket:store:id:a00230001
  country: Sverige
  latitude: 60.5829
  longitude: 16.5303

- location: Apoteket Stora Gatan 52 Västerås
  city: Västerås
  urn: urn:apoteket:store:id:a21520001
  country: Sverige
  latitude: 59.608966
  longitude: 16.540882

- location: Apoteket Hjorten
  city: Västerås
  urn: urn:apoteket:store:id:a04670001
  country: Sverige
  latitude: 59.6099
  longitude: 16.5443

- location: Apoteket Vingen
  city: Västerås
  urn: urn:apoteket:store:id:a04710001
  country: Sverige
  latitude: 59.6094
  longitude: 16.5747

- location: Apoteket Renen
  city: Sala
  urn: urn:apoteket:store:id:a04760001
  country: Sverige
  latitude: 59.9214
  longitude: 16.6051

- location: Apoteket Hälla
  city: Västerås
  urn: urn:apoteket:store:id:a12160001
  country: Sverige
  latitude: 59.608265
  longitude: 16.619149

- location: Apoteket Lejonet
  city: Västervik
  urn: urn:apoteket:store:id:a01930001
  country: Sverige
  latitude: 57.7553
  longitude: 16.6339

- location: Apoteket Tullporten Västervik
  city: Västervik
  urn: urn:apoteket:store:id:a20450001
  country: Sverige
  latitude: 57.758386
  longitude: 16.638987

- location: Apoteket Kronan
  city: Malmköping
  urn: urn:apoteket:store:id:a00810001
  country: Sverige
  latitude: 59.1344
  longitude: 16.7339

- location: Apoteket Valbo
  city: Valbo
  urn: urn:apoteket:store:id:a17120001
  country: Sverige
  latitude: 60.6336
  longitude: 16.9946

- location: Apoteket Axet
  city: Nyköping
  urn: urn:apoteket:store:id:a12770301
  country: Sverige
  latitude: 58.751835
  longitude: 17.003611

- location: Apoteket Gripen
  city: Nyköping
  urn: urn:apoteket:store:id:a00740001
  country: Sverige
  latitude: 58.75248
  longitude: 17.00639

- location: Apoteket Laxen
  city: Matfors
  urn: urn:apoteket:store:id:a06330001
  country: Sverige
  latitude: 62.3486
  longitude: 17.0144

- location: Apoteket E-center Söderhamn
  city: Söderhamn
  urn: urn:apoteket:store:id:a22280001
  country: Sverige
  latitude: 61.295581
  longitude: 17.020752

- location: Apoteket Mården
  city: Bergby
  urn: urn:apoteket:store:id:a09520001
  country: Sverige
  latitude: 60.9288
  longitude: 17.0434

- location: Apoteket Björnen
  city: Bergsjö
  urn: urn:apoteket:store:id:a00410001
  country: Sverige
  latitude: 61.9845
  longitude: 17.0607

- location: Apoteket Ugglan
  city: Enköping
  urn: urn:apoteket:store:id:a03560001
  country: Sverige
  latitude: 59.6299
  longitude: 17.0709

- location: Apoteket Rönnen
  city: Iggesund
  urn: urn:apoteket:store:id:a00340001
  country: Sverige
  latitude: 61.645
  longitude: 17.0752

- location: Apoteket Stjärnan
  city: Hudiksvall
  urn: urn:apoteket:store:id:a00320001
  country: Sverige
  latitude: 61.7299
  longitude: 17.0986

- location: Apoteket Fyren
  city: Hudiksvall
  urn: urn:apoteket:store:id:a18400001
  country: Sverige
  latitude: 61.72714
  longitude: 17.10491

- location: Apoteket Syrenen
  city: Gävle
  urn: urn:apoteket:store:id:a00130001
  country: Sverige
  latitude: 60.6777
  longitude: 17.1172

- location: Apoteket Bocken
  city: Gävle
  urn: urn:apoteket:store:id:a15910001
  country: Sverige
  latitude: 60.674
  longitude: 17.141

- location: Apoteket Drottninggatan Gävle
  city: Gävle
  urn: urn:apoteket:store:id:a21980001
  country: Sverige
  latitude: 60.674352
  longitude: 17.142972

- location: Apoteket Lokatten
  city: Harmånger
  urn: urn:apoteket:store:id:a00330001
  country: Sverige
  latitude: 61.9266
  longitude: 17.2194

- location: Apoteket Skärvsta
  city: Sollefteå
  urn: urn:apoteket:store:id:a06550001
  country: Sverige
  latitude: 63.1744
  longitude: 17.2357

- location: Apoteket Lejonet
  city: Sundsvall
  urn: urn:apoteket:store:id:a21640001
  country: Sverige
  latitude: 62.391383
  longitude: 17.305161

- location: Apoteket Gripen
  city: Sundsvall
  urn: urn:apoteket:store:id:a06320001
  country: Sverige
  latitude: 62.391
  longitude: 17.3106

- location: Apoteket Timrå
  city: Timrå
  urn: urn:apoteket:store:id:a06400001
  country: Sverige
  latitude: 62.4867
  longitude: 17.3241

- location: Apoteket Birsta
  city: Sundsvall
  urn: urn:apoteket:store:id:a18730001
  country: Sverige
  latitude: 62.44713
  longitude: 17.33574

- location: Apoteket Centrumvägen Nykvarn
  city: Nykvarn
  urn: urn:apoteket:store:id:a07510001
  country: Sverige
  latitude: 59.1774
  longitude: 17.4325

- location: Apoteket Örnen
  city: Tierp
  urn: urn:apoteket:store:id:a03640001
  country: Sverige
  latitude: 60.3369
  longitude: 17.5142

- location: Apoteket Vasa Södertälje
  city: Södertälje
  urn: urn:apoteket:store:id:a21560001
  country: Sverige
  latitude: 59.187224
  longitude: 17.573569

- location: Apoteket S:ta Ragnhild
  city: Södertälje
  urn: urn:apoteket:store:id:a07430001
  country: Sverige
  latitude: 59.196
  longitude: 17.628

- location: Apoteket Kronan
  city: Uppsala
  urn: urn:apoteket:store:id:a20420001
  country: Sverige
  latitude: 59.8595
  longitude: 17.6368

- location: Apoteket S:t Per
  city: Uppsala
  urn: urn:apoteket:store:id:a16530001
  country: Sverige
  latitude: 59.8598
  longitude: 17.6376

- location: Apoteket Forumkvarteret Uppsala
  city: Uppsala
  urn: urn:apoteket:store:id:a21960001
  country: Sverige
  latitude: 59.857975
  longitude: 17.640226

- location: Apoteket Kungsgatan Uppsala
  city: Uppsala
  urn: urn:apoteket:store:id:a21460001
  country: Sverige
  latitude: 59.849459
  longitude: 17.658305

- location: Apoteket Boländerna
  city: Uppsala
  urn: urn:apoteket:store:id:a18450001
  country: Sverige
  latitude: 59.8466
  longitude: 17.69284

- location: Apoteket Röllekan
  city: Uppsala
  urn: urn:apoteket:store:id:a03670001
  country: Sverige
  latitude: 59.8101
  longitude: 17.7025

- location: Apoteket Myran
  city: Nyland
  urn: urn:apoteket:store:id:a06570001
  country: Sverige
  latitude: 63.0063
  longitude: 17.7644

- location: Apoteket Stenbocken
  city: Järfälla
  urn: urn:apoteket:store:id:a06730001
  country: Sverige
  latitude: 59.4116
  longitude: 17.8025

- location: Apoteket Tidlösan
  city: Ekerö
  urn: urn:apoteket:store:id:a06870001
  country: Sverige
  latitude: 59.290379
  longitude: 17.811666

- location: Apoteket Källan
  city: Norsborg
  urn: urn:apoteket:store:id:a19900001
  country: Sverige
  latitude: 59.2448
  longitude: 17.827

- location: Apoteket Jakobsberg Centrum
  city: Järfälla
  urn: urn:apoteket:store:id:a12220301
  country: Sverige
  latitude: 59.4233
  longitude: 17.8366

- location: Apoteket Malvan
  city: Vällingby
  urn: urn:apoteket:store:id:a06880001
  country: Sverige
  latitude: 59.364
  longitude: 17.87167

- location: Apoteket Pelikanen
  city: Spånga
  urn: urn:apoteket:store:id:a06800001
  country: Sverige
  latitude: 59.3825
  longitude: 17.8974

- location: Apoteket Flamingon
  city: Skärholmen
  urn: urn:apoteket:store:id:a12710001
  country: Sverige
  latitude: 59.2766
  longitude: 17.9083

- location: Apoteket Tigern
  city: Sollentuna
  urn: urn:apoteket:store:id:a20640001
  country: Sverige
  latitude: 59.4713
  longitude: 17.9159

- location: Apoteket Kungens kurva
  city: Kungens Kurva
  urn: urn:apoteket:store:id:a17170001
  country: Sverige
  latitude: 59.2668
  longitude: 17.92491

- location: Apoteket Ankaret
  city: Härnösand
  urn: urn:apoteket:store:id:a06610001
  country: Sverige
  latitude: 62.635295
  longitude: 17.925113

- location: Apoteket Häggvik
  city: Sollentuna
  urn: urn:apoteket:store:id:a24010010
  country: Sverige
  latitude: 59.440989
  longitude: 17.932071

- location: Apoteket Spoven
  city: Skärholmen
  urn: urn:apoteket:store:id:a07390001
  country: Sverige
  latitude: 59.2952
  longitude: 17.9344

- location: Apoteket Nova Huddinge Sjukhus
  city: Huddinge
  urn: urn:apoteket:store:id:a07490001
  country: Sverige
  latitude: 59.2214
  longitude: 17.9365

- location: Apoteket Duvan
  city: Bromma
  urn: urn:apoteket:store:id:a06830001
  country: Sverige
  latitude: 59.3388
  longitude: 17.9399

- location: Apoteket Kista Galleria
  city: Kista
  urn: urn:apoteket:store:id:a19210001
  country: Sverige
  latitude: 59.40329
  longitude: 17.9443

- location: Apoteket Fruängstorget Hägersten
  city: Hägersten
  urn: urn:apoteket:store:id:a20630001
  country: Sverige
  latitude: 59.2861
  longitude: 17.9638

- location: Apoteket Sturegatan Sundbyberg
  city: Sundbyberg
  urn: urn:apoteket:store:id:a21040001
  country: Sverige
  latitude: 59.362798
  longitude: 17.969408

- location: Apoteket Gasellen
  city: Hägersten
  urn: urn:apoteket:store:id:a07350001
  country: Sverige
  latitude: 59.3039
  longitude: 17.9749

- location: Apoteket Ulven
  city: Solna
  urn: urn:apoteket:store:id:a20610001
  country: Sverige
  latitude: 59.3501
  longitude: 17.9864

- location: Apoteket Solen
  city: Solna
  urn: urn:apoteket:store:id:a13180301
  country: Sverige
  latitude: 59.36
  longitude: 18.0005

- location: Apoteket Mall of Scandinavia
  city: Solna
  urn: urn:apoteket:store:id:a21060001
  country: Sverige
  latitude: 59.371998
  longitude: 18.001184

- location: Apoteket Älvsjö Torg
  city: Älvsjö
  urn: urn:apoteket:store:id:a07330001
  country: Sverige
  latitude: 59.278615
  longitude: 18.008941

- location: Apoteket Morkullan
  city: Bandhagen
  urn: urn:apoteket:store:id:a03960001
  country: Sverige
  latitude: 59.26218
  longitude: 18.01481

- location: Apoteket Biet
  city: Stockholm
  urn: urn:apoteket:store:id:a20660001
  country: Sverige
  latitude: 59.3287
  longitude: 18.016

- location: Apoteket Karolinska Universitetssjukhuset Solna
  city: Solna
  urn: urn:apoteket:store:id:a21820001
  country: Sverige
  latitude: 59.348378
  longitude: 18.029687

- location: Apoteket Kungsmyntan
  city: Stockholm
  urn: urn:apoteket:store:id:a03300001
  country: Sverige
  latitude: 59.3324
  longitude: 18.0305

- location: Apoteket Västermalm
  city: Stockholm
  urn: urn:apoteket:store:id:a13810001
  country: Sverige
  latitude: 59.3347
  longitude: 18.0323

- location: Apoteket Eken
  city: Danderyd
  urn: urn:apoteket:store:id:a19930001
  country: Sverige
  latitude: 59.3979
  longitude: 18.0368

- location: Apoteket Odengatan Stockholm
  city: Stockholm
  urn: urn:apoteket:store:id:a21470001
  country: Sverige
  latitude: 59.344745
  longitude: 18.057393

- location: Apoteket Hornsgatan 49 Stockholm
  city: Stockholm
  urn: urn:apoteket:store:id:a21860001
  country: Sverige
  latitude: 59.318139
  longitude: 18.057577

- location: Apoteket Shop
  city: Stockholm
  urn: urn:apoteket:store:id:a20590001
  country: Sverige
  latitude: 59.334
  longitude: 18.057594

- location: Apoteket C W Scheele
  city: Stockholm
  urn: urn:apoteket:store:id:a03170001
  country: Sverige
  latitude: 59.3319
  longitude: 18.0597

- location: Apoteket Ugglan
  city: Stockholm
  urn: urn:apoteket:store:id:a03180001
  country: Sverige
  latitude: 59.334
  longitude: 18.061

- location: Apoteket Tussilagon
  city: Enskede
  urn: urn:apoteket:store:id:a03870001
  country: Sverige
  latitude: 59.2783
  longitude: 18.0655

- location: Apoteket Sergel
  city: Stockholm
  urn: urn:apoteket:store:id:a03200001
  country: Sverige
  latitude: 59.3325
  longitude: 18.0668

- location: Apoteket Orion
  city: Täby
  urn: urn:apoteket:store:id:a11090001
  country: Sverige
  latitude: 59.4444
  longitude: 18.0669

- location: Apoteket Korpen
  city: Stockholm
  urn: urn:apoteket:store:id:a03190001
  country: Sverige
  latitude: 59.325626
  longitude: 18.068808

- location: Apoteket PK-huset
  city: Stockholm
  urn: urn:apoteket:store:id:a12680301
  country: Sverige
  latitude: 59.333
  longitude: 18.0712

- location: Apoteket Täby Centrum
  city: Täby
  urn: urn:apoteket:store:id:a16400001
  country: Sverige
  latitude: 59.4446
  longitude: 18.0718

- location: Apoteket Götgatsbacken
  city: Stockholm
  urn: urn:apoteket:store:id:a12060301
  country: Sverige
  latitude: 59.3174
  longitude: 18.0718

- location: Apoteket Vita Björn
  city: Stockholm
  urn: urn:apoteket:store:id:a03130001
  country: Sverige
  latitude: 59.33637
  longitude: 18.0753

- location: Apoteket Björnen
  city: Stockholm
  urn: urn:apoteket:store:id:a17660001
  country: Sverige
  latitude: 59.31459
  longitude: 18.07534

- location: Apoteket Fenix
  city: Stockholm
  urn: urn:apoteket:store:id:a17650001
  country: Sverige
  latitude: 59.31113
  longitude: 18.07546

- location: Apoteket Elefanten
  city: Stockholm
  urn: urn:apoteket:store:id:a13280001
  country: Sverige
  latitude: 59.3365
  longitude: 18.0768

- location: Apoteket Express Gullmarsplan Stockholm
  city: Johanneshov
  urn: urn:apoteket:store:id:a21430001
  country: Sverige
  latitude: 59.299245
  longitude: 18.081249

- location: Apoteket Globen
  city: Johanneshov
  urn: urn:apoteket:store:id:a19920001
  country: Sverige
  latitude: 59.2932
  longitude: 18.0814

- location: Apoteket Storken
  city: Stockholm
  urn: urn:apoteket:store:id:a03230001
  country: Sverige
  latitude: 59.3343
  longitude: 18.087

- location: Apoteket Farsta centrum
  city: Farsta
  urn: urn:apoteket:store:id:a12750301
  country: Sverige
  latitude: 59.242844
  longitude: 18.089504

- location: Apoteket Falken
  city: Stockholm
  urn: urn:apoteket:store:id:a20550001
  country: Sverige
  latitude: 59.3399
  longitude: 18.0917

- location: Apoteket Hinden
  city: Johanneshov
  urn: urn:apoteket:store:id:a03760001
  country: Sverige
  latitude: 59.2954
  longitude: 18.0998

- location: Apoteket Sjöhästen
  city: Västerhaninge
  urn: urn:apoteket:store:id:a04010001
  country: Sverige
  latitude: 59.1229
  longitude: 18.1051

- location: Apoteket Myrten
  city: Bredbyn
  urn: urn:apoteket:store:id:a06500001
  country: Sverige
  latitude: 63.4478
  longitude: 18.1094

- location: Apoteket Viggen
  city: Lidingö
  urn: urn:apoteket:store:id:a13340001
  country: Sverige
  latitude: 59.3631
  longitude: 18.1232

- location: Apoteket Hästhoven
  city: Täby
  urn: urn:apoteket:store:id:a20600001
  country: Sverige
  latitude: 59.46274
  longitude: 18.1345

- location: Apoteket Arninge station
  city: Täby
  urn: urn:apoteket:store:id:a21890001
  country: Sverige
  latitude: 59.459645
  longitude: 18.138428

- location: Apoteket Linnéan
  city: Skogås
  urn: urn:apoteket:store:id:a19960001
  country: Sverige
  latitude: 59.218
  longitude: 18.154

- location: Apoteket Svanen
  city: Nacka
  urn: urn:apoteket:store:id:a03890001
  country: Sverige
  latitude: 59.3094
  longitude: 18.1644

- location: Apoteket Sparvugglan
  city: Brandbergen
  urn: urn:apoteket:store:id:a04000001
  country: Sverige
  latitude: 59.172229
  longitude: 18.169703

- location: Apoteket Biet
  city: Gimo
  urn: urn:apoteket:store:id:a03580001
  country: Sverige
  latitude: 60.1725
  longitude: 18.1852

- location: Apoteket Strandskatan
  city: Visby
  urn: urn:apoteket:store:id:a02840002
  country: Sverige
  latitude: 57.648016
  longitude: 18.300628

- location: Apoteket Liljan
  city: Visby
  urn: urn:apoteket:store:id:a02800001
  country: Sverige
  latitude: 57.6378
  longitude: 18.3017

- location: Apoteket Livbojen
  city: Åkersberga
  urn: urn:apoteket:store:id:a03010001
  country: Sverige
  latitude: 59.4719
  longitude: 18.3306

- location: Apoteket Örnen
  city: Rimbo
  urn: urn:apoteket:store:id:a02980001
  country: Sverige
  latitude: 59.7435
  longitude: 18.3658

- location: Apoteket Gustavsbergs vårdcentral
  city: Gustavsberg
  urn: urn:apoteket:store:id:a21370001
  country: Sverige
  latitude: 59.323361
  longitude: 18.381312

- location: Apoteket Fyren
  city: Gustavsberg
  urn: urn:apoteket:store:id:a19890001
  country: Sverige
  latitude: 59.3255
  longitude: 18.3933

- location: Apoteket Skutan
  city: Gustavsberg
  urn: urn:apoteket:store:id:a11330001
  country: Sverige
  latitude: 59.3125
  longitude: 18.4302

- location: Apoteket Själevad
  city: Själevad
  urn: urn:apoteket:store:id:a06510001
  country: Sverige
  latitude: 63.2922
  longitude: 18.6171

- location: Apoteket Kronan
  city: Norrtälje
  urn: urn:apoteket:store:id:a02970001
  country: Sverige
  latitude: 59.7576
  longitude: 18.7028

- location: Apoteket Örnen
  city: Örnsköldsvik
  urn: urn:apoteket:store:id:a06450001
  country: Sverige
  latitude: 63.2899
  longitude: 18.7183

- location: Apoteket Ripan
  city: Kiruna
  urn: urn:apoteket:store:id:a07190001
  country: Sverige
  latitude: 67.8501
  longitude: 20.2378

- location: Apoteket Teg
  city: Umeå
  urn: urn:apoteket:store:id:a06080001
  country: Sverige
  latitude: 63.8203
  longitude: 20.2525

- location: Apoteket Avion Umeå
  city: Umeå
  urn: urn:apoteket:store:id:a21190001
  country: Sverige
  latitude: 63.807435
  longitude: 20.256611

- location: Apoteket MVG
  city: Umeå
  urn: urn:apoteket:store:id:a16500001
  country: Sverige
  latitude: 63.8257
  longitude: 20.2612

- location: Apoteket Utopia
  city: Umeå
  urn: urn:apoteket:store:id:a17160001
  country: Sverige
  latitude: 63.8255
  longitude: 20.2655

- location: Apoteket NUS öppenvård
  city: Umeå
  urn: urn:apoteket:store:id:a12300001
  country: Sverige
  latitude: 63.8184
  longitude: 20.2982

- location: Apoteket Ersboda Umeå
  city: Umeå
  urn: urn:apoteket:store:id:a21440001
  country: Sverige
  latitude: 63.854287
  longitude: 20.300705

- location: Apoteket Diamanten
  city: Robertsfors
  urn: urn:apoteket:store:id:a06160001
  country: Sverige
  latitude: 64.1926
  longitude: 20.8504

- location: Apoteket Citykompaniet
  city: Skellefteå
  urn: urn:apoteket:store:id:a19910301
  country: Sverige
  latitude: 64.7505
  longitude: 20.9541

- location: Apoteket Spoven
  city: Skellefteå
  urn: urn:apoteket:store:id:a12210001
  country: Sverige
  latitude: 64.7659
  longitude: 21.0254

- location: Apoteket Tärnan
  city: Ursviken
  urn: urn:apoteket:store:id:a01260001
  country: Sverige
  latitude: 64.695769
  longitude: 21.197444

- location: Apoteket Lärkan
  city: Bureå
  urn: urn:apoteket:store:id:a01300001
  country: Sverige
  latitude: 64.6185
  longitude: 21.201

- location: Apoteket Örnen
  city: Byske
  urn: urn:apoteket:store:id:a01220001
  country: Sverige
  latitude: 64.953
  longitude: 21.2033

- location: Apoteket Bävern
  city: Lövånger
  urn: urn:apoteket:store:id:a01310001
  country: Sverige
  latitude: 64.3705
  longitude: 21.3117

- location: Apoteket Vargen
  city: Hortlax
  urn: urn:apoteket:store:id:a07080001
  country: Sverige
  latitude: 65.2882
  longitude: 21.4104

- location: Apoteket Renen
  city: Piteå
  urn: urn:apoteket:store:id:a07100001
  country: Sverige
  latitude: 65.3172
  longitude: 21.4786

- location: Apoteket Laxen
  city: Boden
  urn: urn:apoteket:store:id:a07020001
  country: Sverige
  latitude: 65.8255
  longitude: 21.6841

- location: Apoteket Sunderby Sjukhus
  city: Södra Sunderbyn
  urn: urn:apoteket:store:id:a09680001
  country: Sverige
  latitude: 65.6718
  longitude: 21.9316

- location: Apoteket Gammelstad
  city: Gammelstad
  urn: urn:apoteket:store:id:a06960001
  country: Sverige
  latitude: 65.6414
  longitude: 22.0146

- location: Apoteket Smedjan
  city: Luleå
  urn: urn:apoteket:store:id:a12920301
  country: Sverige
  latitude: 65.584
  longitude: 22.1529

- location: Apoteket Viken
  city: Luleå
  urn: urn:apoteket:store:id:a11250001
  country: Sverige
  latitude: 65.5918
  longitude: 22.1531

- location: Apoteket Lejonet
  city: Luleå
  urn: urn:apoteket:store:id:a20560001
  country: Sverige
  latitude: 65.5845
  longitude: 22.1555

- location: Apoteket Uttern
  city: Råneå
  urn: urn:apoteket:store:id:a06990001
  country: Sverige
  latitude: 65.8556
  longitude: 22.29

- location: Apoteket Björnen
  city: Överkalix
  urn: urn:apoteket:store:id:a07170001
  country: Sverige
  latitude: 66.3253
  longitude: 22.845

- location: Apoteket Manhem
  city: Kalix
  urn: urn:apoteket:store:id:a07130001
  country: Sverige
  latitude: 65.8561
  longitude: 23.1529

- location: Apoteket Lappugglan
  city: Pajala
  urn: urn:apoteket:store:id:a07250001
  country: Sverige
  latitude: 67.2112
  longitude: 23.3641

- location: Apoteket Svarta Räven
  city: Övertorneå
  urn: urn:apoteket:store:id:a07160001
  country: Sverige
  latitude: 66.3893
  longitude: 23.6567

- location: Apoteket Aspen
  city: Haparanda
  urn: urn:apoteket:store:id:a07150001
  country: Sverige
  latitude: 65.8391
  longitude: 24.1363
