meta:
  name: Bolist
  web: https://bolist.se/
  wikipedia: https://sv.wikipedia.org/wiki/Bolist
  category: Byggnadsmaterial
  locations: 151

locations:
- location: BOLIST Hälle Byggvaror
  urn: urn:bolist:store:id:40371
  city: Strömstad
  latitude: 58.940806
  longitude: 11.207091

- location: BOLIST G.R.G.Svensson Byggnads
  urn: urn:bolist:store:id:40308
  city: Grundsund
  latitude: 58.213223
  longitude: 11.43475

- location: BOLIST Lysekils Trä
  urn: urn:bolist:store:id:40408
  city: Lysekil
  latitude: 58.285712
  longitude: 11.472127

- location: BOLIST Olinders
  urn: urn:bolist:store:id:40218
  city: Hönö
  latitude: 57.683734
  longitude: 11.65098

- location: BOLIST Harås Byggvaror
  urn: urn:bolist:store:id:40220
  city: Stora höga
  latitude: 58.021383
  longitude: 11.839133

- location: BOLIST Mek - Service
  urn: urn:bolist:store:id:40405
  city: Ed
  latitude: 58.904863
  longitude: 11.949732

- location: BOLIST Färgelanda
  urn: urn:bolist:store:id:40412
  city: Färgelanda
  latitude: 58.561387
  longitude: 11.994216

- location: BOLIST Järnhandel
  urn: urn:bolist:store:id:40469
  city: Lilla edet
  latitude: 58.142379
  longitude: 12.128943

- location: BOLIST Landvetter
  urn: urn:bolist:store:id:40364
  city: Landvetter
  latitude: 57.685189
  longitude: 12.238886

- location: BOLIST Lindveden
  urn: urn:bolist:store:id:40410
  city: Trollhättan
  latitude: 58.239644
  longitude: 12.23931

- location: BOLIST Axel P
  urn: urn:bolist:store:id:40245
  city: Bengtsfors
  latitude: 59.024346
  longitude: 12.245159

- location: Bolist Lerums järnhandel
  urn: urn:bolist:store:id:40451
  city: Lerum
  latitude: 57.764064
  longitude: 12.25784

- location: BOLIST J Gustavssons Byggmaterial
  urn: urn:bolist:store:id:40175
  city: Tvååker
  latitude: 57.033439
  longitude: 12.4029

- location: BOLIST Forssa Järn & Byggvaror
  urn: urn:bolist:store:id:40261
  city: Bollebygd
  latitude: 57.657233
  longitude: 12.535814

- location: BOLIST Forshalls Bygghandel
  urn: urn:bolist:store:id:40271
  city: Grästorp
  latitude: 58.337641
  longitude: 12.649887

- location: BOLIST Grästorps Trävaruaffär
  urn: urn:bolist:store:id:40272
  city: Grästorp
  latitude: 58.336339
  longitude: 12.685862

- location: BOLIST Slöinge Trä
  urn: urn:bolist:store:id:40266
  city: Slöinge
  latitude: 56.851422
  longitude: 12.702165

- location: BOLIST Idre Bygg & Järn
  urn: urn:bolist:store:id:40225
  city: Idre
  latitude: 61.850725
  longitude: 12.761951

- location: BOLIST Fleninge
  urn: urn:bolist:store:id:40351
  city: Fleninge
  latitude: 56.10839
  longitude: 12.78906

- location: BOLIST Backabo Byggvaror
  urn: urn:bolist:store:id:40316
  city: Sandared
  latitude: 57.73206
  longitude: 12.8097

- location: BOLIST JLB Bygghandel
  urn: urn:bolist:store:id:40305
  city: Säffle
  latitude: 59.106518
  longitude: 12.814338

- location: BOLIST Vallåkra Lantmannaaffär
  urn: urn:bolist:store:id:40286
  city: Vallåkra
  latitude: 55.964469
  longitude: 12.858017

- location: BOLIST Borås Järnhandel
  urn: urn:bolist:store:id:40444
  city: Borås
  latitude: 57.708143
  longitude: 12.923131

- location: BOLIST Skottorps Bygghandel
  urn: urn:bolist:store:id:40401
  city: Laholm
  latitude: 56.455377
  longitude: 12.948963

- location: BOLIST Munka Lantmän
  urn: urn:bolist:store:id:40369
  city: Munka-ljungby
  latitude: 56.259802
  longitude: 12.97527

- location: BOLIST Fristad
  urn: urn:bolist:store:id:40249
  city: Fristad
  latitude: 57.823686
  longitude: 12.996908

- location: BOLIST Likenäs
  urn: urn:bolist:store:id:40332
  city: Likenäs
  latitude: 60.612872
  longitude: 13.03561

- location: BOLIST Östra Ljungby Lantmän
  urn: urn:bolist:store:id:40367
  city: Östra ljungby
  latitude: 56.1877
  longitude: 13.06323

- location: BOLIST Torups Byggshop
  urn: urn:bolist:store:id:40295
  city: Torup
  latitude: 56.96132
  longitude: 13.067339

- location: BOLIST Lomma
  urn: urn:bolist:store:id:40300
  city: Lomma
  latitude: 55.67203
  longitude: 13.068437

- location: BOLIST Sunne Byggshop
  urn: urn:bolist:store:id:40478
  city: Sunne
  latitude: 59.845739
  longitude: 13.151523

- location: BOLIST Svedala
  urn: urn:bolist:store:id:40279
  city: Svedala
  latitude: 55.515436
  longitude: 13.235398

- location: BOLIST Örkelljunga Lantmannaaffär
  urn: urn:bolist:store:id:40360
  city: Örkelljunga
  latitude: 56.344063
  longitude: 13.268219

- location: BOLIST Sälens Bygg & Järn
  urn: urn:bolist:store:id:40137
  city: Sälen
  latitude: 61.129058
  longitude: 13.278532

- location: BOLIST Limmared
  urn: urn:bolist:store:id:40212
  city: Limmared
  latitude: 57.534902
  longitude: 13.352337

- location: BOLIST Stehag
  urn: urn:bolist:store:id:40233
  city: Stehag
  latitude: 55.902393
  longitude: 13.399871

- location: BOLIST Järpen
  urn: urn:bolist:store:id:40182
  city: Järpen
  latitude: 63.35664
  longitude: 13.44071

- location: BOLIST Olsäter
  urn: urn:bolist:store:id:40304
  city: Deje
  latitude: 59.720479
  longitude: 13.494866

- location: BOLIST Ekshärads Bygg & Järn
  urn: urn:bolist:store:id:40475
  city: Ekshärad
  latitude: 60.168876
  longitude: 13.496639

- location: Kullenbergs järn
  urn: urn:bolist:store:id:40455
  city: Skurup
  latitude: 55.479754
  longitude: 13.499229

- location: BOLIST Jensens Byggland
  urn: urn:bolist:store:id:40248
  city: Löberöd
  latitude: 55.774575
  longitude: 13.503056

- location: BOLIST Skivarp
  urn: urn:bolist:store:id:40359
  city: Skivarp
  latitude: 55.420706
  longitude: 13.569393

- location: BOLIST Reftele Lantmän
  urn: urn:bolist:store:id:40353
  city: Reftele
  latitude: 57.17592
  longitude: 13.59167

- location: BOLIST Svenssons järnhandel
  urn: urn:bolist:store:id:40453
  city: Hörby
  latitude: 55.851676
  longitude: 13.662511

- location: BOLIST Hörby Lantmän
  urn: urn:bolist:store:id:40357
  city: Hörby
  latitude: 55.847216
  longitude: 13.670996

- location: BOLIST Torgnys Trä
  urn: urn:bolist:store:id:40237
  city: Karlstad
  latitude: 59.421811
  longitude: 13.690338

- location: BOLIST Malungs Bygg & Järn
  urn: urn:bolist:store:id:40166
  city: Malung
  latitude: 60.682844
  longitude: 13.728313

- location: BOLIST Linderöds Träindustri
  urn: urn:bolist:store:id:40253
  city: Linderöd
  latitude: 55.933989
  longitude: 13.814569

- location: BOLIST Esperöds Byggshop
  urn: urn:bolist:store:id:40263
  city: Äsperöd
  latitude: 55.608304
  longitude: 13.919774

- location: BOLIST Önnestad
  urn: urn:bolist:store:id:40251
  city: Önnestad
  latitude: 56.06187
  longitude: 14.027574

- location: BOLIST Älvdalen
  urn: urn:bolist:store:id:40197
  city: Älvdalen
  latitude: 61.231175
  longitude: 14.030671

- location: BOLIST Hallen
  urn: urn:bolist:store:id:40170
  city: Hallen
  latitude: 63.188153
  longitude: 14.064233

- location: BOLIST Broby
  urn: urn:bolist:store:id:40419
  city: Broby
  latitude: 56.266098
  longitude: 14.077617

- location: BOLIST Taberg
  urn: urn:bolist:store:id:40341
  city: Taberg
  latitude: 57.67507
  longitude: 14.09158

- location: BOLIST Löderups Lokalförening
  urn: urn:bolist:store:id:40358
  city: Löderup
  latitude: 55.438739
  longitude: 14.112138

- location: BOLIST Olsson & Co
  urn: urn:bolist:store:id:40448
  city: Gärsnäs
  latitude: 55.546481
  longitude: 14.178607

- location: BOLIST Vansbro Byggshopp
  urn: urn:bolist:store:id:40168
  city: Vansbro
  latitude: 60.510617
  longitude: 14.232185

- location: BOLIST Rydaholms Järnhandel
  urn: urn:bolist:store:id:40221
  city: Rydaholm
  latitude: 56.986009
  longitude: 14.311087

- location: BOLIST Järn & Fritid Simrishamn
  urn: urn:bolist:store:id:40334
  city: Simrishamn
  latitude: 55.554225
  longitude: 14.335247

- location: BOLIST Ny-Be Handels
  urn: urn:bolist:store:id:40292
  city: Eneryda
  latitude: 56.708189
  longitude: 14.345037

- location: BOLIST Svenstavik
  urn: urn:bolist:store:id:40192
  city: Svenstavik
  latitude: 62.768991
  longitude: 14.438911

- location: BOLIST Degerfors Järn & Färg
  urn: urn:bolist:store:id:40163
  city: Degerfors
  latitude: 59.2549
  longitude: 14.44076

- location: BOLIST Krokom
  urn: urn:bolist:store:id:40400
  city: Krokom
  latitude: 63.325025
  longitude: 14.472145

- location: BOLIST Forserums Järnhandel
  urn: urn:bolist:store:id:40441
  city: Forserum
  latitude: 57.699288
  longitude: 14.476496

- location: BOLIST Bromölla Trävaror
  urn: urn:bolist:store:id:40230
  city: Bromölla
  latitude: 56.066298
  longitude: 14.486576

- location: BOLIST Hällefors Bygg & Järn
  urn: urn:bolist:store:id:40329
  city: Hällefors
  latitude: 59.781497
  longitude: 14.515289

- location: BOLIST HKB Jämshög
  urn: urn:bolist:store:id:40273
  city: Jämshög
  latitude: 56.238636
  longitude: 14.530664

- location: BOLIST Grimslöv
  urn: urn:bolist:store:id:40244
  city: Grimslöv
  latitude: 56.744259
  longitude: 14.551459

- location: BOLIST Lammhults
  urn: urn:bolist:store:id:40330
  city: Lammhult
  latitude: 57.172941
  longitude: 14.578806

- location: BOLIST Ödeshög Bygg & Järn
  urn: urn:bolist:store:id:40256
  city: Ödeshög
  latitude: 58.233383
  longitude: 14.647431

- location: BOLIST Harry Perssons Byggnadsvaror
  urn: urn:bolist:store:id:40234
  city: Sölvesborg
  latitude: 56.039142
  longitude: 14.688236

- location: BOLIST Växjö
  urn: urn:bolist:store:id:40278
  city: Växjö
  latitude: 56.880642
  longitude: 14.734643

- location: BOLIST Brunflo
  urn: urn:bolist:store:id:40484
  city: Brunflo
  latitude: 63.078134
  longitude: 14.829386

- location: BOLIST Fjugesta
  urn: urn:bolist:store:id:40160
  city: Fjugesta
  latitude: 59.172578
  longitude: 14.870691

- location: BOLIST Leksands Bygg & Järn
  urn: urn:bolist:store:id:40437
  city: Leksand
  latitude: 60.72073
  longitude: 15.024076

- location: BOLIST Nora
  urn: urn:bolist:store:id:40193
  city: Nora
  latitude: 59.523094
  longitude: 15.035786

- location: BOLIST Belganet
  urn: urn:bolist:store:id:40277
  city: Hallabro
  latitude: 56.3871
  longitude: 15.035882

- location: BOLIST Braås
  urn: urn:bolist:store:id:40150
  city: Braås
  latitude: 57.074622
  longitude: 15.059719

- location: BOLIST Lindesberg
  urn: urn:bolist:store:id:40436
  city: Lindesberg
  latitude: 59.601608
  longitude: 15.20011

- location: BOLIST Borlänge
  urn: urn:bolist:store:id:40392
  city: Borlänge
  latitude: 60.548534
  longitude: 15.273485

- location: BOLIST Eskilstunaboden Österbymo
  urn: urn:bolist:store:id:40145
  city: Ydre
  latitude: 57.824182
  longitude: 15.274026

- location: BOLIST Emmaboda
  urn: urn:bolist:store:id:40301
  city: Emmaboda
  latitude: 56.623691
  longitude: 15.540686

- location: BOLIST Lösvirkeshus Strömsund
  urn: urn:bolist:store:id:40372
  city: Strömsund
  latitude: 63.845827
  longitude: 15.57318

- location: BOLIST Virserums Järn & Byggprodukter
  urn: urn:bolist:store:id:40480
  city: Virserum
  latitude: 57.319802
  longitude: 15.592292

- location: BOLIST Stugun
  urn: urn:bolist:store:id:40282
  city: Stugun
  latitude: 63.167439
  longitude: 15.599003

- location: BOLIST Allert Järn & Bygg
  urn: urn:bolist:store:id:40146
  city: Kisa
  latitude: 57.985707
  longitude: 15.649757

- location: BOLIST Hultsfreds Järnvaruaffär
  urn: urn:bolist:store:id:40111
  city: Hultsfred
  latitude: 57.495381
  longitude: 15.843003

- location: BOLIST Svärdsjö
  urn: urn:bolist:store:id:40180
  city: Svärdsjö
  latitude: 60.736928
  longitude: 15.900057

- location: BOLIST Norbergs Bygghandel
  urn: urn:bolist:store:id:40291
  city: Norberg
  latitude: 60.075397
  longitude: 15.937926

- location: BOLIST Sandholms Färg & Golv
  urn: urn:bolist:store:id:40474
  city: Högsby
  latitude: 57.175
  longitude: 16.021

- location: BOLIST Ljungaverk
  urn: urn:bolist:store:id:40413
  city: Ljungaverk
  latitude: 62.489995
  longitude: 16.051849

- location: BOLIST Kavelbrosågen
  urn: urn:bolist:store:id:40485
  city: Kavelbro
  latitude: 56.60542
  longitude: 16.05498

- location: BOLIST Ljusdal
  urn: urn:bolist:store:id:40398
  city: Ljusdal
  latitude: 61.820626
  longitude: 16.117004

- location: BOLIST Järnhuset Järvsö
  urn: urn:bolist:store:id:40183
  city: Järvsö
  latitude: 61.7188
  longitude: 16.170703

- location: BOLIST Hammarstrand
  urn: urn:bolist:store:id:40390
  city: Hammarstrand
  latitude: 63.109717
  longitude: 16.353242

- location: BOLIST Kolmården
  urn: urn:bolist:store:id:40254
  city: Kolmården
  latitude: 58.670859
  longitude: 16.36313

- location: BOLIST Leifs verktyg & Järnhandel
  urn: urn:bolist:store:id:40462
  city: Gamleby
  latitude: 57.899997
  longitude: 16.408035

- location: BOLIST Lindbro
  urn: urn:bolist:store:id:40318
  city: Sköldinge
  latitude: 59.052153
  longitude: 16.411317

- location: BOLIST Mönsterås
  urn: urn:bolist:store:id:40326
  city: Mönsterås
  latitude: 57.027042
  longitude: 16.433603

- location: BOLIST Västanhede
  urn: urn:bolist:store:id:40110
  city: Horndal
  latitude: 60.240467
  longitude: 16.437897

- location: BOLIST Ramsele
  urn: urn:bolist:store:id:40393
  city: Ramsele
  latitude: 63.55
  longitude: 16.48333

- location: BOLIST Magnussons Byggvaror
  urn: urn:bolist:store:id:40473
  city: Valdemarsvik
  latitude: 58.215763
  longitude: 16.578554

- location: BOLIST Catrinelunds Hyvleri & Byggvaror
  urn: urn:bolist:store:id:40338
  city: Sala
  latitude: 59.955361
  longitude: 16.617533

- location: BOLIST Bettna Såg
  urn: urn:bolist:store:id:40324
  city: Bettna
  latitude: 58.911245
  longitude: 16.650296

- location: BOLIST Jonssons Trä
  urn: urn:bolist:store:id:40260
  city: Borgholm
  latitude: 56.869864
  longitude: 16.66321

- location: BOLIST Anders Trä Loftahammar
  urn: urn:bolist:store:id:40240
  city: Loftahammar
  latitude: 57.902166
  longitude: 16.672632

- location: BOLIST Vilhelmina
  urn: urn:bolist:store:id:40415
  city: Vilhelmina
  latitude: 64.618593
  longitude: 16.674788

- location: BOLIST Löttorp
  urn: urn:bolist:store:id:40322
  city: Löttorp
  latitude: 57.168233
  longitude: 17.000902

- location: BOLIST Långsele
  urn: urn:bolist:store:id:40434
  city: Långsele
  latitude: 63.177697
  longitude: 17.064414

- location: BOLIST Bergom Såg
  urn: urn:bolist:store:id:40387
  city: Matfors
  latitude: 62.325123
  longitude: 17.081888

- location: BOLIST Oxelösund
  urn: urn:bolist:store:id:40380
  city: Oxelösund
  latitude: 58.667709
  longitude: 17.107505

- location: BOLIST Östervåla
  urn: urn:bolist:store:id:486
  city: Östervåla
  latitude: 60.18523
  longitude: 17.18724

- location: BOLIST Järnboden Mariefred
  urn: urn:bolist:store:id:40122
  city: Mariefred
  latitude: 59.259309
  longitude: 17.221726

- location: BOLIST Kvissleby
  urn: urn:bolist:store:id:40262
  city: Kvissleby
  latitude: 62.295006
  longitude: 17.35144

- location: BOLIST Nyqvist Byggvaruhandel
  urn: urn:bolist:store:id:40433
  city: Sörberge
  latitude: 62.513602
  longitude: 17.379037

- location: BOLIST Älvkarleby
  urn: urn:bolist:store:id:40402
  city: Älvkarleby
  latitude: 60.561744
  longitude: 17.462159

- location: Bolist Lidéns
  urn: urn:bolist:store:id:40450
  city: Sorsele
  latitude: 65.538038
  longitude: 17.525623

- location: BOLIST Trosa
  urn: urn:bolist:store:id:40311
  city: Trosa
  latitude: 58.905339
  longitude: 17.551453

- location: BOLIST Sävja Byggvaror
  urn: urn:bolist:store:id:40395
  city: Uppsala
  latitude: 59.82412
  longitude: 17.69967

- location: BOLIST Nylands Järnhandel
  urn: urn:bolist:store:id:40274
  city: Nyland
  latitude: 63.007218
  longitude: 17.763687

- location: BOLIST Järn & Färghandel Tumba
  urn: urn:bolist:store:id:40409
  city: Tumba
  latitude: 59.191164
  longitude: 17.823711

- location: BOLIST Österbybruk
  urn: urn:bolist:store:id:40391
  city: Österbybruk
  latitude: 60.199621
  longitude: 17.896395

- location: BOLIST Kungsholmens Järnhandel
  urn: urn:bolist:store:id:40468
  city: Stockholm
  latitude: 59.334151
  longitude: 18.034047

- location: BOLIST Söders Järnhandel
  urn: urn:bolist:store:id:40442
  city: Stockholm
  latitude: 59.317578
  longitude: 18.053094

- location: BOLIST Wirströms Järn & Färg
  urn: urn:bolist:store:id:40133
  city: Stockholm
  latitude: 59.314216
  longitude: 18.07445

- location: BOLIST Alunda
  urn: urn:bolist:store:id:40377
  city: Alunda
  latitude: 60.060367
  longitude: 18.083858

- location: BOLIST Karlaplans Järnaffär
  urn: urn:bolist:store:id:40456
  city: Stockholm
  latitude: 59.338474
  longitude: 18.089149

- location: BOLIST Bredbyn
  urn: urn:bolist:store:id:40348
  city: Bredbyn
  latitude: 63.439425
  longitude: 18.138258

- location: BOLIST Lidingö Järn & Färghandel
  urn: urn:bolist:store:id:40325
  city: Lidingö
  latitude: 59.367933
  longitude: 18.150558

- location: BOLIST J&B Saltis
  urn: urn:bolist:store:id:40290
  city: Saltsjöbaden
  latitude: 59.285208
  longitude: 18.273931

- location: BOLIST Bertil Norrby
  urn: urn:bolist:store:id:40374
  city: Burgsvik
  latitude: 57.03004
  longitude: 18.275115

- location: BOLIST Österby Brädgård
  urn: urn:bolist:store:id:40327
  city: Visby
  latitude: 57.632798
  longitude: 18.347208

- location: BOLIST Byggman Gotland
  urn: urn:bolist:store:id:40314
  city: Hemse
  latitude: 57.237121
  longitude: 18.37992

- location: BOLIST Edebo
  urn: urn:bolist:store:id:40396
  city: Skebobruk
  latitude: 59.981085
  longitude: 18.59028

- location: BOLIST Nordemans
  urn: urn:bolist:store:id:40185
  city: Örnsköldsvik
  latitude: 63.308834
  longitude: 18.709247

- location: BOLIST Malå
  urn: urn:bolist:store:id:40179
  city: Malå
  latitude: 65.181994
  longitude: 18.742772

- location: BOLIST Elmsta Färg & Järnhandel
  urn: urn:bolist:store:id:40222
  city: Väddö
  latitude: 59.97259
  longitude: 18.81112

- location: BOLIST Rådmansö
  urn: urn:bolist:store:id:40288
  city: Gräddö
  latitude: 59.741111
  longitude: 19.073333

- location: BOLIST Bjurholm
  urn: urn:bolist:store:id:40479
  city: Bjurholm
  latitude: 63.930896
  longitude: 19.217264

- location: BOLIST Utterströms
  urn: urn:bolist:store:id:40445
  city: Nordmaling
  latitude: 63.569099
  longitude: 19.500029

- location: BOLIST Vännäs
  urn: urn:bolist:store:id:40201
  city: Vännäs
  latitude: 63.912166
  longitude: 19.750768

- location: BOLIST Bagge Bygg
  urn: urn:bolist:store:id:40178
  city: Jokkmokk
  latitude: 66.602558
  longitude: 19.846645

- location: BOLIST Kiruna
  urn: urn:bolist:store:id:40422
  city: Kiruna
  latitude: 67.845265
  longitude: 20.251183

- location: BOLIST Gällivare
  urn: urn:bolist:store:id:40423
  city: Gällivare
  latitude: 67.149646
  longitude: 20.658733

- location: BOLIST Skellefteå
  urn: urn:bolist:store:id:40416
  city: Skellefteå
  latitude: 64.736477
  longitude: 20.968766

- location: BOLIST Lövånger Järn & Maskin
  urn: urn:bolist:store:id:40154
  city: Lövånger
  latitude: 64.369793
  longitude: 21.312446

- location: Bolist Larsons Järn
  urn: urn:bolist:store:id:40472
  city: Överkalix
  latitude: 66.32672
  longitude: 22.844884

- location: BOLIST Kalix Bygg & Plåt
  urn: urn:bolist:store:id:40298
  city: Kalix
  latitude: 65.861942
  longitude: 23.141006

- location: BOLIST Kalix Parallellgatan
  urn: urn:bolist:store:id:40421
  city: Kalix
  latitude: 65.854535
  longitude: 23.145022

- location: BOLIST Övertorneå
  urn: urn:bolist:store:id:40236
  city: Övertorneå
  latitude: 66.388798
  longitude: 23.659802

- location: BOLIST Haparanda
  urn: urn:bolist:store:id:40297
  city: Haparanda
  latitude: 65.840883
  longitude: 24.123125
