meta:
  name: Clas Ohlson
  web: https://www.clasohlson.com/
  wikipedia: https://sv.wikipedia.org/wiki/Clas_Ohlson
  category: Järnfackhandelskedjor
  locations: 46

locations:
- location: Clas Ohlson Insjön Hjultorget
  city: Insjön
  country: Sverige
  latitude: 60.67372
  longitude: 15.08983

- location: Clas Ohlson Telefonbutiken Sverige
  city: Telefonbutiken
  country: Sverige
  latitude: 60.67385
  longitude: 15.08993

- location: Clas Ohlson Örebro Marieberg Galleria
  city: Örebro
  country: Sverige
  latitude: 59.21747
  longitude: 15.1384

- location: Clas Ohlson Örebro Krämaren
  city: Örebro
  country: Sverige
  latitude: 59.26918
  longitude: 15.20967

- location: Clas Ohlson Borlänge Norra Backa
  city: Borlänge
  country: Sverige
  latitude: 60.48006
  longitude: 15.42094

- location: Clas Ohlson Linköping Tornby
  city: Linköping
  country: Sverige
  latitude: 58.433317
  longitude: 15.586042

- location: Clas Ohlson Linköping Åhlenshuset
  city: Linköping
  country: Sverige
  latitude: 58.41135
  longitude: 15.627

- location: Clas Ohlson Falun Falan Gallerian
  city: Falun
  country: Sverige
  latitude: 60.60677
  longitude: 15.62918

- location: Clas Ohlson Norrköping Ingelsta Köpcentrum
  city: Norrköping
  country: Sverige
  latitude: 58.61895
  longitude: 16.15599

- location: Clas Ohlson Norrköping Galleria Domino
  city: Norrköping
  country: Sverige
  latitude: 58.58858
  longitude: 16.18868

- location: Clas Ohlson Norrköping Mirum Gallerian
  city: Norrköping
  country: Sverige
  latitude: 58.57283
  longitude: 16.2101

- location: Clas Ohlson Västerås Erikslund Shopping Center
  city: Västerås
  country: Sverige
  latitude: 59.6104
  longitude: 16.45132

- location: Clas Ohlson Eskilstuna Cityhuset
  city: Eskilstuna
  country: Sverige
  latitude: 59.37167
  longitude: 16.51023

- location: Clas Ohlson Västerås Kvarteret Igor
  city: Västerås
  country: Sverige
  latitude: 59.61128
  longitude: 16.5436

- location: Clas Ohlson Gävle Valbo Köpcentrum
  city: Gävle
  country: Sverige
  latitude: 60.6336
  longitude: 16.9944

- location: Clas Ohlson Nyköping Gallerian Västerport
  city: Nyköping
  country: Sverige
  latitude: 58.752
  longitude: 17.00632

- location: Clas Ohlson Hudiksvall Fyren Gallerian
  city: Hudiksvall
  country: Sverige
  latitude: 61.7272
  longitude: 17.10512

- location: Clas Ohlson Gävle Gallerian Nian
  city: Gävle
  country: Sverige
  latitude: 60.67402
  longitude: 17.14085

- location: Clas Ohlson Södertälje Lunagallerian
  city: Södertälje
  country: Sverige
  latitude: 59.19677
  longitude: 17.62593

- location: Clas Ohlson Uppsala S:t Per Gallerian
  city: Uppsala
  country: Sverige
  latitude: 59.859557
  longitude: 17.637531

- location: Clas Ohlson Uppsala Gränbystaden
  city: Uppsala
  country: Sverige
  latitude: 59.87723
  longitude: 17.67353

- location: Clas Ohlson Stockholm Märsta Centrum
  city: Stockholm
  country: Sverige
  latitude: 59.619852
  longitude: 17.85592

- location: Clas Ohlson Stockholm Barkarby Gate
  city: Stockholm
  country: Sverige
  latitude: 59.414142
  longitude: 17.862375

- location: Clas Ohlson Stockholm Vällingby Centrum
  city: Stockholm
  country: Sverige
  latitude: 59.3604
  longitude: 17.87525

- location: Clas Ohlson Stockholm Väsby Centrum
  city: Stockholm
  country: Sverige
  latitude: 59.51868
  longitude: 17.90997

- location: Clas Ohlson Stockholm Kungens Kurva
  city: Stockholm
  country: Sverige
  latitude: 59.269673
  longitude: 17.917566

- location: Clas Ohlson Stockholm Kista Galleria
  city: Stockholm
  country: Sverige
  latitude: 59.40272
  longitude: 17.94477

- location: Clas Ohlson Stockholm Sollentuna Centrum
  city: Stockholm
  country: Sverige
  latitude: 59.428801
  longitude: 17.951038

- location: Clas Ohlson Stockholm Bromma Blocks
  city: Stockholm
  country: Sverige
  latitude: 59.35563
  longitude: 17.95523

- location: Clas Ohlson Stockholm Solna Mall of Scandinavia
  city: Stockholm
  country: Sverige
  latitude: 59.37115
  longitude: 18.00114

- location: Clas Ohlson Stockholm Solna Centrum
  city: Stockholm
  country: Sverige
  latitude: 59.35918
  longitude: 18.00125

- location: Clas Ohlson Stockholm Liljeholmstorget
  city: Stockholm
  country: Sverige
  latitude: 59.30962
  longitude: 18.02315

- location: Clas Ohlson Stockholm Hornstull
  city: Stockholm
  country: Sverige
  latitude: 59.316758
  longitude: 18.033785

- location: Clas Ohlson Stockholm Sveavägen
  city: Stockholm
  country: Sverige
  latitude: 59.337942
  longitude: 18.061594

- location: Clas Ohlson Stockholm Drottninggatan
  city: Stockholm
  country: Sverige
  latitude: 59.33328
  longitude: 18.0618

- location: Clas Ohlson Stockholm Gallerian
  city: Stockholm
  country: Sverige
  latitude: 59.33178
  longitude: 18.06743

- location: Clas Ohlson Stockholm Täby Centrum
  city: Stockholm
  country: Sverige
  latitude: 59.44448
  longitude: 18.06828

- location: Clas Ohlson Stockholm Ringen Centrum
  city: Stockholm
  country: Sverige
  latitude: 59.308958
  longitude: 18.0755

- location: Clas Ohlson Stockholm Farsta Centrum
  city: Stockholm
  country: Sverige
  latitude: 59.2425
  longitude: 18.08972

- location: Clas Ohlson Stockholm Fältöversten
  city: Stockholm
  country: Sverige
  latitude: 59.33969
  longitude: 18.09228

- location: Clas Ohlson Stockholm Sickla Köpkvarter
  city: Stockholm
  country: Sverige
  latitude: 59.30457
  longitude: 18.13077

- location: Clas Ohlson Stockholm Haninge Centrum
  city: Stockholm
  country: Sverige
  latitude: 59.16928
  longitude: 18.14

- location: Clas Ohlson Stockholm Nacka Forum
  city: Stockholm
  country: Sverige
  latitude: 59.30943
  longitude: 18.16437

- location: Clas Ohlson Stockholm Tyresö Centrum
  city: Stockholm
  country: Sverige
  latitude: 59.244105
  longitude: 18.228661

- location: Clas Ohlson Stockholm Värmdö Köpcentrum
  city: Stockholm
  country: Sverige
  latitude: 59.313194
  longitude: 18.429447

- location: Clas Ohlson Norrtälje Flygfältets handelsområde
  city: Norrtälje
  country: Sverige
  latitude: 59.750407
  longitude: 18.691855
