meta:
  name: Coop
  web: null
  wikipedia: https://sv.wikipedia.org/wiki/Coop_Sverige
  category: Dagligvarukedjor
  locations: 811

locations:
- location: Coop Krylbo
  urn: urn:coop:store:id:598
  city: Krylbo
  latitude: 60.1307271
  longitude: 16.213442

- location: Coop askersund
  urn: urn:coop:store:id:3788
  city: Askersund
  latitude: 58.88669
  longitude: 14.9126431

- location: Coop City Hallsberg
  urn: urn:coop:store:id:3785
  city: Hallsberg
  latitude: 59.0649614
  longitude: 15.112898

- location: Coop Malmvägen
  urn: urn:coop:store:id:3858
  city: Sollentuna
  latitude: 59.4248378
  longitude: 17.9473252

- location: Coop Vattenverksvägen
  urn: urn:coop:store:id:3548
  city: Malmö
  latitude: 55.6099001
  longitude: 13.0445059

- location: Coop Götene
  urn: urn:coop:store:id:3551
  city: Götene
  latitude: 58.5293303
  longitude: 13.4964941

- location: Coop Tibro
  urn: urn:coop:store:id:3739
  city: Tibro
  latitude: 58.4235439
  longitude: 14.1653687

- location: X:-TRA Töreboda
  urn: urn:coop:store:id:3740
  city: Töreboda
  latitude: 58.7037133
  longitude: 14.1247933

- location: X:-TRA Mariestad
  urn: urn:coop:store:id:3741
  city: Mariestad
  latitude: 58.7027108
  longitude: 13.7972161

- location: Coop Mariestad Marieforsleden
  urn: urn:coop:store:id:3742
  city: Mariestad
  latitude: 58.7101855
  longitude: 13.8600211

- location: Coop Herrljunga
  urn: urn:coop:store:id:3558
  city: Herrljunga
  latitude: 58.0769829
  longitude: 13.0141556

- location: X:-TRA Lidköping
  urn: urn:coop:store:id:3746
  city: Lidköping
  latitude: 58.4988713
  longitude: 13.172299

- location: Coop Vårgårda
  urn: urn:coop:store:id:3561
  city: Vårgårda
  latitude: 58.0316469
  longitude: 12.8127405

- location: Coop Vara
  urn: urn:coop:store:id:3562
  city: Vara
  latitude: 58.2627476
  longitude: 12.9523005

- location: Coop Borås Sjöbotorg
  urn: urn:coop:store:id:3565
  city: Borås
  latitude: 57.749557
  longitude: 12.9446442

- location: Coop Ulricehamn
  urn: urn:coop:store:id:3566
  city: Ulricehamn
  latitude: 57.7804307
  longitude: 13.414121

- location: Coop Uddevalla Göteborgsvägen
  urn: urn:coop:store:id:3571
  city: Uddevalla
  latitude: 58.3460691
  longitude: 11.9308092

- location: Coop Kinna
  urn: urn:coop:store:id:3572
  city: Kinna
  latitude: 57.5075421
  longitude: 12.6923977

- location: Coop Göteborg Marklandsgatan
  urn: urn:coop:store:id:3575
  city: Göteborg
  latitude: 57.6694857
  longitude: 11.9366498

- location: X:-TRA Svenljunga
  urn: urn:coop:store:id:3576
  city: Svenljunga
  latitude: 57.4998965
  longitude: 13.1129566

- location: X:-TRA Hisingen
  urn: urn:coop:store:id:3577
  city: Göteborg
  latitude: 57.7329475
  longitude: 11.8966134

- location: Coop Bohus
  urn: urn:coop:store:id:3578
  city: Bohus
  latitude: 57.851468
  longitude: 12.0164126

- location: Coop Mjörnbotorget
  urn: urn:coop:store:id:3579
  city: Gråbo
  latitude: 57.8358296
  longitude: 12.2988593

- location: X:-TRA Borås
  urn: urn:coop:store:id:3564
  city: Borås
  latitude: 57.7230206
  longitude: 12.9871217

- location: Coop Lilla Edet
  urn: urn:coop:store:id:3570
  city: Lilla Edet
  latitude: 58.1364183
  longitude: 12.1269927

- location: Coop Skäggetorp
  urn: urn:coop:store:id:3869
  city: Linköping
  latitude: 58.4279398
  longitude: 15.5856246

- location: Coop Oxelösund
  urn: urn:coop:store:id:3881
  city: Oxelösund
  latitude: 58.672537
  longitude: 17.097376

- location: Coop Hageby
  urn: urn:coop:store:id:3872
  city: Norrköping
  latitude: 58.5683222
  longitude: 16.2149706

- location: Coop Eneby
  urn: urn:coop:store:id:3876
  city: Norrköping
  latitude: 58.6035102
  longitude: 16.1420854

- location: Coop Bråddgatan
  urn: urn:coop:store:id:3870
  city: Norrköping
  latitude: 58.5933437
  longitude: 16.1793044

- location: Coop Ljura
  urn: urn:coop:store:id:3873
  city: Norrköping
  latitude: 58.5800889
  longitude: 16.1957174

- location: Coop Stora Rådmansgatan
  urn: urn:coop:store:id:3629
  city: Simrishamn
  latitude: 55.5571724
  longitude: 14.3481853

- location: Coop Engelbrektsgatan Trelleborg
  urn: urn:coop:store:id:3630
  city: Trelleborg
  latitude: 55.3747666
  longitude: 13.175924

- location: Coop Kommendörsgatan
  urn: urn:coop:store:id:3631
  city: Ystad
  latitude: 55.428686
  longitude: 13.7868738

- location: Coop Stora Torggatan
  urn: urn:coop:store:id:3633
  city: Skurup
  latitude: 55.4793119
  longitude: 13.5011163

- location: Coop Årbygatan Eskilstuna
  urn: urn:coop:store:id:3879
  city: Eskilstuna
  latitude: 59.3816811
  longitude: 16.5225668

- location: Coop Stengatan Västerås
  urn: urn:coop:store:id:3783
  city: Västerås
  latitude: 59.6094154
  longitude: 16.5116248

- location: Coop Surahammar
  urn: urn:coop:store:id:3784
  city: Surahammar
  latitude: 59.6982536
  longitude: 16.2438598

- location: Coop Flen
  urn: urn:coop:store:id:3878
  city: Flen
  latitude: 59.0617562
  longitude: 16.5925891

- location: Coop Vingåkersvägen Katrineholm
  urn: urn:coop:store:id:3880
  city: Vingåker
  latitude: 58.9946909
  longitude: 16.1746065

- location: Coop Klockarvägen Södertälje
  urn: urn:coop:store:id:3859
  city: Södertälje
  latitude: 59.1965309
  longitude: 17.5873433

- location: Coop Skärholmen
  urn: urn:coop:store:id:3861
  city: Skärholmen
  latitude: 59.2759586
  longitude: 17.909792

- location: Coop Haga Örebro
  urn: urn:coop:store:id:3799
  city: Örebro
  latitude: 59.2750796
  longitude: 15.1637929

- location: Coop Tybble Örebro
  urn: urn:coop:store:id:3610
  city: Örebro
  latitude: 59.2588507
  longitude: 15.2394462

- location: Coop Markbacken Örebro
  urn: urn:coop:store:id:3801
  city: Örebro
  latitude: 59.2811112
  longitude: 15.1933961

- location: X:-TRA Arboga
  urn: urn:coop:store:id:3780
  city: Arboga
  latitude: 59.3963232
  longitude: 15.8506

- location: X:-TRA Askersund
  urn: urn:coop:store:id:3798
  city: Askersund
  latitude: 58.8874943
  longitude: 14.9147035

- location: X:-TRA Hallsberg
  urn: urn:coop:store:id:3797
  city: Hallsberg
  latitude: 59.0675605
  longitude: 15.1004504

- location: Coop Östermalmsgatan Motala
  urn: urn:coop:store:id:3875
  city: Motala
  latitude: 58.5474112
  longitude: 15.0597056

- location: Coop Videdal
  urn: urn:coop:store:id:3645
  city: Malmö
  latitude: 55.5881819
  longitude: 13.0693391

- location: Coop Söderkulla
  urn: urn:coop:store:id:3646
  city: Malmö
  latitude: 55.5675914
  longitude: 13.0098631

- location: Coop Lugnet Malmö
  urn: urn:coop:store:id:3647
  city: Malmö
  latitude: 55.5977245
  longitude: 13.0057032

- location: Coop Slottsstaden
  urn: urn:coop:store:id:3648
  city: Malmö
  latitude: 55.5982618
  longitude: 12.9793998

- location: Coop Arlövsvägen
  urn: urn:coop:store:id:3650
  city: Arlöv
  latitude: 55.6384341
  longitude: 13.0595114

- location: Coop Dalbyvägen
  urn: urn:coop:store:id:3651
  city: Arlöv
  latitude: 55.6333601
  longitude: 13.0825966

- location: Coop Östra Förstadsgatan
  urn: urn:coop:store:id:3654
  city: Malmö
  latitude: 55.6070241
  longitude: 13.0190724

- location: Coop Värpinge Lund
  urn: urn:coop:store:id:3659
  city: Lund
  latitude: 55.7038379
  longitude: 13.160024

- location: Coop Klippan
  urn: urn:coop:store:id:3660
  city: Klippan
  latitude: 56.1357325
  longitude: 13.1298046

- location: Coop Bjuv
  urn: urn:coop:store:id:3661
  city: Bjuv
  latitude: 56.0872736
  longitude: 12.9146054

- location: Coop Remigatan
  urn: urn:coop:store:id:3662
  city: Landskrona
  latitude: 55.8866222
  longitude: 12.827484

- location: Coop Östervångsplan
  urn: urn:coop:store:id:3663
  city: Landskrona
  latitude: 55.8787124
  longitude: 12.8564801

- location: Coop Snöstorpsvägen
  urn: urn:coop:store:id:3810
  city: Halmstad
  latitude: 56.672635
  longitude: 12.8916873

- location: Coop Landshövdingevägen
  urn: urn:coop:store:id:3666
  city: Ängelholm
  latitude: 56.2357801
  longitude: 12.8743611

- location: Coop Nybrovägen
  urn: urn:coop:store:id:3667
  city: Ängelholm
  latitude: 56.2487811
  longitude: 12.8580667

- location: Coop Fyllinge
  urn: urn:coop:store:id:3811
  city: Halmstad
  latitude: 56.6498555
  longitude: 12.9166067

- location: Coop Arvidstorp
  urn: urn:coop:store:id:3808
  city: Falkenberg
  latitude: 56.9113193
  longitude: 12.4820708

- location: X:-TRA Örkelljunga
  urn: urn:coop:store:id:3670
  city: Örkelljunga
  latitude: 56.2835962
  longitude: 13.2834384

- location: Coop Stattena
  urn: urn:coop:store:id:3671
  city: Helsingborg
  latitude: 56.057334
  longitude: 12.7013623

- location: Coop Vasatorpsvägen
  urn: urn:coop:store:id:3672
  city: Helsingborg
  latitude: 56.0613469
  longitude: 12.7345762

- location: Coop Södergatan
  urn: urn:coop:store:id:3673
  city: Sjöbo
  latitude: 55.6293018
  longitude: 13.7041873

- location: X:-TRA Perstorp
  urn: urn:coop:store:id:3674
  city: Perstorp
  latitude: 56.1357922
  longitude: 13.3943499

- location: Coop Råtorp
  urn: urn:coop:store:id:3678
  city: Karlstad
  latitude: 59.3992827
  longitude: 13.4962834

- location: Coop Strand
  urn: urn:coop:store:id:3679
  city: Karlstad
  latitude: 59.3808411
  longitude: 13.4707506

- location: Coop Fiskaregatan Vimmerby
  urn: urn:coop:store:id:3864
  city: Vimmerby
  latitude: 57.6685462
  longitude: 15.8473667

- location: Coop Folkparksvägen
  urn: urn:coop:store:id:3681
  city: Västervik
  latitude: 57.7622696
  longitude: 16.6038102

- location: Coop Västervik Vapengränd
  urn: urn:coop:store:id:3682
  city: Västervik
  latitude: 57.7452701
  longitude: 16.6431001

- location: Coop Östermalmshallen
  urn: urn:coop:store:id:3684
  city: Finspång
  latitude: 58.7090652
  longitude: 15.7925979

- location: Coop Vaggeryd
  urn: urn:coop:store:id:3687
  city: Vaggeryd
  latitude: 57.5063601
  longitude: 14.1437838

- location: Coop Hagaberg
  urn: urn:coop:store:id:3689
  city: Jönköping
  latitude: 57.7437607
  longitude: 14.1362433

- location: Coop Åsavägen
  urn: urn:coop:store:id:3863
  city: Oskarshamn
  latitude: 57.2574854
  longitude: 16.4613077

- location: X:-TRA Vetlanda
  urn: urn:coop:store:id:3694
  city: Vetlanda
  latitude: 57.4252764
  longitude: 15.0835735

- location: Coop Funkabo
  urn: urn:coop:store:id:3696
  city: Kalmar
  latitude: 56.6851299
  longitude: 16.3426474

- location: Coop Kalmar Sandåsgatan
  urn: urn:coop:store:id:3697
  city: Kalmar
  latitude: 56.6628401
  longitude: 16.3406184

- location: Coop Södra Vägen Mönsterås
  urn: urn:coop:store:id:3865
  city: Mönsterås
  latitude: 57.0363946
  longitude: 16.4451581

- location: X:-TRA Ljungby
  urn: urn:coop:store:id:3701
  city: Ljungby
  latitude: 56.8291065
  longitude: 13.952334

- location: Coop Nydalavägen
  urn: urn:coop:store:id:3702
  city: Växjö
  latitude: 56.9000092
  longitude: 14.7964194

- location: Coop Nybro
  urn: urn:coop:store:id:3703
  city: Nybro
  latitude: 56.7324624
  longitude: 15.9470461

- location: Coop Växjö Emil Lindells Väg
  urn: urn:coop:store:id:3704
  city: Växjö
  latitude: 56.8669542
  longitude: 14.8192009

- location: X:-TRA Alvesta
  urn: urn:coop:store:id:3705
  city: Alvesta
  latitude: 56.900492
  longitude: 14.5621534

- location: Coop Nyemöllevägen Karlshamn
  urn: urn:coop:store:id:3707
  city: Karlshamn
  latitude: 56.1874539
  longitude: 14.8462172

- location: Coop Västra Vallgatan
  urn: urn:coop:store:id:3708
  city: Varberg
  latitude: 57.1048293
  longitude: 12.2481063

- location: Coop Värnamo Fredsgatan
  urn: urn:coop:store:id:3711
  city: Värnamo
  latitude: 57.1831542
  longitude: 14.0303319

- location: Coop Gislaved
  urn: urn:coop:store:id:3712
  city: Gislaved
  latitude: 57.3023868
  longitude: 13.5435969

- location: X:-TRA Sölvesborg
  urn: urn:coop:store:id:3713
  city: Sölvesborg
  latitude: 56.0450081
  longitude: 14.5780633

- location: Coop Bromölla
  urn: urn:coop:store:id:3714
  city: Bromölla
  latitude: 56.0738725
  longitude: 14.4679724

- location: X:-TRA Karlskrona
  urn: urn:coop:store:id:3715
  city: Karlskrona
  latitude: 56.2025291
  longitude: 15.6402644

- location: Coop Kallebäck
  urn: urn:coop:store:id:3723
  city: Göteborg
  latitude: 57.6840061
  longitude: 12.0070347

- location: Coop Göteborg Andra Långgatan
  urn: urn:coop:store:id:3724
  city: Göteborg
  latitude: 57.6987556
  longitude: 11.9459636

- location: X:-TRA Mullsjö
  urn: urn:coop:store:id:3726
  city: Mullsjö
  latitude: 57.9137042
  longitude: 13.8705102

- location: X:-TRA Höör
  urn: urn:coop:store:id:3727
  city: Höör
  latitude: 55.9384929
  longitude: 13.5514933

- location: Coop Solkullen Eslöv
  urn: urn:coop:store:id:3728
  city: Eslöv
  latitude: 55.8457967
  longitude: 13.2854552

- location: Coop Svalöv
  urn: urn:coop:store:id:3729
  city: Svalöv
  latitude: 55.9138417
  longitude: 13.106005

- location: Coop Markaryd Kronobergsgatan
  urn: urn:coop:store:id:3716
  city: Markaryd
  latitude: 56.4570222
  longitude: 13.5934901

- location: X:-TRA Hörby
  urn: urn:coop:store:id:3730
  city: Hörby
  latitude: 55.8505682
  longitude: 13.647763

- location: X:-TRA Eslöv
  urn: urn:coop:store:id:3731
  city: Eslöv
  latitude: 55.8528187
  longitude: 13.3037361

- location: X:-TRA Hässleholm
  urn: urn:coop:store:id:3732
  city: Hässleholm
  latitude: 56.161781
  longitude: 13.7640358

- location: X:-TRA Österäng
  urn: urn:coop:store:id:3733
  city: Kristianstad
  latitude: 56.0427974
  longitude: 14.1803599

- location: X:-TRA Näsby
  urn: urn:coop:store:id:3734
  city: Kristianstad
  latitude: 56.0557174
  longitude: 14.1589152

- location: X:-TRA Osby
  urn: urn:coop:store:id:3735
  city: Osby
  latitude: 56.3853699
  longitude: 14.0020127

- location: Coop Aspudden
  urn: urn:coop:store:id:3860
  city: Hägersten
  latitude: 59.3054428
  longitude: 17.9940057

- location: Coop Hisings Backa Backa Kyrkogata
  urn: urn:coop:store:id:3710
  city: Hisings Backa
  latitude: 57.742922
  longitude: 11.9758744

- location: Coop Elinebergsplatsen
  urn: urn:coop:store:id:3737
  city: Helsingborg
  latitude: 56.028392
  longitude: 12.7258179

- location: Coop Bredden
  urn: urn:coop:store:id:3755
  city: Upplands Väsby
  latitude: 59.4971246
  longitude: 17.9262256

- location: X:-TRA Ljungskile
  urn: urn:coop:store:id:1202
  city: Ljungskile
  latitude: 58.2242446
  longitude: 11.9197903

- location: X:-TRA Trollhättan
  urn: urn:coop:store:id:3568
  city: Trollhättan
  latitude: 58.260072
  longitude: 12.2854015

- location: X:-TRA Sävsjö
  urn: urn:coop:store:id:3691
  city: Sävsjö
  latitude: 57.3967361
  longitude: 14.6566138

- location: X:-TRA Eksjö
  urn: urn:coop:store:id:3692
  city: Eksjö
  latitude: 57.6630875
  longitude: 14.972861

- location: X:-TRA Smålandsstenar
  urn: urn:coop:store:id:3717
  city: Smålandsstenar
  latitude: 57.1614001
  longitude: 13.4101583

- location: X:-TRA Bredsand
  urn: urn:coop:store:id:3761
  city: Sundsvall
  latitude: 62.3522538
  longitude: 17.3666901

- location: Stora Coop Kristinehamn
  urn: urn:coop:store:id:1231
  city: Kristinehamn
  latitude: 59.3129879
  longitude: 14.1019693

- location: Stora Coop Ersboda
  urn: urn:coop:store:id:1437
  city: Umeå
  latitude: 63.8506041
  longitude: 20.2999103

- location: Stora Coop Härnösand
  urn: urn:coop:store:id:1438
  city: Härnösand
  latitude: 62.6353004
  longitude: 17.9251169

- location: Stora Coop Örnsköldsvik
  urn: urn:coop:store:id:631
  city: Örnsköldsvik
  latitude: 63.302679
  longitude: 18.7342494

- location: Stora Coop Boden
  urn: urn:coop:store:id:1546
  city: Boden
  latitude: 65.8250832
  longitude: 21.6849231

- location: Stora Coop Piteå
  urn: urn:coop:store:id:1570
  city: Piteå
  latitude: 65.3165183
  longitude: 21.4743346

- location: Stora Coop Karlshamn
  urn: urn:coop:store:id:2206
  city: Karlshamn
  latitude: 56.1907217
  longitude: 14.8483423

- location: Stora Coop Överby
  urn: urn:coop:store:id:1182
  city: Trollhättan
  latitude: 58.3139108
  longitude: 12.3022951

- location: Stora Coop Östersund
  urn: urn:coop:store:id:1930
  city: Östersund
  latitude: 63.1740082
  longitude: 14.6928049

- location: Stora Coop Vinsta
  urn: urn:coop:store:id:1958
  city: Vällingby
  latitude: 59.3691882
  longitude: 17.8587722

- location: Stora Coop Bromma
  urn: urn:coop:store:id:657
  city: Bromma
  latitude: 59.3566109
  longitude: 17.9533842

- location: Stora Coop Norremark
  urn: urn:coop:store:id:1929
  city: Växjö
  latitude: 56.9025799
  longitude: 14.8294713

- location: Stora Coop Visby
  urn: urn:coop:store:id:3225
  city: Visby
  latitude: 57.6217464
  longitude: 18.3226463

- location: Stora Coop Valbo
  urn: urn:coop:store:id:1344
  city: Valbo
  latitude: 60.6339242
  longitude: 16.9916108

- location: Stora Coop Storheden
  urn: urn:coop:store:id:1551
  city: Luleå
  latitude: 65.6181693
  longitude: 22.0417116

- location: Stora Coop Söderhamn
  urn: urn:coop:store:id:666
  city: Söderhamn
  latitude: 61.2957291
  longitude: 17.0200431

- location: Stora Coop Sisjön
  urn: urn:coop:store:id:1938
  city: Askim
  latitude: 57.6430566
  longitude: 11.9499923

- location: Stora Coop Skara
  urn: urn:coop:store:id:661
  city: Skara
  latitude: 58.3784879
  longitude: 13.4130779

- location: Stora Coop Backaplan
  urn: urn:coop:store:id:656
  city: Göteborg
  latitude: 57.7231552
  longitude: 11.9547513

- location: Stora Coop Bäckebol
  urn: urn:coop:store:id:655
  city: Hisings Backa
  latitude: 57.7694421
  longitude: 12.0002438

- location: Coop Forum Marieberg
  urn: urn:coop:store:id:3795
  city: Örebro
  latitude: 59.2182991
  longitude: 15.1385424

- location: Stora Coop Anderstorp
  urn: urn:coop:store:id:1436
  city: Skellefteå
  latitude: 64.73842
  longitude: 20.9666464

- location: Stora Coop Kiruna
  urn: urn:coop:store:id:1539
  city: Kiruna
  latitude: 67.8443125
  longitude: 20.2540932

- location: Stora Coop Västberga
  urn: urn:coop:store:id:2275
  city: Hägersten
  latitude: 59.2936738
  longitude: 18.0044673

- location: Stora Coop Varberg
  urn: urn:coop:store:id:2677
  city: Varberg
  latitude: 57.0824295
  longitude: 12.2774693

- location: Stora Coop Stadion
  urn: urn:coop:store:id:3853
  city: Malmö
  latitude: 55.5803649
  longitude: 12.9900619

- location: Stora Coop Häggvik
  urn: urn:coop:store:id:2246
  city: Sollentuna
  latitude: 59.4408825
  longitude: 17.9336884

- location: Stora Coop Huddinge
  urn: urn:coop:store:id:28
  city: Huddinge
  latitude: 59.2361627
  longitude: 17.9806982

- location: Stora Coop Märsta
  urn: urn:coop:store:id:1954
  city: Märsta
  latitude: 59.6163613
  longitude: 17.8561487

- location: Stora Coop Nolhaga Skövde
  urn: urn:coop:store:id:676
  city: Skövde
  latitude: 58.4075145
  longitude: 13.8576119

- location: Stora Coop Kungsbacka
  urn: urn:coop:store:id:2278
  city: Kungsbacka
  latitude: 57.4796093
  longitude: 12.081198

- location: Stora Coop Lund
  urn: urn:coop:store:id:2696
  city: Lund
  latitude: 55.7188244
  longitude: 13.163324

- location: Stora Coop Bergvik
  urn: urn:coop:store:id:1225
  city: Karlstad
  latitude: 59.3774877
  longitude: 13.4248548

- location: Stora Coop Kalix
  urn: urn:coop:store:id:1544
  city: Kalix
  latitude: 65.854853
  longitude: 23.1445918

- location: Stora Coop Sundby Park
  urn: urn:coop:store:id:3147
  city: Sundbyberg
  latitude: 59.3791542
  longitude: 17.9645238

- location: Stora Coop Hudiksvall
  urn: urn:coop:store:id:1839
  city: Hudiksvall
  latitude: 61.7349138
  longitude: 17.0929017

- location: Stora Coop Boländerna
  urn: urn:coop:store:id:643
  city: Uppsala
  latitude: 59.8456285
  longitude: 17.6945485

- location: Stora Coop Danderyd
  urn: urn:coop:store:id:2703
  city: Danderyd
  latitude: 59.4214397
  longitude: 18.046015

- location: Stora Coop Jönköping
  urn: urn:coop:store:id:3460
  city: Jönköping
  latitude: 57.7730114
  longitude: 14.2059563

- location: Stora Coop Kalmar
  urn: urn:coop:store:id:3461
  city: Kalmar
  latitude: 56.6708908
  longitude: 16.3354149

- location: Stora Coop Gällivare
  urn: urn:coop:store:id:1850
  city: Gällivare
  latitude: 67.1490941
  longitude: 20.6593578

- location: Stora Coop Nyköping
  urn: urn:coop:store:id:675
  city: Nyköping
  latitude: 58.7702132
  longitude: 17.0254429

- location: Stora Coop Norrteljeporten
  urn: urn:coop:store:id:3478
  city: Norrtälje
  latitude: 59.7463743
  longitude: 18.6765485

- location: Stora Coop Stuvsta
  urn: urn:coop:store:id:18
  city: Huddinge
  latitude: 59.250719
  longitude: 18.0105715

- location: Stora Coop Orminge
  urn: urn:coop:store:id:89
  city: Saltsjö-Boo
  latitude: 59.3267378
  longitude: 18.2570964

- location: Stora Coop Värmdö
  urn: urn:coop:store:id:1927
  city: Gustavsberg
  latitude: 59.309233
  longitude: 18.3832663

- location: Stora Coop Södertälje
  urn: urn:coop:store:id:640
  city: Södertälje
  latitude: 59.1874631
  longitude: 17.5741329

- location: Stora Coop Råå Helsingborg
  urn: urn:coop:store:id:3854
  city: Helsingborg
  latitude: 56.0109491
  longitude: 12.732982

- location: Stora Coop Väla Helsingborg
  urn: urn:coop:store:id:3852
  city: Ödåkra
  latitude: 56.0933993
  longitude: 12.7650085

- location: Stora Coop Strängnäs
  urn: urn:coop:store:id:2666
  city: Strängnäs
  latitude: 59.3363369
  longitude: 17.020082

- location: Stora Coop Eskilstuna
  urn: urn:coop:store:id:659
  city: Eskilstuna
  latitude: 59.3747851
  longitude: 16.4667817

- location: Stora Coop Borås
  urn: urn:coop:store:id:652
  city: Borås
  latitude: 57.7167473
  longitude: 12.9637044

- location: Stora Coop Bollnäs
  urn: urn:coop:store:id:1876
  city: Bollnäs
  latitude: 61.3688593
  longitude: 16.3912784

- location: Stora Coop Palmviken
  urn: urn:coop:store:id:1227
  city: Arvika
  latitude: 59.6567115
  longitude: 12.5861453

- location: Stora Coop Styckåsen
  urn: urn:coop:store:id:1253
  city: Arvika
  latitude: 59.6597318
  longitude: 12.6052949

- location: Stora Coop Hammarö
  urn: urn:coop:store:id:1975
  city: Hammarö
  latitude: 59.3464857
  longitude: 13.5036871

- location: Stora Coop Landskrona
  urn: urn:coop:store:id:2686
  city: Landskrona
  latitude: 55.8737112
  longitude: 12.8577706

- location: Stora Coop Åkersberga
  urn: urn:coop:store:id:2814
  city: Åkersberga
  latitude: 59.487422
  longitude: 18.2729561

- location: Stora Coop Enköping
  urn: urn:coop:store:id:677
  city: Enköping
  latitude: 59.6331328
  longitude: 17.082756

- location: Stora Coop Örnäset
  urn: urn:coop:store:id:1926
  city: Luleå
  latitude: 65.5789372
  longitude: 22.1989845

- location: Stora Coop Finspång
  urn: urn:coop:store:id:1024
  city: Finspång
  latitude: 58.7011924
  longitude: 15.81556

- location: Stora Coop Stenby Västerås
  urn: urn:coop:store:id:3778
  city: Västerås
  latitude: 59.6353469
  longitude: 16.5680621

- location: Stora Coop Rotebro
  urn: urn:coop:store:id:639
  city: Sollentuna
  latitude: 59.470969
  longitude: 17.9161693

- location: Stora Coop Sundsvall
  urn: urn:coop:store:id:2239
  city: Sundsvall
  latitude: 62.4438918
  longitude: 17.3349703

- location: Stora Coop Halmstad
  urn: urn:coop:store:id:3805
  city: Halmstad
  latitude: 56.6552642
  longitude: 12.9115762

- location: Stora Coop Norra Backa
  urn: urn:coop:store:id:3150
  city: Borlänge
  latitude: 60.4778959
  longitude: 15.4183418

- location: Stora Coop Välsviken
  urn: urn:coop:store:id:3494
  city: Karlstad
  latitude: 59.3959953
  longitude: 13.5757073

- location: Stora Coop Ludvika
  urn: urn:coop:store:id:2235
  city: Ludvika
  latitude: 60.1356999
  longitude: 15.1562827

- location: Stora Coop Brunna Park
  urn: urn:coop:store:id:3498
  city: Kungsängen
  latitude: 59.495661
  longitude: 17.7415504

- location: Stora Coop Garnisonen Linköping
  urn: urn:coop:store:id:2303
  city: Linköping
  latitude: 58.3911288
  longitude: 15.6245129

- location: Stora Coop Falun
  urn: urn:coop:store:id:3506
  city: Falun
  latitude: 60.6028819
  longitude: 15.6187176

- location: Stora Coop Tomtebo
  urn: urn:coop:store:id:3516
  city: Umeå
  latitude: 63.8109834
  longitude: 20.3307846

- location: Stora Coop Flygstaden
  urn: urn:coop:store:id:3522
  city: Eslöv
  latitude: 55.8439834
  longitude: 13.3279697

- location: Stora Coop Tumba
  urn: urn:coop:store:id:3532
  city: Tumba
  latitude: 59.1986274
  longitude: 17.8449393

- location: Stora Coop Trelleborg
  urn: urn:coop:store:id:3851
  city: Trelleborg
  latitude: 55.3790803
  longitude: 13.1238745

- location: Stora Coop Torp
  urn: urn:coop:store:id:3594
  city: Uddevalla
  latitude: 58.3545997
  longitude: 11.8131774

- location: Stora Coop Arninge
  urn: urn:coop:store:id:3719
  city: Täby
  latitude: 59.4601109
  longitude: 18.1371154

- location: Stora Coop Härlöv
  urn: urn:coop:store:id:3759
  city: Kristianstad
  latitude: 56.0253353
  longitude: 14.1175258

- location: Stora Coop Ljusdal
  urn: urn:coop:store:id:3767
  city: Ljusdal
  latitude: 61.828813
  longitude: 16.0920902

- location: Stora Coop Burlöv
  urn: urn:coop:store:id:3857
  city: Arlöv
  latitude: 55.6422022
  longitude: 13.0838256

- location: Coop Konsum Frillesås
  urn: urn:coop:store:id:1166
  city: Frillesås
  latitude: 57.3174755
  longitude: 12.1750066

- location: Coop Konsum Österport
  urn: urn:coop:store:id:1129
  city: Karlshamn
  latitude: 56.1670641
  longitude: 14.88132

- location: Coop Västerhaninge Centrum
  urn: urn:coop:store:id:25
  city: Västerhaninge
  latitude: 59.1224776
  longitude: 18.105259

- location: Coop Konsum Västertorg
  urn: urn:coop:store:id:212
  city: Uppsala
  latitude: 59.8408946
  longitude: 17.6029928

- location: Coop Konsum Oxbacken
  urn: urn:coop:store:id:3775
  city: Västerås
  latitude: 59.6062091
  longitude: 16.5316604

- location: Coop Epicenter
  urn: urn:coop:store:id:3757
  city: Stockholm
  latitude: 59.3345572
  longitude: 18.0675168

- location: Coop Säffle
  urn: urn:coop:store:id:1230
  city: Säffle
  latitude: 59.1343817
  longitude: 12.9195419

- location: Coop Extra Filipstad
  urn: urn:coop:store:id:1229
  city: Filipstad
  latitude: 59.7130875
  longitude: 14.1699858

- location: Coop Extra Tomelilla
  urn: urn:coop:store:id:3849
  city: Tomelilla
  latitude: 55.5432944
  longitude: 13.9539425

- location: Coop Hofors
  urn: urn:coop:store:id:3766
  city: Hofors
  latitude: 60.5461866
  longitude: 16.2855822

- location: Coop Forum Jägersro
  urn: urn:coop:store:id:3850
  city: Malmö
  latitude: 55.5701646
  longitude: 13.0592542

- location: Coop Forum Karlskoga
  urn: urn:coop:store:id:1289
  city: Karlskoga
  latitude: 59.328164
  longitude: 14.5749022

- location: Coop Forum Haninge
  urn: urn:coop:store:id:636
  city: Haninge
  latitude: 59.1792078
  longitude: 18.1498704

- location: Stora Coop Hem och Trädgård Skellefteå
  urn: urn:coop:store:id:2477
  city: Skellefteå
  latitude: 64.7364758
  longitude: 20.9687582

- location: Coop Nära Köpenhamnsvägen
  urn: urn:coop:store:id:3848
  city: Malmö
  latitude: 55.5933895
  longitude: 12.9863357

- location: Coop Älvkarleby
  urn: urn:coop:store:id:1363
  city: Älvkarleby
  latitude: 60.5666239
  longitude: 17.4554024

- location: Coop Årjäng
  urn: urn:coop:store:id:1260
  city: Årjäng
  latitude: 59.3928703
  longitude: 12.1323335

- location: Coop Bergvik
  urn: urn:coop:store:id:1373
  city: Bergvik
  latitude: 61.258179
  longitude: 16.8353195

- location: Coop Haparanda
  urn: urn:coop:store:id:1571
  city: Haparanda
  latitude: 65.8405178
  longitude: 24.1336712

- location: Coop Sunne
  urn: urn:coop:store:id:1232
  city: Sunne
  latitude: 59.8386269
  longitude: 13.1428997

- location: Coop Hagfors
  urn: urn:coop:store:id:1228
  city: Hagfors
  latitude: 60.0351256
  longitude: 13.6958223

- location: Coop Bengtsfors
  urn: urn:coop:store:id:1187
  city: Bengtsfors
  latitude: 59.0286898
  longitude: 12.2254014

- location: Coop Hunnebostrand
  urn: urn:coop:store:id:1194
  city: Hunnebostrand
  latitude: 58.4420734
  longitude: 11.3010096

- location: Coop Grebbestad
  urn: urn:coop:store:id:1198
  city: Grebbestad
  latitude: 58.6920212
  longitude: 11.2547928

- location: Coop Sjuntorp
  urn: urn:coop:store:id:1212
  city: Sjuntorp
  latitude: 58.2002355
  longitude: 12.2359115

- location: Coop Ed
  urn: urn:coop:store:id:1216
  city: Ed
  latitude: 58.9122582
  longitude: 11.935083

- location: Coop Grycksbo
  urn: urn:coop:store:id:1331
  city: Grycksbo
  latitude: 60.6874834
  longitude: 15.4845644

- location: Coop Bjursås
  urn: urn:coop:store:id:1329
  city: Bjursås
  latitude: 60.7395836
  longitude: 15.443108

- location: Coop Enen
  urn: urn:coop:store:id:1365
  city: Sandviken
  latitude: 60.6180508
  longitude: 16.7672344

- location: Coop Storvik
  urn: urn:coop:store:id:1368
  city: Storvik
  latitude: 60.5835985
  longitude: 16.5316983

- location: Coop Forsbacka
  urn: urn:coop:store:id:1351
  city: Forsbacka
  latitude: 60.6137315
  longitude: 16.890775

- location: Coop Ljusne
  urn: urn:coop:store:id:1345
  city: Ljusne
  latitude: 61.2111382
  longitude: 17.1258263

- location: Coop Kilafors
  urn: urn:coop:store:id:1374
  city: Kilafors
  latitude: 61.2305554
  longitude: 16.564215

- location: X:-TRA Edsbyn
  urn: urn:coop:store:id:1347
  city: Edsbyn
  latitude: 61.3740383
  longitude: 15.8181925

- location: Coop Arjeplog
  urn: urn:coop:store:id:1562
  city: Arjeplog
  latitude: 66.0513706
  longitude: 17.8887186

- location: Coop Råneå
  urn: urn:coop:store:id:1569
  city: Råneå
  latitude: 65.8555117
  longitude: 22.2902215

- location: Coop Pajala
  urn: urn:coop:store:id:1559
  city: Pajala
  latitude: 67.2126625
  longitude: 23.3690643

- location: Coop Skutskär
  urn: urn:coop:store:id:917
  city: Skutskär
  latitude: 60.6247102
  longitude: 17.4142813

- location: Coop Färgelanda
  urn: urn:coop:store:id:1192
  city: Färgelanda
  latitude: 58.5673476
  longitude: 11.996492

- location: Coop Klintehamn
  urn: urn:coop:store:id:187
  city: Klintehamn
  latitude: 57.387344
  longitude: 18.2042058

- location: Coop Roma
  urn: urn:coop:store:id:188
  city: Romakloster
  latitude: 57.5046319
  longitude: 18.4558769

- location: Coop Ljugarn
  urn: urn:coop:store:id:189
  city: Ljugarn
  latitude: 57.3329462
  longitude: 18.7022543

- location: Coop Hemse
  urn: urn:coop:store:id:190
  city: Hemse
  latitude: 57.2389328
  longitude: 18.3771824

- location: Coop Lärbro
  urn: urn:coop:store:id:191
  city: Lärbro
  latitude: 57.7847582
  longitude: 18.7888941

- location: Coop Slite
  urn: urn:coop:store:id:194
  city: Slite
  latitude: 57.7042543
  longitude: 18.8032629

- location: Coop Eslöv
  urn: urn:coop:store:id:1140
  city: Eslöv
  latitude: 55.8406768
  longitude: 13.3000297

- location: Coop Mörrum
  urn: urn:coop:store:id:1099
  city: Mörrum
  latitude: 56.1929463
  longitude: 14.7467054

- location: Coop Degeberga
  urn: urn:coop:store:id:1110
  city: Degeberga
  latitude: 55.8373899
  longitude: 14.0911067

- location: Coop Rödeby
  urn: urn:coop:store:id:1113
  city: Rödeby
  latitude: 56.2614211
  longitude: 15.6177895

- location: Coop Kallinge
  urn: urn:coop:store:id:1120
  city: Kallinge
  latitude: 56.2449989
  longitude: 15.2886303

- location: Coop Asarum
  urn: urn:coop:store:id:1128
  city: Asarum
  latitude: 56.2080293
  longitude: 14.8334235

- location: Coop Gråbo
  urn: urn:coop:store:id:164
  city: Visby
  latitude: 57.6190108
  longitude: 18.3011465

- location: Coop Kungsberga
  urn: urn:coop:store:id:964
  city: Färentuna
  latitude: 59.4050289
  longitude: 17.6312081

- location: Coop Bergslagshallen
  urn: urn:coop:store:id:1036
  city: Finspång
  latitude: 58.7063487
  longitude: 15.7666692

- location: Coop Åmål Mellanbrogatan
  urn: urn:coop:store:id:1188
  city: Åmål
  latitude: 59.0512648
  longitude: 12.7010597

- location: Coop Kungshamn
  urn: urn:coop:store:id:1189
  city: Kungshamn
  latitude: 58.3614624
  longitude: 11.2658667

- location: Coop Brastad
  urn: urn:coop:store:id:1196
  city: Brastad
  latitude: 58.3811745
  longitude: 11.4854618

- location: Coop Munkedal
  urn: urn:coop:store:id:1203
  city: Munkedal
  latitude: 58.4668902
  longitude: 11.6737157

- location: Coop Strömslund
  urn: urn:coop:store:id:1211
  city: Trollhättan
  latitude: 58.2811421
  longitude: 12.2671529

- location: Coop Nian
  urn: urn:coop:store:id:1338
  city: Gävle
  latitude: 60.6740779
  longitude: 17.1399553

- location: Coop Fjällbacken
  urn: urn:coop:store:id:1348
  city: Gävle
  latitude: 60.6686336
  longitude: 17.1830139

- location: Coop Sandviken
  urn: urn:coop:store:id:1349
  city: Sandviken
  latitude: 60.6202031
  longitude: 16.7408686

- location: Coop Krysset
  urn: urn:coop:store:id:1354
  city: Gävle
  latitude: 60.6575823
  longitude: 17.1343173

- location: Coop Björkskatan
  urn: urn:coop:store:id:1565
  city: Luleå
  latitude: 65.6148871
  longitude: 22.1773789

- location: Coop Sveafältet
  urn: urn:coop:store:id:1597
  city: Boden
  latitude: 65.8192514
  longitude: 21.6725265

- location: Coop Triangeln Gävle
  urn: urn:coop:store:id:1361
  city: Gävle
  latitude: 60.7012872
  longitude: 17.1539926

- location: Coop Österbymo
  urn: urn:coop:store:id:334
  city: Ydre
  latitude: 57.824695
  longitude: 15.2772126

- location: Coop Karlholm
  urn: urn:coop:store:id:1362
  city: Karlholmsbruk
  latitude: 60.5192314
  longitude: 17.6250171

- location: Coop Hallen
  urn: urn:coop:store:id:1360
  city: Gävle
  latitude: 60.6704052
  longitude: 17.1482008

- location: Coop Åsensbruk
  urn: urn:coop:store:id:1221
  city: Åsensbruk
  latitude: 58.8059241
  longitude: 12.4222653

- location: Coop Torup
  urn: urn:coop:store:id:1048
  city: Torup
  latitude: 56.9566074
  longitude: 13.075895

- location: Coop Unnaryd
  urn: urn:coop:store:id:1049
  city: Unnaryd
  latitude: 56.9543901
  longitude: 13.5304886

- location: Coop Älmhult
  urn: urn:coop:store:id:268
  city: Älmhult
  latitude: 56.5525131
  longitude: 14.14032

- location: Coop Gnosjö
  urn: urn:coop:store:id:274
  city: Gnosjö
  latitude: 57.3582813
  longitude: 13.7332455

- location: Coop Kosta
  urn: urn:coop:store:id:1053
  city: Kosta
  latitude: 56.8436698
  longitude: 15.3957071

- location: Coop Emmaboda
  urn: urn:coop:store:id:276
  city: Emmaboda
  latitude: 56.6304341
  longitude: 15.5380375

- location: Coop Överum
  urn: urn:coop:store:id:1067
  city: Överum
  latitude: 57.9882127
  longitude: 16.3139526

- location: Coop Åseda
  urn: urn:coop:store:id:278
  city: Åseda
  latitude: 57.1685377
  longitude: 15.3467551

- location: Coop Bankeryd
  urn: urn:coop:store:id:280
  city: Bankeryd
  latitude: 57.8604048
  longitude: 14.1245594

- location: Coop Sävsjö
  urn: urn:coop:store:id:281
  city: Sävsjö
  latitude: 57.4004266
  longitude: 14.6674608

- location: Coop Habo
  urn: urn:coop:store:id:283
  city: Habo
  latitude: 57.9095951
  longitude: 14.0748348

- location: Coop Gränna
  urn: urn:coop:store:id:285
  city: Gränna
  latitude: 58.0244843
  longitude: 14.4667575

- location: Coop Aneby
  urn: urn:coop:store:id:287
  city: Aneby
  latitude: 57.8383876
  longitude: 14.8177298

- location: Coop Lessebo
  urn: urn:coop:store:id:288
  city: Lessebo
  latitude: 56.751479
  longitude: 15.270357

- location: Coop Nässjö
  urn: urn:coop:store:id:1805
  city: Nässjö
  latitude: 57.6530302
  longitude: 14.6978673

- location: Coop Oxtorget
  urn: urn:coop:store:id:1889
  city: Växjö
  latitude: 56.8786743
  longitude: 14.7978969

- location: Coop Markaryd
  urn: urn:coop:store:id:304
  city: Markaryd
  latitude: 56.4631981
  longitude: 13.5977716

- location: Coop Torsås
  urn: urn:coop:store:id:310
  city: Torsås
  latitude: 56.4120112
  longitude: 16.000893

- location: Coop Norrliden
  urn: urn:coop:store:id:314
  city: Kalmar
  latitude: 56.7029334
  longitude: 16.3581157

- location: Coop Mullsjö
  urn: urn:coop:store:id:325
  city: Mullsjö
  latitude: 57.9163449
  longitude: 13.8793966

- location: Coop Dalviksringen
  urn: urn:coop:store:id:327
  city: Jönköping
  latitude: 57.7875248
  longitude: 14.1303214

- location: Coop Ekenässjön
  urn: urn:coop:store:id:338
  city: Ekenässjön
  latitude: 57.4921848
  longitude: 15.0208505

- location: Coop Högö
  urn: urn:coop:store:id:1075
  city: Västervik
  latitude: 57.7474011
  longitude: 16.6507737

- location: Coop Påskallavik
  urn: urn:coop:store:id:1081
  city: Påskallavik
  latitude: 57.1653936
  longitude: 16.4603892

- location: Coop Figeholm
  urn: urn:coop:store:id:1083
  city: Figeholm
  latitude: 57.3732303
  longitude: 16.5491392

- location: Coop Kristdala
  urn: urn:coop:store:id:1085
  city: Kristdala
  latitude: 57.4004917
  longitude: 16.1984752

- location: Coop Högsby
  urn: urn:coop:store:id:1087
  city: Högsby
  latitude: 57.1625312
  longitude: 16.0318727

- location: Coop Veberöd
  urn: urn:coop:store:id:1158
  city: Veberöd
  latitude: 55.6342263
  longitude: 13.4912311

- location: Coop Getinge
  urn: urn:coop:store:id:1163
  city: Getinge
  latitude: 56.8190824
  longitude: 12.7313009

- location: Coop Styrsö
  urn: urn:coop:store:id:1207
  city: Styrsö
  latitude: 57.6156734
  longitude: 11.7816223

- location: Coop Hajom
  urn: urn:coop:store:id:1223
  city: Hajom
  latitude: 57.5046997
  longitude: 12.5486198

- location: Coop Kil
  urn: urn:coop:store:id:1240
  city: Kil
  latitude: 59.5035179
  longitude: 13.3321747

- location: Coop Forshaga
  urn: urn:coop:store:id:1233
  city: Forshaga
  latitude: 59.5318788
  longitude: 13.480018

- location: Coop Grums
  urn: urn:coop:store:id:1236
  city: Grums
  latitude: 59.353819
  longitude: 13.1135939

- location: Coop Lesjöfors
  urn: urn:coop:store:id:1239
  city: Lesjöfors
  latitude: 59.97837
  longitude: 14.1832433

- location: Coop Norrstrand
  urn: urn:coop:store:id:1243
  city: Karlstad
  latitude: 59.3916134
  longitude: 13.5166295

- location: Coop Herrhagen
  urn: urn:coop:store:id:1254
  city: Karlstad
  latitude: 59.377723
  longitude: 13.5167215

- location: Coop Kronoparken
  urn: urn:coop:store:id:1255
  city: Karlstad
  latitude: 59.4027616
  longitude: 13.5717754

- location: Coop Sysslebäck
  urn: urn:coop:store:id:1263
  city: Sysslebäck
  latitude: 60.7345529
  longitude: 12.8655067

- location: Coop Fröding
  urn: urn:coop:store:id:1300
  city: Karlskoga
  latitude: 59.3286808
  longitude: 14.5016055

- location: Coop Storängen
  urn: urn:coop:store:id:1303
  city: Karlskoga
  latitude: 59.3022958
  longitude: 14.4953834

- location: Coop Sollerön
  urn: urn:coop:store:id:1333
  city: Sollerön
  latitude: 60.9172675
  longitude: 14.6171683

- location: Coop Byske
  urn: urn:coop:store:id:1441
  city: Byske
  latitude: 64.9530415
  longitude: 21.2035875

- location: Coop Norsjö
  urn: urn:coop:store:id:1443
  city: Norsjö
  latitude: 64.9132973
  longitude: 19.4786682

- location: Coop Malå
  urn: urn:coop:store:id:1445
  city: Malå
  latitude: 65.1836908
  longitude: 18.739816

- location: Coop Tärnaby
  urn: urn:coop:store:id:1448
  city: Tärnaby
  latitude: 65.7115176
  longitude: 15.2576127

- location: Coop Burträsk
  urn: urn:coop:store:id:922
  city: Burträsk
  latitude: 64.5200677
  longitude: 20.6580488

- location: Coop Ålidhem
  urn: urn:coop:store:id:1449
  city: Umeå
  latitude: 63.8122596
  longitude: 20.3147184

- location: Coop Nordmaling
  urn: urn:coop:store:id:1450
  city: Nordmaling
  latitude: 63.5701161
  longitude: 19.4973994

- location: Coop Storuman
  urn: urn:coop:store:id:1451
  city: Storuman
  latitude: 65.0963294
  longitude: 17.1167853

- location: Coop Robertsfors
  urn: urn:coop:store:id:1454
  city: Robertsfors
  latitude: 64.1929844
  longitude: 20.8474597

- location: Coop Hörnett
  urn: urn:coop:store:id:1922
  city: Domsjö
  latitude: 63.2721288
  longitude: 18.6905819

- location: Coop Hammarstrand
  urn: urn:coop:store:id:1404
  city: Hammarstrand
  latitude: 63.1099469
  longitude: 16.3540785

- location: Coop Åre
  urn: urn:coop:store:id:1407
  city: Åre
  latitude: 63.3956661
  longitude: 13.0866694

- location: Coop Järpen
  urn: urn:coop:store:id:1408
  city: Järpen
  latitude: 63.3462817
  longitude: 13.4623406

- location: Coop Bjurholm
  urn: urn:coop:store:id:1476
  city: Bjurholm
  latitude: 63.9322513
  longitude: 19.2166577

- location: Coop Ursviken
  urn: urn:coop:store:id:1494
  city: Ursviken
  latitude: 64.7078506
  longitude: 21.1746975

- location: Coop Erikslid
  urn: urn:coop:store:id:1495
  city: Skellefteå
  latitude: 64.7609101
  longitude: 20.9540139

- location: Coop Själevad
  urn: urn:coop:store:id:618
  city: Själevad
  latitude: 63.2945096
  longitude: 18.6229347

- location: Coop Knäred
  urn: urn:coop:store:id:1164
  city: Knäred
  latitude: 56.5203063
  longitude: 13.3149039

- location: Coop Kramfors
  urn: urn:coop:store:id:921
  city: Kramfors
  latitude: 62.9312038
  longitude: 17.7822403

- location: Coop Timrå
  urn: urn:coop:store:id:1388
  city: Timrå
  latitude: 62.4856598
  longitude: 17.3240714

- location: Coop Strömsund
  urn: urn:coop:store:id:1402
  city: Strömsund
  latitude: 63.851718
  longitude: 15.5578599

- location: Coop Frösön
  urn: urn:coop:store:id:1412
  city: Frösön
  latitude: 63.1824659
  longitude: 14.6181811

- location: Coop Vännäs
  urn: urn:coop:store:id:924
  city: Vännäs
  latitude: 63.9068854
  longitude: 19.7514203

- location: Coop Ånge
  urn: urn:coop:store:id:918
  city: Ånge
  latitude: 62.5250725
  longitude: 15.6590985

- location: Coop Nacksta
  urn: urn:coop:store:id:1890
  city: Sundsvall
  latitude: 62.3911446
  longitude: 17.2711977

- location: Coop Lönsboda
  urn: urn:coop:store:id:1098
  city: Lönsboda
  latitude: 56.3987438
  longitude: 14.3224071

- location: Coop Färjestaden
  urn: urn:coop:store:id:316
  city: Färjestaden
  latitude: 56.6494596
  longitude: 16.4727541

- location: Coop Svängsta
  urn: urn:coop:store:id:1131
  city: Svängsta
  latitude: 56.2627327
  longitude: 14.7710827

- location: Coop Brunflo
  urn: urn:coop:store:id:1419
  city: Brunflo
  latitude: 63.0811574
  longitude: 14.8246426

- location: Coop Lysekil
  urn: urn:coop:store:id:2750
  city: Lysekil
  latitude: 58.2824317
  longitude: 11.4631269

- location: Coop Åmotfors
  urn: urn:coop:store:id:1237
  city: Åmotfors
  latitude: 59.7628415
  longitude: 12.3615427

- location: Coop Tranås
  urn: urn:coop:store:id:272
  city: Tranås
  latitude: 58.0311857
  longitude: 14.9704931

- location: Coop Hörngatan
  urn: urn:coop:store:id:1213
  city: Trollhättan
  latitude: 58.2776835
  longitude: 12.2853918

- location: Coop Karlstadsvägen
  urn: urn:coop:store:id:1195
  city: Åmål
  latitude: 59.0595461
  longitude: 12.7010093

- location: Coop Älvsbyn
  urn: urn:coop:store:id:1558
  city: Älvsbyn
  latitude: 65.6731319
  longitude: 21.0097906

- location: Coop Värnamo
  urn: urn:coop:store:id:2815
  city: Värnamo
  latitude: 57.1818256
  longitude: 14.0591731

- location: Coop Kolberga
  urn: urn:coop:store:id:1080
  city: Oskarshamn
  latitude: 57.2702747
  longitude: 16.4574405

- location: Coop Broby
  urn: urn:coop:store:id:1111
  city: Broby
  latitude: 56.2542569
  longitude: 14.0766052

- location: Coop Östra Torget
  urn: urn:coop:store:id:2816
  city: Jönköping
  latitude: 57.7805163
  longitude: 14.1803571

- location: Coop Bureå
  urn: urn:coop:store:id:1442
  city: Bureå
  latitude: 64.6184769
  longitude: 21.2011276

- location: Coop Torsby
  urn: urn:coop:store:id:1242
  city: Torsby
  latitude: 60.1308551
  longitude: 12.9979487

- location: Coop Rosviksgatan
  urn: urn:coop:store:id:1185
  city: Lysekil
  latitude: 58.2735908
  longitude: 11.435886

- location: Coop Norrsundet
  urn: urn:coop:store:id:1346
  city: Norrsundet
  latitude: 60.9299352
  longitude: 17.1397582

- location: Coop Hässleholm
  urn: urn:coop:store:id:1095
  city: Hässleholm
  latitude: 56.1496565
  longitude: 13.7805795

- location: Coop Sölvesborg
  urn: urn:coop:store:id:1104
  city: Sölvesborg
  latitude: 56.0513788
  longitude: 14.5819215

- location: Coop Knislinge
  urn: urn:coop:store:id:1118
  city: Knislinge
  latitude: 56.1926272
  longitude: 14.0868711

- location: Coop Mustadfors
  urn: urn:coop:store:id:1215
  city: Dals Långed
  latitude: 58.9210134
  longitude: 12.3121458

- location: Coop Skogslyckan
  urn: urn:coop:store:id:1190
  city: Uddevalla
  latitude: 58.3611152
  longitude: 11.914588

- location: Coop Bäckefors
  urn: urn:coop:store:id:1209
  city: Bäckefors
  latitude: 58.8063417
  longitude: 12.1620059

- location: Coop Vintergatan
  urn: urn:coop:store:id:3077
  city: Kristinehamn
  latitude: 59.3093526
  longitude: 14.1096143

- location: Coop Högsäter
  urn: urn:coop:store:id:1193
  city: Högsäter
  latitude: 58.6525159
  longitude: 12.0570701

- location: Coop Fjällbacka
  urn: urn:coop:store:id:1210
  city: Fjällbacka
  latitude: 58.5979336
  longitude: 11.2893502

- location: Coop Flanaden
  urn: urn:coop:store:id:1066
  city: Oskarshamn
  latitude: 57.2643746
  longitude: 16.4452713

- location: Coop Boxholm
  urn: urn:coop:store:id:229
  city: Boxholm
  latitude: 58.1976669
  longitude: 15.0540296

- location: Coop Kisa
  urn: urn:coop:store:id:231
  city: Kisa
  latitude: 57.9849221
  longitude: 15.6319502

- location: Coop Stenbärsvägen Nyköping
  urn: urn:coop:store:id:2229
  city: Nyköping
  latitude: 58.7465939
  longitude: 16.9934198

- location: Coop Gnesta
  urn: urn:coop:store:id:21
  city: Gnesta
  latitude: 59.047894
  longitude: 17.3110884

- location: Coop Tungelsta
  urn: urn:coop:store:id:22
  city: Tungelsta
  latitude: 59.1032785
  longitude: 18.0451416

- location: Coop Skarphagen
  urn: urn:coop:store:id:247
  city: Norrköping
  latitude: 58.5774857
  longitude: 16.1582514

- location: Coop Björkhagen
  urn: urn:coop:store:id:44
  city: Johanneshov
  latitude: 59.2902484
  longitude: 18.1167264

- location: Coop Vintertullen
  urn: urn:coop:store:id:47
  city: Stockholm
  latitude: 59.3080968
  longitude: 18.0909965

- location: Coop Värnhem
  urn: urn:coop:store:id:3823
  city: Malmö
  latitude: 55.6051502
  longitude: 13.0243958

- location: Coop Farsta Strand
  urn: urn:coop:store:id:51
  city: Farsta
  latitude: 59.2351085
  longitude: 18.1021292

- location: Coop Högalid
  urn: urn:coop:store:id:3825
  city: Trelleborg
  latitude: 55.387095
  longitude: 13.1547273

- location: Coop Nydala
  urn: urn:coop:store:id:3829
  city: Malmö
  latitude: 55.5730038
  longitude: 13.0202471

- location: Coop Hälleforsnäs
  urn: urn:coop:store:id:530
  city: Hälleforsnäs
  latitude: 59.1525589
  longitude: 16.4966091

- location: Coop Östgötagatan
  urn: urn:coop:store:id:126
  city: Stockholm
  latitude: 59.3100953
  longitude: 18.0789064

- location: Coop Vendelsömalm
  urn: urn:coop:store:id:130
  city: Haninge
  latitude: 59.179734
  longitude: 18.1802461

- location: Coop Hölö
  urn: urn:coop:store:id:143
  city: Hölö
  latitude: 59.0261578
  longitude: 17.5375458

- location: Coop Tibble
  urn: urn:coop:store:id:180
  city: Kungsängen
  latitude: 59.4854007
  longitude: 17.7340963

- location: Coop Ringgatan
  urn: urn:coop:store:id:211
  city: Uppsala
  latitude: 59.8635409
  longitude: 17.6151754

- location: Coop Storvreta
  urn: urn:coop:store:id:214
  city: Storvreta
  latitude: 59.9599103
  longitude: 17.7052744

- location: Coop Sockenplan
  urn: urn:coop:store:id:83
  city: Enskede
  latitude: 59.2827231
  longitude: 18.0727991

- location: Coop Eksjö
  urn: urn:coop:store:id:271
  city: Eksjö
  latitude: 57.6646198
  longitude: 14.9723902

- location: Coop Tenhult
  urn: urn:coop:store:id:335
  city: Tenhult
  latitude: 57.7095132
  longitude: 14.3225639

- location: Coop Kristinedal
  urn: urn:coop:store:id:1853
  city: Jönköping
  latitude: 57.7782661
  longitude: 14.1508219

- location: Coop Älvängen
  urn: urn:coop:store:id:3137
  city: Älvängen
  latitude: 57.961399
  longitude: 12.1270543

- location: Coop Spånga Torg
  urn: urn:coop:store:id:121
  city: Spånga
  latitude: 59.3815706
  longitude: 17.8966551

- location: Coop Skived
  urn: urn:coop:store:id:1274
  city: Forshaga
  latitude: 59.5209765
  longitude: 13.4825012

- location: Coop Sollefteå
  urn: urn:coop:store:id:1439
  city: Sollefteå
  latitude: 63.1651718
  longitude: 17.27754

- location: Coop Södertälje C
  urn: urn:coop:store:id:88
  city: Södertälje
  latitude: 59.1957873
  longitude: 17.6274022

- location: Coop Molkom
  urn: urn:coop:store:id:1246
  city: Molkom
  latitude: 59.6015103
  longitude: 13.7217275

- location: Coop Charlottenberg
  urn: urn:coop:store:id:1238
  city: Charlottenberg
  latitude: 59.8841557
  longitude: 12.3004695

- location: Coop Koppom
  urn: urn:coop:store:id:1257
  city: Koppom
  latitude: 59.7065581
  longitude: 12.1508179

- location: Coop Sälen
  urn: urn:coop:store:id:596
  city: Sälen
  latitude: 61.1557806
  longitude: 13.2667861

- location: Coop Forssa
  urn: urn:coop:store:id:578
  city: Borlänge
  latitude: 60.4965555
  longitude: 15.4310371

- location: Coop Rättvik
  urn: urn:coop:store:id:574
  city: Rättvik
  latitude: 60.8828546
  longitude: 15.118992

- location: Coop Kvarnberget
  urn: urn:coop:store:id:573
  city: Falun
  latitude: 60.59448
  longitude: 15.6451368

- location: Coop Ludvika Gård
  urn: urn:coop:store:id:572
  city: Ludvika
  latitude: 60.1315481
  longitude: 15.181357

- location: Coop Vansbro
  urn: urn:coop:store:id:570
  city: Vansbro
  latitude: 60.5114653
  longitude: 14.2227187

- location: Coop Grängesberg
  urn: urn:coop:store:id:569
  city: Grängesberg
  latitude: 60.0755994
  longitude: 15.0073509

- location: Coop Smedjebacken
  urn: urn:coop:store:id:568
  city: Smedjebacken
  latitude: 60.1424078
  longitude: 15.4121659

- location: Coop Orsa
  urn: urn:coop:store:id:567
  city: Orsa
  latitude: 61.1184801
  longitude: 14.619783

- location: Coop Säter
  urn: urn:coop:store:id:566
  city: Säter
  latitude: 60.3463183
  longitude: 15.7524184

- location: Coop Östervåla
  urn: urn:coop:store:id:559
  city: Östervåla
  latitude: 60.1815998
  longitude: 17.1789755

- location: Coop Heby
  urn: urn:coop:store:id:529
  city: Heby
  latitude: 59.9389815
  longitude: 16.8622091

- location: Coop Skinnskatteberg
  urn: urn:coop:store:id:528
  city: Skinnskatteberg
  latitude: 59.8295252
  longitude: 15.6932412

- location: Coop Norberg
  urn: urn:coop:store:id:527
  city: Norberg
  latitude: 60.066022
  longitude: 15.9238969

- location: Coop Fagersta
  urn: urn:coop:store:id:520
  city: Fagersta
  latitude: 60.0042591
  longitude: 15.7958841

- location: Coop Östhammar Centrum
  urn: urn:coop:store:id:203
  city: Östhammar
  latitude: 60.2583752
  longitude: 18.3724142

- location: Coop Hallstavik
  urn: urn:coop:store:id:202
  city: Hallstavik
  latitude: 60.0496156
  longitude: 18.5962993

- location: Coop Tierp
  urn: urn:coop:store:id:199
  city: Tierp
  latitude: 60.344942
  longitude: 17.5163098

- location: Coop Österbybruk
  urn: urn:coop:store:id:198
  city: Österbybruk
  latitude: 60.1956311
  longitude: 17.8954423

- location: Coop Energivägen Östhammar
  urn: urn:coop:store:id:1997
  city: Östhammar
  latitude: 60.2487901
  longitude: 18.3506894

- location: Coop Änghagen Lidköping
  urn: urn:coop:store:id:2809
  city: Lidköping
  latitude: 58.4938564
  longitude: 13.1835515

- location: Coop Vipans Gränd Skövde
  urn: urn:coop:store:id:2702
  city: Skövde
  latitude: 58.3871243
  longitude: 13.8320605

- location: Coop Karlsborg
  urn: urn:coop:store:id:473
  city: Karlsborg
  latitude: 58.5377205
  longitude: 14.5051191

- location: Coop Kyrkogatan Töreboda
  urn: urn:coop:store:id:472
  city: Töreboda
  latitude: 58.7099531
  longitude: 14.1268049

- location: Coop Sydport Mariestad
  urn: urn:coop:store:id:474
  city: Mariestad
  latitude: 58.6853131
  longitude: 13.816654

- location: Coop Tidaholm
  urn: urn:coop:store:id:471
  city: Tidaholm
  latitude: 58.1792033
  longitude: 13.9574859

- location: Coop Falköping
  urn: urn:coop:store:id:2236
  city: Falköping
  latitude: 58.150103
  longitude: 13.5565072

- location: Coop Skene
  urn: urn:coop:store:id:466
  city: Skene
  latitude: 57.4906942
  longitude: 12.6425421

- location: Coop Surte
  urn: urn:coop:store:id:454
  city: Surte
  latitude: 57.8261801
  longitude: 12.0149772

- location: Coop Gamlestaden
  urn: urn:coop:store:id:449
  city: Göteborg
  latitude: 57.7298388
  longitude: 12.0141367

- location: Coop Eriksberg
  urn: urn:coop:store:id:1888
  city: Göteborg
  latitude: 57.7087624
  longitude: 11.9196765

- location: Coop Munkebäckstorget
  urn: urn:coop:store:id:438
  city: Göteborg
  latitude: 57.7187212
  longitude: 12.0258318

- location: Coop Friggagatan
  urn: urn:coop:store:id:2704
  city: Göteborg
  latitude: 57.7106701
  longitude: 11.9864055

- location: Coop Landala
  urn: urn:coop:store:id:434
  city: Göteborg
  latitude: 57.6932675
  longitude: 11.9711704

- location: Coop Avenyn
  urn: urn:coop:store:id:430
  city: Göteborg
  latitude: 57.69939
  longitude: 11.9768679

- location: Coop Stenungsund
  urn: urn:coop:store:id:423
  city: Stenungsund
  latitude: 58.0683783
  longitude: 11.8170708

- location: Coop Lundby
  urn: urn:coop:store:id:421
  city: Göteborg
  latitude: 57.7214854
  longitude: 11.9350914

- location: Coop Garphyttan
  urn: urn:coop:store:id:3793
  city: Garphyttan
  latitude: 59.3043395
  longitude: 14.9465302

- location: Coop Virserum
  urn: urn:coop:store:id:1090
  city: Virserum
  latitude: 57.3214706
  longitude: 15.5816897

- location: Coop Katterjåkk
  urn: urn:coop:store:id:2294
  city: Riksgränsen
  latitude: 68.4249306
  longitude: 18.1610476

- location: Coop Trädgårdsgatan
  urn: urn:coop:store:id:1578
  city: Kiruna
  latitude: 67.8472909
  longitude: 20.2327367

- location: Coop Älvdalen
  urn: urn:coop:store:id:1321
  city: Älvdalen
  latitude: 61.2283055
  longitude: 14.0380954

- location: Coop Särna
  urn: urn:coop:store:id:1322
  city: Särna
  latitude: 61.6930622
  longitude: 13.1411266

- location: Coop Idre
  urn: urn:coop:store:id:1326
  city: Idre
  latitude: 61.8578491
  longitude: 12.7266326

- location: Coop Tyresö
  urn: urn:coop:store:id:30
  city: Tyresö
  latitude: 59.243877
  longitude: 18.2305991

- location: Coop Björnboda
  urn: urn:coop:store:id:2273
  city: Vällingby
  latitude: 59.3791018
  longitude: 17.8484431

- location: Coop Pilgatan Västerås
  urn: urn:coop:store:id:3772
  city: Västerås
  latitude: 59.6127814
  longitude: 16.5646991

- location: Coop Simrishamn
  urn: urn:coop:store:id:3818
  city: Simrishamn
  latitude: 55.5518855
  longitude: 14.3312669

- location: Coop Smygehamn
  urn: urn:coop:store:id:3824
  city: Smygehamn
  latitude: 55.3433924
  longitude: 13.3724394

- location: Coop Tessins väg
  urn: urn:coop:store:id:3836
  city: Malmö
  latitude: 55.6004451
  longitude: 12.9754971

- location: Coop Kållered
  urn: urn:coop:store:id:653
  city: Kållered
  latitude: 57.6093937
  longitude: 12.0442704

- location: Coop Skärblacka
  urn: urn:coop:store:id:3485
  city: Skärblacka
  latitude: 58.5817292
  longitude: 15.9136183

- location: Coop Hasslö
  urn: urn:coop:store:id:1107
  city: Hasslö
  latitude: 56.1152
  longitude: 15.4762222

- location: Coop Änggatan
  urn: urn:coop:store:id:3792
  city: Örebro
  latitude: 59.2658114
  longitude: 15.2101182

- location: Coop Värmlandsgatan
  urn: urn:coop:store:id:252
  city: Norrköping
  latitude: 58.5971618
  longitude: 16.1657927

- location: Coop Trozelligatan
  urn: urn:coop:store:id:253
  city: Norrköping
  latitude: 58.5828372
  longitude: 16.186327

- location: Coop Lysvik
  urn: urn:coop:store:id:1281
  city: Lysvik
  latitude: 60.0152523
  longitude: 13.1507257

- location: Coop Trätorget
  urn: urn:coop:store:id:442
  city: Göteborg
  latitude: 57.7149195
  longitude: 12.0526783

- location: Coop Daglivs
  urn: urn:coop:store:id:2207
  city: Stockholm
  latitude: 59.3339021
  longitude: 18.0325506

- location: Coop Ingmarsö
  urn: urn:coop:store:id:3496
  city: Ingmarsö
  latitude: 59.4662055
  longitude: 18.7517492

- location: Coop Kronhjorten Trollhättan
  urn: urn:coop:store:id:3497
  city: Trollhättan
  latitude: 58.2804506
  longitude: 12.3069521

- location: Coop Järntorget
  urn: urn:coop:store:id:104
  city: Stockholm
  latitude: 59.322603
  longitude: 18.0728015

- location: Coop Svanskog
  urn: urn:coop:store:id:1269
  city: Svanskog
  latitude: 59.1789392
  longitude: 12.5523827

- location: Coop Kungsgården
  urn: urn:coop:store:id:1369
  city: Kungsgården
  latitude: 60.6068498
  longitude: 16.6032773

- location: Coop Hassela
  urn: urn:coop:store:id:1383
  city: Hassela
  latitude: 62.1100291
  longitude: 16.709872

- location: Coop Sangis
  urn: urn:coop:store:id:1604
  city: Sangis
  latitude: 65.8572844
  longitude: 23.4931801

- location: Coop Rejmyre
  urn: urn:coop:store:id:1041
  city: Rejmyre
  latitude: 58.8298045
  longitude: 15.9311781

- location: Coop Kristinatorget
  urn: urn:coop:store:id:293
  city: Växjö
  latitude: 56.8837565
  longitude: 14.8203001

- location: Coop Traryd
  urn: urn:coop:store:id:305
  city: Traryd
  latitude: 56.5781822
  longitude: 13.7469093

- location: Coop Kroppkärr
  urn: urn:coop:store:id:1258
  city: Karlstad
  latitude: 59.4039779
  longitude: 13.5485357

- location: Coop Vikene
  urn: urn:coop:store:id:1279
  city: Brunskog
  latitude: 59.6696638
  longitude: 12.8868413

- location: Coop Högboda
  urn: urn:coop:store:id:1280
  city: Kil
  latitude: 59.5570119
  longitude: 13.0533183

- location: Coop Skillingsfors
  urn: urn:coop:store:id:1286
  city: Skillingsfors
  latitude: 59.8178686
  longitude: 12.0220934

- location: Coop Hagaström
  urn: urn:coop:store:id:1364
  city: Gävle
  latitude: 60.6713737
  longitude: 17.0736507

- location: Coop Harads
  urn: urn:coop:store:id:1560
  city: Harads
  latitude: 66.0859589
  longitude: 20.9521901

- location: Coop Berg
  urn: urn:coop:store:id:966
  city: Möja
  latitude: 59.4066834
  longitude: 18.8869606

- location: Coop Långvik
  urn: urn:coop:store:id:967
  city: Möja
  latitude: 59.4423967
  longitude: 18.9207232

- location: Coop Älghult
  urn: urn:coop:store:id:1060
  city: Älghult
  latitude: 57.0089113
  longitude: 15.5739811

- location: Coop Visingsö
  urn: urn:coop:store:id:333
  city: Visingsö
  latitude: 58.0456501
  longitude: 14.3381928

- location: Coop Bor
  urn: urn:coop:store:id:339
  city: Bor
  latitude: 57.1152941
  longitude: 14.1684586

- location: Coop Edsbruk
  urn: urn:coop:store:id:1076
  city: Edsbruk
  latitude: 58.0184714
  longitude: 16.466408

- location: Coop Fårbo
  urn: urn:coop:store:id:1078
  city: Fårbo
  latitude: 57.3832488
  longitude: 16.4843649

- location: Coop Berga
  urn: urn:coop:store:id:1082
  city: Berga
  latitude: 57.217677
  longitude: 16.0356849

- location: Coop Alsterbro
  urn: urn:coop:store:id:1089
  city: Alsterbro
  latitude: 56.9416235
  longitude: 15.9140549

- location: Coop Sunnemo
  urn: urn:coop:store:id:1285
  city: Sunnemo
  latitude: 59.8833434
  longitude: 13.7196759

- location: Coop Stöllet
  urn: urn:coop:store:id:1287
  city: Stöllet
  latitude: 60.4108427
  longitude: 13.2706244

- location: Coop Sorsele
  urn: urn:coop:store:id:1444
  city: Sorsele
  latitude: 65.5356238
  longitude: 17.531987

- location: Coop Dorotea
  urn: urn:coop:store:id:1447
  city: Dorotea
  latitude: 64.2615418
  longitude: 16.41263

- location: Coop Åsele
  urn: urn:coop:store:id:923
  city: Åsele
  latitude: 64.1612004
  longitude: 17.3505905

- location: Coop Hörnefors
  urn: urn:coop:store:id:1453
  city: Hörnefors
  latitude: 63.6263794
  longitude: 19.9078413

- location: Coop Bollstabruk
  urn: urn:coop:store:id:1457
  city: Bollstabruk
  latitude: 62.9984288
  longitude: 17.674366

- location: Coop Ersboda
  urn: urn:coop:store:id:1462
  city: Umeå
  latitude: 63.8575807
  longitude: 20.3340689

- location: Coop Vännäsby
  urn: urn:coop:store:id:1464
  city: Vännäsby
  latitude: 63.9129286
  longitude: 19.8207441

- location: Coop Haga Umeå
  urn: urn:coop:store:id:1465
  city: Umeå
  latitude: 63.8367578
  longitude: 20.2824512

- location: Coop Jörn
  urn: urn:coop:store:id:1483
  city: Jörn
  latitude: 65.0595356
  longitude: 20.0374329

- location: Coop Lövånger
  urn: urn:coop:store:id:1485
  city: Lövånger
  latitude: 64.3705142
  longitude: 21.3117152

- location: Coop Köpmanholmen
  urn: urn:coop:store:id:613
  city: Köpmanholmen
  latitude: 63.1678476
  longitude: 18.5631942

- location: Coop Mellansel
  urn: urn:coop:store:id:615
  city: Mellansel
  latitude: 63.426606
  longitude: 18.3084667

- location: Coop Bredbyn
  urn: urn:coop:store:id:616
  city: Bredbyn
  latitude: 63.4480002
  longitude: 18.1100486

- location: Coop Torpshammar
  urn: urn:coop:store:id:927
  city: Torpshammar
  latitude: 62.4741618
  longitude: 16.3284771

- location: Coop Bergsåker
  urn: urn:coop:store:id:1526
  city: Sundsvall
  latitude: 62.4155991
  longitude: 17.2172589

- location: Coop Fränsta
  urn: urn:coop:store:id:1531
  city: Fränsta
  latitude: 62.4981069
  longitude: 16.1710188

- location: Coop Näsåker
  urn: urn:coop:store:id:1537
  city: Näsåker
  latitude: 63.4424207
  longitude: 16.8990412

- location: Coop Torvalla
  urn: urn:coop:store:id:1417
  city: Östersund
  latitude: 63.1584867
  longitude: 14.742058

- location: Coop Bråten
  urn: urn:coop:store:id:1304
  city: Karlskoga
  latitude: 59.3446995
  longitude: 14.5672026

- location: Coop Vallaplan
  urn: urn:coop:store:id:239
  city: Linköping
  latitude: 58.4072391
  longitude: 15.5976596

- location: Coop Hantverkaregatan
  urn: urn:coop:store:id:248
  city: Norrköping
  latitude: 58.5886822
  longitude: 16.2010571

- location: Coop Ringvägen
  urn: urn:coop:store:id:259
  city: Nyköping
  latitude: 58.7536149
  longitude: 17.0251727

- location: Coop Tystberga
  urn: urn:coop:store:id:265
  city: Tystberga
  latitude: 58.8481696
  longitude: 17.2381734

- location: Coop Mariatorget
  urn: urn:coop:store:id:46
  city: Stockholm
  latitude: 59.3189682
  longitude: 18.062335

- location: Coop Stadion
  urn: urn:coop:store:id:1849
  city: Stockholm
  latitude: 59.3402765
  longitude: 18.0784093

- location: Coop Furuvägen
  urn: urn:coop:store:id:3802
  city: Halmstad
  latitude: 56.685187
  longitude: 12.8794359

- location: Coop Tranebergsvägen
  urn: urn:coop:store:id:50
  city: Bromma
  latitude: 59.335367
  longitude: 17.9695661

- location: Coop Västertorp
  urn: urn:coop:store:id:53
  city: Hägersten
  latitude: 59.292673
  longitude: 17.9676975

- location: Coop Nobeltorget
  urn: urn:coop:store:id:3832
  city: Malmö
  latitude: 55.5923524
  longitude: 13.0199545

- location: Coop Malmö Central
  urn: urn:coop:store:id:3833
  city: Malmö
  latitude: 55.6091647
  longitude: 12.9994742

- location: Coop Kornettsgatan
  urn: urn:coop:store:id:3835
  city: Malmö
  latitude: 55.6003435
  longitude: 13.0117856

- location: Coop Trollebergsvägen
  urn: urn:coop:store:id:3837
  city: Lund
  latitude: 55.7036185
  longitude: 13.1828726

- location: Coop Flöjtvägen
  urn: urn:coop:store:id:3839
  city: Lund
  latitude: 55.710867
  longitude: 13.2328366

- location: Coop Örnvägen
  urn: urn:coop:store:id:3840
  city: Lund
  latitude: 55.7057344
  longitude: 13.1704938

- location: Coop Örebrogatan
  urn: urn:coop:store:id:3845
  city: Helsingborg
  latitude: 56.0446231
  longitude: 12.7212324

- location: Coop Tomtebogatan
  urn: urn:coop:store:id:73
  city: Stockholm
  latitude: 59.3414243
  longitude: 18.0358733

- location: Coop Högsjö
  urn: urn:coop:store:id:532
  city: Högsjö
  latitude: 59.0278996
  longitude: 15.6696939

- location: Coop Kyrkogatan
  urn: urn:coop:store:id:534
  city: Katrineholm
  latitude: 58.9982592
  longitude: 16.2064134

- location: Coop Skogstorp
  urn: urn:coop:store:id:540
  city: Skogstorp
  latitude: 59.3280167
  longitude: 16.4823866

- location: Coop Ärla
  urn: urn:coop:store:id:541
  city: Ärla
  latitude: 59.2825864
  longitude: 16.6757613

- location: Coop Älvsjö
  urn: urn:coop:store:id:3141
  city: Älvsjö
  latitude: 59.2790351
  longitude: 18.0098753

- location: Coop Stamgatan
  urn: urn:coop:store:id:90
  city: Älvsjö
  latitude: 59.2836423
  longitude: 18.0419728

- location: Coop Vasalund
  urn: urn:coop:store:id:97
  city: Solna
  latitude: 59.3645271
  longitude: 18.004265

- location: Coop Ribby
  urn: urn:coop:store:id:105
  city: Västerhaninge
  latitude: 59.1154275
  longitude: 18.1078254

- location: Coop Centralen
  urn: urn:coop:store:id:3079
  city: Stockholm
  latitude: 59.3295952
  longitude: 18.0589977

- location: Coop Essingen
  urn: urn:coop:store:id:111
  city: Stockholm
  latitude: 59.3218269
  longitude: 17.9894192

- location: Coop Farmarstigen
  urn: urn:coop:store:id:115
  city: Tyresö
  latitude: 59.2329438
  longitude: 18.2274396

- location: Coop Sveavägen
  urn: urn:coop:store:id:127
  city: Stockholm
  latitude: 59.3394617
  longitude: 18.0601786

- location: Coop Svandammsplan
  urn: urn:coop:store:id:129
  city: Hägersten
  latitude: 59.3010842
  longitude: 18.0032775

- location: Coop Korpkulla
  urn: urn:coop:store:id:174
  city: Upplands Väsby
  latitude: 59.5216149
  longitude: 17.902032

- location: Coop Barkarby
  urn: urn:coop:store:id:178
  city: Järfälla
  latitude: 59.4027056
  longitude: 17.8680198

- location: Coop Veckovägen
  urn: urn:coop:store:id:179
  city: Järfälla
  latitude: 59.423698
  longitude: 17.8232529

- location: Coop Sunnersta
  urn: urn:coop:store:id:207
  city: Uppsala
  latitude: 59.7964619
  longitude: 17.6567586

- location: Coop Ekeby Uppsala
  urn: urn:coop:store:id:208
  city: Uppsala
  latitude: 59.8511282
  longitude: 17.6057217

- location: Coop Almunge
  urn: urn:coop:store:id:219
  city: Knivsta
  latitude: 59.8757842
  longitude: 18.0464383

- location: Coop Grindvägen
  urn: urn:coop:store:id:220
  city: Norrtälje
  latitude: 59.76766
  longitude: 18.7202243

- location: Coop Bromsten
  urn: urn:coop:store:id:114
  city: Spånga
  latitude: 59.3793882
  longitude: 17.9139783

- location: Coop City Kristianstad
  urn: urn:coop:store:id:3148
  city: Kristianstad
  latitude: 56.0312241
  longitude: 14.1577449

- location: Coop Spångbro
  urn: urn:coop:store:id:149
  city: Sorunda
  latitude: 59.0080211
  longitude: 17.806775

- location: Coop Lycksele
  urn: urn:coop:store:id:1435
  city: Lycksele
  latitude: 64.5944569
  longitude: 18.6770639

- location: Coop Spångavägen
  urn: urn:coop:store:id:101
  city: Spånga
  latitude: 59.3678147
  longitude: 17.900541

- location: Coop Källö-Knippla
  urn: urn:coop:store:id:1201
  city: Källö-Knippla
  latitude: 57.7495937
  longitude: 11.6515799

- location: Coop Fruängen
  urn: urn:coop:store:id:43
  city: Hägersten
  latitude: 59.2855239
  longitude: 17.965612

- location: Coop Södra Ringvägen
  urn: urn:coop:store:id:298
  city: Växjö
  latitude: 56.8719398
  longitude: 14.7968974

- location: Coop Odenplan
  urn: urn:coop:store:id:7
  city: Stockholm
  latitude: 59.3429788
  longitude: 18.052026

- location: Coop Reimersholme
  urn: urn:coop:store:id:133
  city: Stockholm
  latitude: 59.317478
  longitude: 18.0225523

- location: Coop Kristineberg
  urn: urn:coop:store:id:38
  city: Stockholm
  latitude: 59.3332152
  longitude: 18.0021185

- location: Coop Mälarhöjden
  urn: urn:coop:store:id:134
  city: Hägersten
  latitude: 59.3013163
  longitude: 17.9570965

- location: Coop Lomma
  urn: urn:coop:store:id:3847
  city: Lomma
  latitude: 55.672891
  longitude: 13.0690371

- location: Coop Hötorget
  urn: urn:coop:store:id:3414
  city: Stockholm
  latitude: 59.3352334
  longitude: 18.0632203

- location: Coop Knutpunkten
  urn: urn:coop:store:id:3844
  city: Helsingborg
  latitude: 56.0449159
  longitude: 12.6946222

- location: Coop Renstiernas gata
  urn: urn:coop:store:id:3413
  city: Stockholm
  latitude: 59.3138631
  longitude: 18.0847789

- location: Coop Forserum
  urn: urn:coop:store:id:336
  city: Forserum
  latitude: 57.6996488
  longitude: 14.4748129

- location: Coop Lenhovda
  urn: urn:coop:store:id:1056
  city: Lenhovda
  latitude: 56.9943488
  longitude: 15.2875687

- location: Coop Gamletull Halmstad
  urn: urn:coop:store:id:3803
  city: Halmstad
  latitude: 56.675502
  longitude: 12.8665101

- location: Coop Eken Gävle
  urn: urn:coop:store:id:1355
  city: Gävle
  latitude: 60.6783325
  longitude: 17.1254552

- location: Coop Järna
  urn: urn:coop:store:id:26
  city: Järna
  latitude: 59.0929826
  longitude: 17.5639459

- location: Coop Malmön
  urn: urn:coop:store:id:1200
  city: Bohus-Malmön
  latitude: 58.3492343
  longitude: 11.339299

- location: Coop Enånger
  urn: urn:coop:store:id:608
  city: Enånger
  latitude: 61.5477984
  longitude: 17.0054584

- location: Coop Lima
  urn: urn:coop:store:id:594
  city: Lima
  latitude: 60.9032337
  longitude: 13.3828026

- location: Coop Sunnansjö
  urn: urn:coop:store:id:591
  city: Sunnansjö
  latitude: 60.2164815
  longitude: 14.957726

- location: Coop Nyhammar
  urn: urn:coop:store:id:590
  city: Nyhammar
  latitude: 60.2922035
  longitude: 14.9694161

- location: Coop Boda Kyrkby
  urn: urn:coop:store:id:588
  city: Boda Kyrkby
  latitude: 61.0117338
  longitude: 15.2122214

- location: Coop Djurås
  urn: urn:coop:store:id:581
  city: Djurås
  latitude: 60.56055
  longitude: 15.1304733

- location: Coop Fredriksberg
  urn: urn:coop:store:id:509
  city: Fredriksberg
  latitude: 60.1407215
  longitude: 14.3727367

- location: Coop Hällekis
  urn: urn:coop:store:id:480
  city: Hällekis
  latitude: 58.6288869
  longitude: 13.432545

- location: Coop Kyrkbytorget
  urn: urn:coop:store:id:461
  city: Göteborg
  latitude: 57.7114495
  longitude: 11.906827

- location: Coop Gastorp
  urn: urn:coop:store:id:453
  city: Lindome
  latitude: 57.5755719
  longitude: 12.0774758

- location: Coop Alingsås
  urn: urn:coop:store:id:3411
  city: Alingsås
  latitude: 57.9401318
  longitude: 12.5269249

- location: Coop Marstrand
  urn: urn:coop:store:id:451
  city: Marstrand
  latitude: 57.8873012
  longitude: 11.5886116

- location: Coop Mariagatan
  urn: urn:coop:store:id:448
  city: Göteborg
  latitude: 57.6854471
  longitude: 11.919055

- location: Coop Käringberget
  urn: urn:coop:store:id:444
  city: Västra Frölunda
  latitude: 57.6700121
  longitude: 11.8716288

- location: Coop Dr Bex gata
  urn: urn:coop:store:id:435
  city: Göteborg
  latitude: 57.6811283
  longitude: 11.9748201

- location: Coop Östanås
  urn: urn:coop:store:id:3777
  city: Köping
  latitude: 59.5197852
  longitude: 16.0045062

- location: Coop Karlfeldtsplatsen
  urn: urn:coop:store:id:3774
  city: Västerås
  latitude: 59.6305705
  longitude: 16.5462591

- location: Coop Rosta
  urn: urn:coop:store:id:3790
  city: Örebro
  latitude: 59.2700788
  longitude: 15.187737

- location: Coop Ladugårdsängen
  urn: urn:coop:store:id:3787
  city: Örebro
  latitude: 59.2513179
  longitude: 15.1955259

- location: Coop Österplan
  urn: urn:coop:store:id:3786
  city: Örebro
  latitude: 59.2658839
  longitude: 15.2342795

- location: Coop Anderstorp
  urn: urn:coop:store:id:3440
  city: Anderstorp
  latitude: 57.2751753
  longitude: 13.6272344

- location: Coop Atollen Jönköping
  urn: urn:coop:store:id:3441
  city: Jönköping
  latitude: 57.7804606
  longitude: 14.1732317

- location: Coop Baronen Kalmar
  urn: urn:coop:store:id:3442
  city: Kalmar
  latitude: 56.661011
  longitude: 16.3645151

- location: Coop Bergshamra
  urn: urn:coop:store:id:125
  city: Solna
  latitude: 59.3812288
  longitude: 18.0355123

- location: Coop Nytorgsgatan
  urn: urn:coop:store:id:137
  city: Stockholm
  latitude: 59.3143884
  longitude: 18.0819508

- location: Coop Storsjövägen
  urn: urn:coop:store:id:36
  city: Årsta
  latitude: 59.2993277
  longitude: 18.0426335

- location: Coop Söder
  urn: urn:coop:store:id:1171
  city: Varberg
  latitude: 57.0924621
  longitude: 12.2594618

- location: Coop Håstenshallen
  urn: urn:coop:store:id:1172
  city: Varberg
  latitude: 57.1120846
  longitude: 12.2777525

- location: Coop Vittangi
  urn: urn:coop:store:id:1579
  city: Vittangi
  latitude: 67.6773105
  longitude: 21.6451129

- location: Coop Svappavaara
  urn: urn:coop:store:id:1580
  city: Svappavaara
  latitude: 67.6475092
  longitude: 21.047789

- location: Coop Jukkasjärvi
  urn: urn:coop:store:id:1581
  city: Jukkasjärvi
  latitude: 67.8493648
  longitude: 20.6083599

- location: Coop Gällivare Luleåvägen
  urn: urn:coop:store:id:2798
  city: Gällivare
  latitude: 67.1349249
  longitude: 20.6794802

- location: Coop Vuollerim
  urn: urn:coop:store:id:1616
  city: Vuollerim
  latitude: 66.4304473
  longitude: 20.6044219

- location: Coop Gullänget
  urn: urn:coop:store:id:3455
  city: Örnsköldsvik
  latitude: 63.313941
  longitude: 18.7037903

- location: Coop Nynäshamn
  urn: urn:coop:store:id:17
  city: Nynäshamn
  latitude: 58.9035733
  longitude: 17.9461899

- location: Coop Zinken
  urn: urn:coop:store:id:86
  city: Stockholm
  latitude: 59.3175575
  longitude: 18.0509458

- location: Coop Gällivare Centrum
  urn: urn:coop:store:id:1553
  city: Gällivare
  latitude: 67.1345901
  longitude: 20.661571

- location: Coop Övertorneå
  urn: urn:coop:store:id:1557
  city: Övertorneå
  latitude: 66.3876615
  longitude: 23.6585706

- location: Coop Loet
  urn: urn:coop:store:id:2450
  city: Luleå
  latitude: 65.5850093
  longitude: 22.1584823

- location: Coop Munksund
  urn: urn:coop:store:id:1592
  city: Piteå
  latitude: 65.2849763
  longitude: 21.498041

- location: Coop Mjölkudden
  urn: urn:coop:store:id:1609
  city: Luleå
  latitude: 65.6009518
  longitude: 22.1310578

- location: Coop City Umeå
  urn: urn:coop:store:id:1433
  city: Umeå
  latitude: 63.826014
  longitude: 20.260801

- location: Coop Laholm
  urn: urn:coop:store:id:3771
  city: Laholm
  latitude: 56.5044647
  longitude: 13.0353865

- location: Coop Gröndal
  urn: urn:coop:store:id:9
  city: Stockholm
  latitude: 59.3160645
  longitude: 18.0116571

- location: Coop Högdalen
  urn: urn:coop:store:id:13
  city: Bandhagen
  latitude: 59.2638469
  longitude: 18.0400965

- location: Coop Bagarmossen
  urn: urn:coop:store:id:56
  city: Bagarmossen
  latitude: 59.2768386
  longitude: 18.1319955

- location: Coop Norra Parkgatan
  urn: urn:coop:store:id:3816
  city: Malmö
  latitude: 55.5955328
  longitude: 13.0128259

- location: Coop Farsta
  urn: urn:coop:store:id:32
  city: Farsta
  latitude: 59.2429485
  longitude: 18.0914029

- location: Coop Norrahammar
  urn: urn:coop:store:id:1046
  city: Norrahammar
  latitude: 57.704672
  longitude: 14.1181971

- location: Coop Hovslätt
  urn: urn:coop:store:id:1047
  city: Jönköping
  latitude: 57.7293256
  longitude: 14.1183583

- location: Coop Taberg
  urn: urn:coop:store:id:1050
  city: Taberg
  latitude: 57.6786791
  longitude: 14.088593

- location: Coop Bergnäset
  urn: urn:coop:store:id:1567
  city: Luleå
  latitude: 65.5740394
  longitude: 22.1065963

- location: Coop Jokkmokk
  urn: urn:coop:store:id:1573
  city: Jokkmokk
  latitude: 66.6063965
  longitude: 19.8275998

- location: Coop Örkelljunga
  urn: urn:coop:store:id:3821
  city: Örkelljunga
  latitude: 56.2825491
  longitude: 13.2787912

- location: Coop Trehörningsjö
  urn: urn:coop:store:id:622
  city: Trehörningsjö
  latitude: 63.693764
  longitude: 18.8658578

- location: Coop Tanumshede
  urn: urn:coop:store:id:3429
  city: Tanumshede
  latitude: 58.7229582
  longitude: 11.3469546

- location: Coop Grisbacka
  urn: urn:coop:store:id:1474
  city: Umeå
  latitude: 63.8334601
  longitude: 20.2170611

- location: Coop Haga Sundsvall
  urn: urn:coop:store:id:1528
  city: Sundsvall
  latitude: 62.4011285
  longitude: 17.3293469

- location: Coop Medborgarplatsen
  urn: urn:coop:store:id:2305
  city: Stockholm
  latitude: 59.3149455
  longitude: 18.0700784

- location: Coop Sundborn
  urn: urn:coop:store:id:3463
  city: Sundborn
  latitude: 60.6531964
  longitude: 15.7739741

- location: Coop Strömstad
  urn: urn:coop:store:id:1180
  city: Strömstad
  latitude: 58.9398268
  longitude: 11.174949

- location: Coop Öster
  urn: urn:coop:store:id:3088
  city: Visby
  latitude: 57.6377247
  longitude: 18.3014424

- location: Coop Funäsdalen
  urn: urn:coop:store:id:634
  city: Funäsdalen
  latitude: 62.5494796
  longitude: 12.5299935

- location: Coop  City Västerås
  urn: urn:coop:store:id:3773
  city: Västerås
  latitude: 59.6116701
  longitude: 16.543948

- location: Coop Holmsund
  urn: urn:coop:store:id:1452
  city: Holmsund
  latitude: 63.7084284
  longitude: 20.3647911

- location: Coop Mönsterås
  urn: urn:coop:store:id:913
  city: Mönsterås
  latitude: 57.0416905
  longitude: 16.4438323

- location: Coop Hultsfred
  urn: urn:coop:store:id:1070
  city: Hultsfred
  latitude: 57.4881952
  longitude: 15.842412

- location: Coop Blomstermåla
  urn: urn:coop:store:id:1088
  city: Blomstermåla
  latitude: 56.9821356
  longitude: 16.333703

- location: Coop Målilla
  urn: urn:coop:store:id:1091
  city: Målilla
  latitude: 57.3878128
  longitude: 15.8064795

- location: Coop Höllviken
  urn: urn:coop:store:id:3826
  city: Höllviken
  latitude: 55.4175463
  longitude: 12.9519826

- location: Coop Klostergården
  urn: urn:coop:store:id:3820
  city: Lund
  latitude: 55.6930364
  longitude: 13.1792071

- location: Coop Kopparmöllegatan
  urn: urn:coop:store:id:3843
  city: Helsingborg
  latitude: 56.0509173
  longitude: 12.6991967

- location: Coop Stenbocksgatan
  urn: urn:coop:store:id:3846
  city: Helsingborg
  latitude: 56.0409272
  longitude: 12.7114462

- location: Coop Höör
  urn: urn:coop:store:id:1141
  city: Höör
  latitude: 55.9342574
  longitude: 13.5395277

- location: Coop Krokek
  urn: urn:coop:store:id:255
  city: Kolmården
  latitude: 58.6748743
  longitude: 16.3642112

- location: Coop Smålandsstenar
  urn: urn:coop:store:id:3223
  city: Smålandsstenar
  latitude: 57.1643282
  longitude: 13.4139038

- location: Coop Leksand
  urn: urn:coop:store:id:563
  city: Leksand
  latitude: 60.7314938
  longitude: 14.9982954

- location: Coop Storfors
  urn: urn:coop:store:id:1245
  city: Storfors
  latitude: 59.5311543
  longitude: 14.2726311

- location: Coop Vallentuna
  urn: urn:coop:store:id:185
  city: Vallentuna
  latitude: 59.5345361
  longitude: 18.0789588

- location: Coop Skattkärr
  urn: urn:coop:store:id:1264
  city: Skattkärr
  latitude: 59.4136053
  longitude: 13.6740646

- location: Coop Nättraby
  urn: urn:coop:store:id:1106
  city: Nã?Ttraby
  latitude: 56.2061442
  longitude: 15.5278905

- location: Coop Vällingby Centrum
  urn: urn:coop:store:id:2200
  city: Vällingby
  latitude: 59.3633511
  longitude: 17.8730191

- location: Coop Triangeln Eskilstuna
  urn: urn:coop:store:id:537
  city: Eskilstuna
  latitude: 59.3591913
  longitude: 16.518172

- location: Coop Ängelholm
  urn: urn:coop:store:id:3842
  city: Ängelholm
  latitude: 56.2379616
  longitude: 12.8757916

- location: Coop Risängen
  urn: urn:coop:store:id:254
  city: Norrköping
  latitude: 58.580612
  longitude: 16.2207866

- location: Coop Mölnlycke
  urn: urn:coop:store:id:429
  city: Mölnlycke
  latitude: 57.6584739
  longitude: 12.1156087

- location: Coop Kista
  urn: urn:coop:store:id:16
  city: Kista
  latitude: 59.4022624
  longitude: 17.943558

- location: Coop Skeppet
  urn: urn:coop:store:id:2800
  city: Lidingö
  latitude: 59.3662584
  longitude: 18.1347367

- location: Coop Torsvik
  urn: urn:coop:store:id:2802
  city: Lidingö
  latitude: 59.3629945
  longitude: 18.1233778

- location: Coop Mårtenstorget
  urn: urn:coop:store:id:3813
  city: Lund
  latitude: 55.7016554
  longitude: 13.1974197

- location: Coop Djupadal
  urn: urn:coop:store:id:3831
  city: Limhamn
  latitude: 55.5735614
  longitude: 12.96162

- location: Coop Lägerhyddan
  urn: urn:coop:store:id:240
  city: Linköping
  latitude: 58.4018088
  longitude: 15.6098519

- location: Coop Hemmesta
  urn: urn:coop:store:id:168
  city: Värmdö
  latitude: 59.3224823
  longitude: 18.4881382

- location: Coop Västra Skogen
  urn: urn:coop:store:id:93
  city: Solna
  latitude: 59.3478629
  longitude: 18.0036095

- location: Coop Vä
  urn: urn:coop:store:id:1116
  city: Kristianstad
  latitude: 56.0018074
  longitude: 14.0958687

- location: Coop Kallhäll
  urn: urn:coop:store:id:186
  city: Järfälla
  latitude: 59.45379
  longitude: 17.8072854

- location: Coop Sveg
  urn: urn:coop:store:id:633
  city: Sveg
  latitude: 62.0349881
  longitude: 14.3659527

- location: Coop Vindeln
  urn: urn:coop:store:id:1455
  city: Vindeln
  latitude: 64.1994717
  longitude: 19.7176086

- location: Coop Vilhelmina
  urn: urn:coop:store:id:920
  city: Vilhelmina
  latitude: 64.6240465
  longitude: 16.6575711

- location: Coop Bräcke
  urn: urn:coop:store:id:1401
  city: Bräcke
  latitude: 62.7495405
  longitude: 15.4198119

- location: Coop Överkalix
  urn: urn:coop:store:id:1556
  city: Överkalix
  latitude: 66.3251254
  longitude: 22.8455698

- location: Coop Ystad
  urn: urn:coop:store:id:3822
  city: Ystad
  latitude: 55.431978
  longitude: 13.7996616

- location: Coop Rådhuset
  urn: urn:coop:store:id:72
  city: Stockholm
  latitude: 59.3315813
  longitude: 18.0448413

- location: Coop Örnsberg
  urn: urn:coop:store:id:60
  city: Hägersten
  latitude: 59.3058315
  longitude: 17.9895702

- location: Coop Stationsgallerian
  urn: urn:coop:store:id:2821
  city: Uppsala
  latitude: 59.858329
  longitude: 17.6491809

- location: Coop Sjöbo
  urn: urn:coop:store:id:3817
  city: Sjöbo
  latitude: 55.6363984
  longitude: 13.6806822

- location: Coop Sveaplan Eskilstuna
  urn: urn:coop:store:id:519
  city: Eskilstuna
  latitude: 59.366084
  longitude: 16.5233636

- location: Coop Dragonen
  urn: urn:coop:store:id:3812
  city: Ystad
  latitude: 55.4295502
  longitude: 13.8210028

- location: Coop Råsundavägen
  urn: urn:coop:store:id:41
  city: Solna
  latitude: 59.3647354
  longitude: 17.9816738

- location: Coop Stenhamra
  urn: urn:coop:store:id:968
  city: Stenhamra
  latitude: 59.3355585
  longitude: 17.6863366

- location: Coop Öregrund
  urn: urn:coop:store:id:205
  city: Öregrund
  latitude: 60.3369
  longitude: 18.4400812

- location: Coop Åby
  urn: urn:coop:store:id:233
  city: Åby
  latitude: 58.6649865
  longitude: 16.1818781

- location: Coop Åhus
  urn: urn:coop:store:id:1103
  city: Åhus
  latitude: 55.9265922
  longitude: 14.3007768

- location: Coop Hyltebruk
  urn: urn:coop:store:id:1045
  city: Hyltebruk
  latitude: 56.9985141
  longitude: 13.2399398

- location: Coop Brommaplan
  urn: urn:coop:store:id:52
  city: Bromma
  latitude: 59.3387392
  longitude: 17.9398637

- location: Coop Sala
  urn: urn:coop:store:id:1771
  city: Sala
  latitude: 59.9198762
  longitude: 16.6136559

- location: Coop Svampen
  urn: urn:coop:store:id:3791
  city: Örebro
  latitude: 59.2858698
  longitude: 15.2309967

- location: Coop Karolingatan
  urn: urn:coop:store:id:3838
  city: Malmö
  latitude: 55.5821074
  longitude: 13.0649078

- location: Coop Kirseberg
  urn: urn:coop:store:id:3834
  city: Malmö
  latitude: 55.6088048
  longitude: 13.0361855

- location: Coop Norra Djurgårdsstaden
  urn: urn:coop:store:id:3484
  city: Stockholm
  latitude: 59.3586168
  longitude: 18.091068

- location: Coop Saluhallen
  urn: urn:coop:store:id:235
  city: Norrköping
  latitude: 58.5913237
  longitude: 16.1915089

- location: Coop Västervik
  urn: urn:coop:store:id:1065
  city: Västervik
  latitude: 57.7601961
  longitude: 16.6164314

- location: Coop Röbäck
  urn: urn:coop:store:id:3486
  city: Röbäck
  latitude: 63.8091512
  longitude: 20.186676

- location: Coop Sibbhult
  urn: urn:coop:store:id:1108
  city: Sibbhult
  latitude: 56.2668568
  longitude: 14.2017944

- location: Coop Malmköping
  urn: urn:coop:store:id:531
  city: Malmköping
  latitude: 59.1322609
  longitude: 16.7319289

- location: Coop Föraregatan
  urn: urn:coop:store:id:1576
  city: Kiruna
  latitude: 67.865103
  longitude: 20.2249498

- location: Coop Vadstena
  urn: urn:coop:store:id:237
  city: Vadstena
  latitude: 58.4470721
  longitude: 14.8881255

- location: Coop Fjugesta
  urn: urn:coop:store:id:3794
  city: Fjugesta
  latitude: 59.1743863
  longitude: 14.8736337

- location: Coop Mariefred
  urn: urn:coop:store:id:545
  city: Mariefred
  latitude: 59.262299
  longitude: 17.2210396

- location: Coop Skurup
  urn: urn:coop:store:id:3814
  city: Skurup
  latitude: 55.4775375
  longitude: 13.4994482

- location: Coop Träkvista
  urn: urn:coop:store:id:109
  city: Ekerö
  latitude: 59.2754346
  longitude: 17.7839847

- location: Coop Genarp
  urn: urn:coop:store:id:3841
  city: Genarp
  latitude: 55.5986022
  longitude: 13.4029765

- location: Coop Bulltofta
  urn: urn:coop:store:id:3815
  city: Malmö
  latitude: 55.5961974
  longitude: 13.0629251

- location: Coop Lappgatan
  urn: urn:coop:store:id:1577
  city: Kiruna
  latitude: 67.8559939
  longitude: 20.2421541

- location: Coop Midsommarkransen
  urn: urn:coop:store:id:8
  city: Hägersten
  latitude: 59.3016536
  longitude: 18.0126203

- location: Coop Vaxholm
  urn: urn:coop:store:id:23
  city: Vaxholm
  latitude: 59.4029945
  longitude: 18.3507216

- location: Coop Tyresö Strand
  urn: urn:coop:store:id:2267
  city: Tyresö
  latitude: 59.2416787
  longitude: 18.2843455

- location: Coop Trosa
  urn: urn:coop:store:id:234
  city: Trosa
  latitude: 58.8964341
  longitude: 17.5492372

- location: Coop Rimbo
  urn: urn:coop:store:id:200
  city: Rimbo
  latitude: 59.7433254
  longitude: 18.3670924

- location: Coop Gustavsberg
  urn: urn:coop:store:id:1931
  city: Gustavsberg
  latitude: 59.3274926
  longitude: 18.3922591

- location: Coop Hörby
  urn: urn:coop:store:id:1115
  city: Hörby
  latitude: 55.8559705
  longitude: 13.6638669

- location: Coop Kungsängen
  urn: urn:coop:store:id:181
  city: Kungsängen
  latitude: 59.4783164
  longitude: 17.750459

- location: Coop Ånäset
  urn: urn:coop:store:id:3492
  city: Ånäset
  latitude: 64.2781573
  longitude: 21.0410206

- location: Coop Bondegatan
  urn: urn:coop:store:id:76
  city: Stockholm
  latitude: 59.313507
  longitude: 18.0927999

- location: Coop Vålberg
  urn: urn:coop:store:id:1252
  city: Vålberg
  latitude: 59.3959605
  longitude: 13.1935992

- location: Coop Osby
  urn: urn:coop:store:id:1100
  city: Osby
  latitude: 56.3832157
  longitude: 13.9947314

- location: Coop City Östersund
  urn: urn:coop:store:id:1968
  city: Östersund
  latitude: 63.1758078
  longitude: 14.6386874

- location: Coop Munkfors
  urn: urn:coop:store:id:1235
  city: Munkfors
  latitude: 59.8300908
  longitude: 13.5389763

- location: Coop Öjebyn
  urn: urn:coop:store:id:1563
  city: Öjebyn
  latitude: 65.3420673
  longitude: 21.3948321

- location: Coop Djursholm
  urn: urn:coop:store:id:106
  city: Djursholm
  latitude: 59.3976807
  longitude: 18.0863727

- location: Coop Rosvik
  urn: urn:coop:store:id:1566
  city: Rosvik
  latitude: 65.4310375
  longitude: 21.6905349

- location: Coop Odengatan
  urn: urn:coop:store:id:80
  city: Stockholm
  latitude: 59.3451345
  longitude: 18.060836

- location: Coop Hammarby Sjöstad
  urn: urn:coop:store:id:1906
  city: Stockholm
  latitude: 59.3024828
  longitude: 18.1028238

- location: Coop Östra Torget Torshälla
  urn: urn:coop:store:id:517
  city: Torshälla
  latitude: 59.4206558
  longitude: 16.4756718

- location: Coop Stjärnan Västerås
  urn: urn:coop:store:id:3776
  city: Västerås
  latitude: 59.6229038
  longitude: 16.6015912

- location: Coop Kärrtorp
  urn: urn:coop:store:id:11
  city: Johanneshov
  latitude: 59.2839605
  longitude: 18.1137905

- location: Coop Finn Malmgren
  urn: urn:coop:store:id:55
  city: Johanneshov
  latitude: 59.2954254
  longitude: 18.101242

- location: Coop Teg
  urn: urn:coop:store:id:1471
  city: Umeå
  latitude: 63.8201373
  longitude: 20.2531983

- location: Coop Älta Gård
  urn: urn:coop:store:id:66
  city: Älta
  latitude: 59.2614048
  longitude: 18.183507

- location: Coop Granlo
  urn: urn:coop:store:id:3493
  city: Sundsvall
  latitude: 62.4016368
  longitude: 17.2650755

- location: Coop Storgatan
  urn: urn:coop:store:id:79
  city: Stockholm
  latitude: 59.3346669
  longitude: 18.0859614

- location: Coop Erik Dahlbergsgatan
  urn: urn:coop:store:id:61
  city: Stockholm
  latitude: 59.3422979
  longitude: 18.091202

- location: Coop Garnisonen
  urn: urn:coop:store:id:62
  city: Stockholm
  latitude: 59.3359785
  longitude: 18.097193

- location: Coop Katrineholm
  urn: urn:coop:store:id:512
  city: Katrineholm
  latitude: 58.9947738
  longitude: 16.2100435

- location: Coop Liljeholmen
  urn: urn:coop:store:id:1919
  city: Stockholm
  latitude: 59.3106086
  longitude: 18.023598

- location: Coop Folkparken
  urn: urn:coop:store:id:2705
  city: Södertälje
  latitude: 59.193736
  longitude: 17.6430092

- location: Coop Södra Station
  urn: urn:coop:store:id:40
  city: Stockholm
  latitude: 59.3140534
  longitude: 18.0650832

- location: Coop Rönninge
  urn: urn:coop:store:id:165
  city: Rönninge
  latitude: 59.1938311
  longitude: 17.7476741

- location: Coop Norrtull
  urn: urn:coop:store:id:2801
  city: Stockholm
  latitude: 59.3466023
  longitude: 18.047061

- location: Coop Lambohov
  urn: urn:coop:store:id:238
  city: Linköping
  latitude: 58.3882395
  longitude: 15.5655791

- location: Coop Oxie
  urn: urn:coop:store:id:3819
  city: Oxie
  latitude: 55.5396904
  longitude: 13.0953706

- location: Coop Kungsör
  urn: urn:coop:store:id:3770
  city: Kungsör
  latitude: 59.4235566
  longitude: 16.0966719

- location: Coop Sommarlust
  urn: urn:coop:store:id:1105
  city: Kristianstad
  latitude: 56.0415719
  longitude: 14.1644606

- location: Coop Skarpnäck
  urn: urn:coop:store:id:42
  city: Skarpnäck
  latitude: 59.2659905
  longitude: 18.1350095

- location: Coop Arvidsjaur
  urn: urn:coop:store:id:1561
  city: Arvidsjaur
  latitude: 65.5923297
  longitude: 19.1777454

- location: Coop Nora
  urn: urn:coop:store:id:3789
  city: Nora
  latitude: 59.519038
  longitude: 15.0369637

- location: Coop Vingåker
  urn: urn:coop:store:id:524
  city: Vingåker
  latitude: 59.0450288
  longitude: 15.8725683

- location: Coop Engströms Livs
  urn: urn:coop:store:id:2274
  city: Bromma
  latitude: 59.3287903
  longitude: 17.928837

- location: Coop Gubbängen
  urn: urn:coop:store:id:69
  city: Enskede
  latitude: 59.2623007
  longitude: 18.083193

- location: Coop Grindsgatan
  urn: urn:coop:store:id:131
  city: Stockholm
  latitude: 59.309315
  longitude: 18.0669818

- location: Coop Brunne
  urn: urn:coop:store:id:3500
  city: Härnösand
  latitude: 62.6541903
  longitude: 17.6340401

- location: Coop Tullporten
  urn: urn:coop:store:id:3501
  city: Härnösand
  latitude: 62.6279447
  longitude: 17.9242411

- location: Coop Mariehem
  urn: urn:coop:store:id:3502
  city: Umeå
  latitude: 63.8340221
  longitude: 20.3272436

- location: Coop Gunnarn
  urn: urn:coop:store:id:1479
  city: Gunnarn
  latitude: 65.006407
  longitude: 17.6779216

- location: Coop City Karlstad
  urn: urn:coop:store:id:1226
  city: Karlstad
  latitude: 59.3801146
  longitude: 13.4995588

- location: Coop Dalsjöfors
  urn: urn:coop:store:id:1222
  city: Dalsjöfors
  latitude: 57.7225135
  longitude: 13.1059988

- location: Coop Dikanäs
  urn: urn:coop:store:id:1508
  city: Dikanäs
  latitude: 65.2354918
  longitude: 15.9934685

- location: Coop Skorped
  urn: urn:coop:store:id:625
  city: Skorped
  latitude: 36.7579087
  longitude: 83.7450357

- location: Coop Kvarnholmen
  urn: urn:coop:store:id:3505
  city: Nacka
  latitude: 59.3165369
  longitude: 18.139187

- location: Coop Falkenberg
  urn: urn:coop:store:id:3806
  city: Falkenberg
  latitude: 56.8982461
  longitude: 12.4915917

- location: Coop Minneberg
  urn: urn:coop:store:id:57
  city: Bromma
  latitude: 59.3392918
  longitude: 17.9894503

- location: Coop Haningeterrassen
  urn: urn:coop:store:id:3520
  city: Handen
  latitude: 59.1675024
  longitude: 18.1371231

- location: Coop Alsike
  urn: urn:coop:store:id:3521
  city: Knivsta
  latitude: 59.7589384
  longitude: 17.7750052

- location: Coop Ullånger
  urn: urn:coop:store:id:3525
  city: Ullånger
  latitude: 63.0095196
  longitude: 18.1865489

- location: Coop Kongahälla
  urn: urn:coop:store:id:3531
  city: Kungälv
  latitude: 57.8726546
  longitude: 11.9684377

- location: Coop Partille
  urn: urn:coop:store:id:3533
  city: Partille
  latitude: 57.7406385
  longitude: 12.1217006

- location: Coop Grand Central
  urn: urn:coop:store:id:3534
  city: Sundbyberg
  latitude: 59.3611566
  longitude: 17.9717178

- location: Coop Varvet
  urn: urn:coop:store:id:3536
  city: Luleå
  latitude: 65.5795765
  longitude: 22.1392032

- location: Coop Limhamn
  urn: urn:coop:store:id:3830
  city: Limhamn
  latitude: 55.5873373
  longitude: 12.9270188

- location: Coop Norra Ringen
  urn: urn:coop:store:id:3545
  city: Piteå
  latitude: 65.3298624
  longitude: 21.4638007

- location: Coop Slättenvägen
  urn: urn:coop:store:id:3807
  city: Falkenberg
  latitude: 56.8974919
  longitude: 12.5259778

- location: Coop Mellerud
  urn: urn:coop:store:id:3550
  city: Mellerud
  latitude: 58.6996671
  longitude: 12.4519201

- location: Coop Skövde Henriksbergsgatan
  urn: urn:coop:store:id:3743
  city: Skövde
  latitude: 58.3867518
  longitude: 13.8599375

- location: Coop Hjo
  urn: urn:coop:store:id:3557
  city: Hjo
  latitude: 58.3125834
  longitude: 14.2799524

- location: Coop Lidköping Råda Mossevägen
  urn: urn:coop:store:id:3745
  city: Lidköping
  latitude: 58.5030992
  longitude: 13.1236235

- location: Coop Borås Byttorp
  urn: urn:coop:store:id:3567
  city: Borås
  latitude: 57.7284451
  longitude: 12.9110467

- location: Coop Mölndal Åby Katrinebergsgatan
  urn: urn:coop:store:id:3573
  city: Mölndal
  latitude: 57.6492942
  longitude: 12.0141208

- location: Coop Skånegatan
  urn: urn:coop:store:id:3574
  city: Göteborg
  latitude: 57.700222
  longitude: 11.9853582

- location: Coop Göteborg Mölndalsvägen
  urn: urn:coop:store:id:3580
  city: Göteborg
  latitude: 57.6909761
  longitude: 11.9922739

- location: Coop Kågeröd
  urn: urn:coop:store:id:3616
  city: Kågeröd
  latitude: 55.9990018
  longitude: 13.0867741

- location: Coop Linden Motala
  urn: urn:coop:store:id:3617
  city: Motala
  latitude: 58.5366808
  longitude: 15.0456489

- location: Coop Domino
  urn: urn:coop:store:id:3874
  city: Norrköping
  latitude: 58.5886255
  longitude: 16.1901381

- location: Coop Stockholmsvägen
  urn: urn:coop:store:id:3871
  city: Norrköping
  latitude: 58.60064
  longitude: 16.1676172

- location: Coop Ullstämma
  urn: urn:coop:store:id:3868
  city: Linköping
  latitude: 58.3732294
  longitude: 15.6698742

- location: Coop Drottninggatan Linköping
  urn: urn:coop:store:id:3867
  city: Linköping
  latitude: 58.4089964
  longitude: 15.6257039

- location: Coop Svedala
  urn: urn:coop:store:id:3632
  city: Svedala
  latitude: 55.5080026
  longitude: 13.2436565

- location: Coop Bangatan Västerås
  urn: urn:coop:store:id:3781
  city: Västerås
  latitude: 59.6280918
  longitude: 16.5668698

- location: Coop Viksängsgatan Västerås
  urn: urn:coop:store:id:3782
  city: Västerås
  latitude: 59.6067249
  longitude: 16.5871809

- location: Coop Eskilstunavägen Torshälla
  urn: urn:coop:store:id:3877
  city: Torshälla
  latitude: 59.4105294
  longitude: 16.4758066

- location: Coop Köping
  urn: urn:coop:store:id:3779
  city: Köping
  latitude: 59.5098728
  longitude: 15.9940814

- location: Coop Laxå
  urn: urn:coop:store:id:3796
  city: Laxå
  latitude: 58.9818899
  longitude: 14.6228814

- location: Coop Mjölby
  urn: urn:coop:store:id:3862
  city: Mjölby
  latitude: 58.3174357
  longitude: 15.1155931

- location: Coop Björna
  urn: urn:coop:store:id:3649
  city: Björna
  latitude: 63.5518324
  longitude: 18.5982797

- location: Coop Staffanstorp
  urn: urn:coop:store:id:3652
  city: Staffanstorp
  latitude: 55.6406365
  longitude: 13.1961255

- location: Coop Västra Hamnen
  urn: urn:coop:store:id:3653
  city: Malmö
  latitude: 55.615653
  longitude: 12.9838477

- location: Coop Vildgåsen Lund
  urn: urn:coop:store:id:3656
  city: Lund
  latitude: 55.711175
  longitude: 13.1686153

- location: Coop Bjärred
  urn: urn:coop:store:id:3657
  city: Bjärred
  latitude: 55.717814
  longitude: 13.0292339

- location: Coop Skansvägen Lund
  urn: urn:coop:store:id:3658
  city: Lund
  latitude: 55.7288952
  longitude: 13.1964304

- location: Coop Bintjevägen
  urn: urn:coop:store:id:3664
  city: Kävlinge
  latitude: 55.7885199
  longitude: 13.1057721

- location: Coop Jönköping Anders Blomstrands Väg
  urn: urn:coop:store:id:3688
  city: Jönköping
  latitude: 57.8010929
  longitude: 14.1486662

- location: Coop Borgholm
  urn: urn:coop:store:id:3698
  city: Borgholm
  latitude: 56.8781933
  longitude: 16.6611919

- location: Coop Färjestaden Brofästet
  urn: urn:coop:store:id:3699
  city: Färjestaden
  latitude: 56.6646594
  longitude: 16.4884832

- location: Coop Hagastaden
  urn: urn:coop:store:id:3706
  city: Stockholm
  latitude: 59.3481464
  longitude: 18.0371405

- location: Coop Kök och Café
  urn: urn:coop:store:id:3709
  city: Karlstad
  latitude: 59.3800324
  longitude: 13.4999868

- location: Coop Liljegatan
  urn: urn:coop:store:id:3720
  city: Uppsala
  latitude: 59.8589152
  longitude: 17.6573171

- location: Coop Tullhuset
  urn: urn:coop:store:id:3721
  city: Gävle
  latitude: 60.6777832
  longitude: 17.1589385

- location: Coop Stationsstaden
  urn: urn:coop:store:id:3827
  city: Kävlinge
  latitude: 55.797164
  longitude: 13.1152064

- location: Coop Odinsgatan
  urn: urn:coop:store:id:3725
  city: Göteborg
  latitude: 57.708919
  longitude: 11.9793196

- location: Coop Gamla Riksvägen
  urn: urn:coop:store:id:3718
  city: Kållered
  latitude: 57.6103014
  longitude: 12.0503051

- location: Coop Bålsta
  urn: urn:coop:store:id:3751
  city: Bålsta
  latitude: 59.5662949
  longitude: 17.5289716

- location: Coop Gallerian
  urn: urn:coop:store:id:3804
  city: Falkenberg
  latitude: 56.9063055
  longitude: 12.4915504

- location: Coop Sätrahöjden
  urn: urn:coop:store:id:3756
  city: Gävle
  latitude: 60.6880471
  longitude: 17.1270062

- location: Coop Flygaregatan
  urn: urn:coop:store:id:3809
  city: Halmstad
  latitude: 56.6692774
  longitude: 12.8423535

- location: Coop Ankarsrum
  urn: urn:coop:store:id:3762
  city: Ankarsrum
  latitude: 57.6985911
  longitude: 16.3362915

- location: Coop Borstahusen
  urn: urn:coop:store:id:3828
  city: Landskrona
  latitude: 55.900839
  longitude: 12.8223311

- location: Coop Kolla Parkstad
  urn: urn:coop:store:id:3765
  city: Kungsbacka
  latitude: 57.4771477
  longitude: 12.0594097

- location: Coop City Örnsköldsvik
  urn: urn:coop:store:id:3768
  city: Örnsköldsvik
  latitude: 63.2891319
  longitude: 18.7149217

- location: Stora Coop Ronneby
  urn: urn:coop:store:id:3884
  city: Ronneby
  latitude: 56.2168532
  longitude: 15.2698937

- location: Coop Kallkällan
  urn: urn:coop:store:id:3885
  city: Luleå
  latitude: 65.6010063
  longitude: 22.1523657

- location: Coop Kittelfjäll
  urn: urn:coop:store:id:3887
  city: Kittelfjäll
  latitude: 65.2538812
  longitude: 15.4875793

- location: Coop Strömlida
  urn: urn:coop:store:id:3888
  city: Piteå
  latitude: 65.3153346
  longitude: 21.5006559

- location: X:-TRA Vänersborg
  urn: urn:coop:store:id:3750
  city: Vänersborg
  latitude: 58.3647996
  longitude: 12.3430227
