meta:
  name: Coop
  web: null
  wikipedia: https://sv.wikipedia.org/wiki/Coop_Sverige
  category: Dagligvarukedjor
  locations: 811

locations:
- location: Coop Strömstad
  urn: urn:coop:store:id:1180
  city: Strömstad
  latitude: 58.939827
  longitude: 11.174949

- location: Coop Grebbestad
  urn: urn:coop:store:id:1198
  city: Grebbestad
  latitude: 58.692021
  longitude: 11.254793

- location: Coop Kungshamn
  urn: urn:coop:store:id:1189
  city: Kungshamn
  latitude: 58.361462
  longitude: 11.265867

- location: Coop Fjällbacka
  urn: urn:coop:store:id:1210
  city: Fjällbacka
  latitude: 58.597934
  longitude: 11.28935

- location: Coop Hunnebostrand
  urn: urn:coop:store:id:1194
  city: Hunnebostrand
  latitude: 58.442073
  longitude: 11.30101

- location: Coop Malmön
  urn: urn:coop:store:id:1200
  city: Bohus-Malmön
  latitude: 58.349234
  longitude: 11.339299

- location: Coop Tanumshede
  urn: urn:coop:store:id:3429
  city: Tanumshede
  latitude: 58.722958
  longitude: 11.346955

- location: Coop Rosviksgatan
  urn: urn:coop:store:id:1185
  city: Lysekil
  latitude: 58.273591
  longitude: 11.435886

- location: Coop Lysekil
  urn: urn:coop:store:id:2750
  city: Lysekil
  latitude: 58.282432
  longitude: 11.463127

- location: Coop Brastad
  urn: urn:coop:store:id:1196
  city: Brastad
  latitude: 58.381175
  longitude: 11.485462

- location: Coop Marstrand
  urn: urn:coop:store:id:451
  city: Marstrand
  latitude: 57.887301
  longitude: 11.588612

- location: Coop Källö-Knippla
  urn: urn:coop:store:id:1201
  city: Källö-Knippla
  latitude: 57.749594
  longitude: 11.65158

- location: Coop Munkedal
  urn: urn:coop:store:id:1203
  city: Munkedal
  latitude: 58.46689
  longitude: 11.673716

- location: Coop Styrsö
  urn: urn:coop:store:id:1207
  city: Styrsö
  latitude: 57.615673
  longitude: 11.781622

- location: Stora Coop Torp
  urn: urn:coop:store:id:3594
  city: Uddevalla
  latitude: 58.3546
  longitude: 11.813177

- location: Coop Stenungsund
  urn: urn:coop:store:id:423
  city: Stenungsund
  latitude: 58.068378
  longitude: 11.817071

- location: Coop Käringberget
  urn: urn:coop:store:id:444
  city: Västra Frölunda
  latitude: 57.670012
  longitude: 11.871629

- location: X:-TRA Hisingen
  urn: urn:coop:store:id:3577
  city: Göteborg
  latitude: 57.732948
  longitude: 11.896613

- location: Coop Kyrkbytorget
  urn: urn:coop:store:id:461
  city: Göteborg
  latitude: 57.71145
  longitude: 11.906827

- location: Coop Skogslyckan
  urn: urn:coop:store:id:1190
  city: Uddevalla
  latitude: 58.361115
  longitude: 11.914588

- location: Coop Mariagatan
  urn: urn:coop:store:id:448
  city: Göteborg
  latitude: 57.685447
  longitude: 11.919055

- location: Coop Eriksberg
  urn: urn:coop:store:id:1888
  city: Göteborg
  latitude: 57.708762
  longitude: 11.919676

- location: X:-TRA Ljungskile
  urn: urn:coop:store:id:1202
  city: Ljungskile
  latitude: 58.224245
  longitude: 11.91979

- location: Coop Uddevalla Göteborgsvägen
  urn: urn:coop:store:id:3571
  city: Uddevalla
  latitude: 58.346069
  longitude: 11.930809

- location: Coop Ed
  urn: urn:coop:store:id:1216
  city: Ed
  latitude: 58.912258
  longitude: 11.935083

- location: Coop Lundby
  urn: urn:coop:store:id:421
  city: Göteborg
  latitude: 57.721485
  longitude: 11.935091

- location: Coop Göteborg Marklandsgatan
  urn: urn:coop:store:id:3575
  city: Göteborg
  latitude: 57.669486
  longitude: 11.93665

- location: Coop Göteborg Andra Långgatan
  urn: urn:coop:store:id:3724
  city: Göteborg
  latitude: 57.698756
  longitude: 11.945964

- location: Stora Coop Sisjön
  urn: urn:coop:store:id:1938
  city: Askim
  latitude: 57.643057
  longitude: 11.949992

- location: Stora Coop Backaplan
  urn: urn:coop:store:id:656
  city: Göteborg
  latitude: 57.723155
  longitude: 11.954751

- location: Coop Kongahälla
  urn: urn:coop:store:id:3531
  city: Kungälv
  latitude: 57.872655
  longitude: 11.968438

- location: Coop Landala
  urn: urn:coop:store:id:434
  city: Göteborg
  latitude: 57.693267
  longitude: 11.97117

- location: Coop Dr Bex gata
  urn: urn:coop:store:id:435
  city: Göteborg
  latitude: 57.681128
  longitude: 11.97482

- location: Coop Hisings Backa Backa Kyrkogata
  urn: urn:coop:store:id:3710
  city: Hisings Backa
  latitude: 57.742922
  longitude: 11.975874

- location: Coop Avenyn
  urn: urn:coop:store:id:430
  city: Göteborg
  latitude: 57.69939
  longitude: 11.976868

- location: Coop Odinsgatan
  urn: urn:coop:store:id:3725
  city: Göteborg
  latitude: 57.708919
  longitude: 11.97932

- location: Coop Skånegatan
  urn: urn:coop:store:id:3574
  city: Göteborg
  latitude: 57.700222
  longitude: 11.985358

- location: Coop Friggagatan
  urn: urn:coop:store:id:2704
  city: Göteborg
  latitude: 57.71067
  longitude: 11.986406

- location: Coop Göteborg Mölndalsvägen
  urn: urn:coop:store:id:3580
  city: Göteborg
  latitude: 57.690976
  longitude: 11.992274

- location: Coop Färgelanda
  urn: urn:coop:store:id:1192
  city: Färgelanda
  latitude: 58.567348
  longitude: 11.996492

- location: Stora Coop Bäckebol
  urn: urn:coop:store:id:655
  city: Hisings Backa
  latitude: 57.769442
  longitude: 12.000244

- location: Coop Kallebäck
  urn: urn:coop:store:id:3723
  city: Göteborg
  latitude: 57.684006
  longitude: 12.007035

- location: Coop Mölndal Åby Katrinebergsgatan
  urn: urn:coop:store:id:3573
  city: Mölndal
  latitude: 57.649294
  longitude: 12.014121

- location: Coop Gamlestaden
  urn: urn:coop:store:id:449
  city: Göteborg
  latitude: 57.729839
  longitude: 12.014137

- location: Coop Surte
  urn: urn:coop:store:id:454
  city: Surte
  latitude: 57.82618
  longitude: 12.014977

- location: Coop Bohus
  urn: urn:coop:store:id:3578
  city: Bohus
  latitude: 57.851468
  longitude: 12.016413

- location: Coop Skillingsfors
  urn: urn:coop:store:id:1286
  city: Skillingsfors
  latitude: 59.817869
  longitude: 12.022093

- location: Coop Munkebäckstorget
  urn: urn:coop:store:id:438
  city: Göteborg
  latitude: 57.718721
  longitude: 12.025832

- location: Coop Kållered
  urn: urn:coop:store:id:653
  city: Kållered
  latitude: 57.609394
  longitude: 12.04427

- location: Coop Gamla Riksvägen
  urn: urn:coop:store:id:3718
  city: Kållered
  latitude: 57.610301
  longitude: 12.050305

- location: Coop Trätorget
  urn: urn:coop:store:id:442
  city: Göteborg
  latitude: 57.71492
  longitude: 12.052678

- location: Coop Högsäter
  urn: urn:coop:store:id:1193
  city: Högsäter
  latitude: 58.652516
  longitude: 12.05707

- location: Coop Kolla Parkstad
  urn: urn:coop:store:id:3765
  city: Kungsbacka
  latitude: 57.477148
  longitude: 12.05941

- location: Coop Gastorp
  urn: urn:coop:store:id:453
  city: Lindome
  latitude: 57.575572
  longitude: 12.077476

- location: Stora Coop Kungsbacka
  urn: urn:coop:store:id:2278
  city: Kungsbacka
  latitude: 57.479609
  longitude: 12.081198

- location: Coop Mölnlycke
  urn: urn:coop:store:id:429
  city: Mölnlycke
  latitude: 57.658474
  longitude: 12.115609

- location: Coop Partille
  urn: urn:coop:store:id:3533
  city: Partille
  latitude: 57.740639
  longitude: 12.121701

- location: Coop Lilla Edet
  urn: urn:coop:store:id:3570
  city: Lilla Edet
  latitude: 58.136418
  longitude: 12.126993

- location: Coop Älvängen
  urn: urn:coop:store:id:3137
  city: Älvängen
  latitude: 57.961399
  longitude: 12.127054

- location: Coop Årjäng
  urn: urn:coop:store:id:1260
  city: Årjäng
  latitude: 59.39287
  longitude: 12.132333

- location: Coop Koppom
  urn: urn:coop:store:id:1257
  city: Koppom
  latitude: 59.706558
  longitude: 12.150818

- location: Coop Bäckefors
  urn: urn:coop:store:id:1209
  city: Bäckefors
  latitude: 58.806342
  longitude: 12.162006

- location: Coop Konsum Frillesås
  urn: urn:coop:store:id:1166
  city: Frillesås
  latitude: 57.317476
  longitude: 12.175007

- location: Coop Bengtsfors
  urn: urn:coop:store:id:1187
  city: Bengtsfors
  latitude: 59.02869
  longitude: 12.225401

- location: Coop Sjuntorp
  urn: urn:coop:store:id:1212
  city: Sjuntorp
  latitude: 58.200235
  longitude: 12.235912

- location: Coop Västra Vallgatan
  urn: urn:coop:store:id:3708
  city: Varberg
  latitude: 57.104829
  longitude: 12.248106

- location: Coop Söder
  urn: urn:coop:store:id:1171
  city: Varberg
  latitude: 57.092462
  longitude: 12.259462

- location: Coop Strömslund
  urn: urn:coop:store:id:1211
  city: Trollhättan
  latitude: 58.281142
  longitude: 12.267153

- location: Stora Coop Varberg
  urn: urn:coop:store:id:2677
  city: Varberg
  latitude: 57.08243
  longitude: 12.277469

- location: Coop Håstenshallen
  urn: urn:coop:store:id:1172
  city: Varberg
  latitude: 57.112085
  longitude: 12.277753

- location: Coop Hörngatan
  urn: urn:coop:store:id:1213
  city: Trollhättan
  latitude: 58.277684
  longitude: 12.285392

- location: X:-TRA Trollhättan
  urn: urn:coop:store:id:3568
  city: Trollhättan
  latitude: 58.260072
  longitude: 12.285402

- location: Coop Mjörnbotorget
  urn: urn:coop:store:id:3579
  city: Gråbo
  latitude: 57.83583
  longitude: 12.298859

- location: Coop Charlottenberg
  urn: urn:coop:store:id:1238
  city: Charlottenberg
  latitude: 59.884156
  longitude: 12.30047

- location: Stora Coop Överby
  urn: urn:coop:store:id:1182
  city: Trollhättan
  latitude: 58.313911
  longitude: 12.302295

- location: Coop Kronhjorten Trollhättan
  urn: urn:coop:store:id:3497
  city: Trollhättan
  latitude: 58.280451
  longitude: 12.306952

- location: Coop Mustadfors
  urn: urn:coop:store:id:1215
  city: Dals Långed
  latitude: 58.921013
  longitude: 12.312146

- location: X:-TRA Vänersborg
  urn: urn:coop:store:id:3750
  city: Vänersborg
  latitude: 58.3648
  longitude: 12.343023

- location: Coop Åmotfors
  urn: urn:coop:store:id:1237
  city: Åmotfors
  latitude: 59.762842
  longitude: 12.361543

- location: Coop Åsensbruk
  urn: urn:coop:store:id:1221
  city: Åsensbruk
  latitude: 58.805924
  longitude: 12.422265

- location: Coop Mellerud
  urn: urn:coop:store:id:3550
  city: Mellerud
  latitude: 58.699667
  longitude: 12.45192

- location: Coop Arvidstorp
  urn: urn:coop:store:id:3808
  city: Falkenberg
  latitude: 56.911319
  longitude: 12.482071

- location: Coop Gallerian
  urn: urn:coop:store:id:3804
  city: Falkenberg
  latitude: 56.906306
  longitude: 12.49155

- location: Coop Falkenberg
  urn: urn:coop:store:id:3806
  city: Falkenberg
  latitude: 56.898246
  longitude: 12.491592

- location: Coop Slättenvägen
  urn: urn:coop:store:id:3807
  city: Falkenberg
  latitude: 56.897492
  longitude: 12.525978

- location: Coop Alingsås
  urn: urn:coop:store:id:3411
  city: Alingsås
  latitude: 57.940132
  longitude: 12.526925

- location: Coop Funäsdalen
  urn: urn:coop:store:id:634
  city: Funäsdalen
  latitude: 62.54948
  longitude: 12.529993

- location: Coop Hajom
  urn: urn:coop:store:id:1223
  city: Hajom
  latitude: 57.5047
  longitude: 12.54862

- location: Coop Svanskog
  urn: urn:coop:store:id:1269
  city: Svanskog
  latitude: 59.178939
  longitude: 12.552383

- location: Stora Coop Palmviken
  urn: urn:coop:store:id:1227
  city: Arvika
  latitude: 59.656712
  longitude: 12.586145

- location: Stora Coop Styckåsen
  urn: urn:coop:store:id:1253
  city: Arvika
  latitude: 59.659732
  longitude: 12.605295

- location: Coop Skene
  urn: urn:coop:store:id:466
  city: Skene
  latitude: 57.490694
  longitude: 12.642542

- location: Coop Kinna
  urn: urn:coop:store:id:3572
  city: Kinna
  latitude: 57.507542
  longitude: 12.692398

- location: Coop Knutpunkten
  urn: urn:coop:store:id:3844
  city: Helsingborg
  latitude: 56.044916
  longitude: 12.694622

- location: Coop Kopparmöllegatan
  urn: urn:coop:store:id:3843
  city: Helsingborg
  latitude: 56.050917
  longitude: 12.699197

- location: Coop Karlstadsvägen
  urn: urn:coop:store:id:1195
  city: Åmål
  latitude: 59.059546
  longitude: 12.701009

- location: Coop Åmål Mellanbrogatan
  urn: urn:coop:store:id:1188
  city: Åmål
  latitude: 59.051265
  longitude: 12.70106

- location: Coop Stattena
  urn: urn:coop:store:id:3671
  city: Helsingborg
  latitude: 56.057334
  longitude: 12.701362

- location: Coop Stenbocksgatan
  urn: urn:coop:store:id:3846
  city: Helsingborg
  latitude: 56.040927
  longitude: 12.711446

- location: Coop Örebrogatan
  urn: urn:coop:store:id:3845
  city: Helsingborg
  latitude: 56.044623
  longitude: 12.721232

- location: Coop Elinebergsplatsen
  urn: urn:coop:store:id:3737
  city: Helsingborg
  latitude: 56.028392
  longitude: 12.725818

- location: Coop Idre
  urn: urn:coop:store:id:1326
  city: Idre
  latitude: 61.857849
  longitude: 12.726633

- location: Coop Getinge
  urn: urn:coop:store:id:1163
  city: Getinge
  latitude: 56.819082
  longitude: 12.731301

- location: Stora Coop Råå Helsingborg
  urn: urn:coop:store:id:3854
  city: Helsingborg
  latitude: 56.010949
  longitude: 12.732982

- location: Coop Vasatorpsvägen
  urn: urn:coop:store:id:3672
  city: Helsingborg
  latitude: 56.061347
  longitude: 12.734576

- location: Stora Coop Väla Helsingborg
  urn: urn:coop:store:id:3852
  city: Ödåkra
  latitude: 56.093399
  longitude: 12.765009

- location: Coop Vårgårda
  urn: urn:coop:store:id:3561
  city: Vårgårda
  latitude: 58.031647
  longitude: 12.812741

- location: Coop Borstahusen
  urn: urn:coop:store:id:3828
  city: Landskrona
  latitude: 55.900839
  longitude: 12.822331

- location: Coop Remigatan
  urn: urn:coop:store:id:3662
  city: Landskrona
  latitude: 55.886622
  longitude: 12.827484

- location: Coop Flygaregatan
  urn: urn:coop:store:id:3809
  city: Halmstad
  latitude: 56.669277
  longitude: 12.842353

- location: Coop Östervångsplan
  urn: urn:coop:store:id:3663
  city: Landskrona
  latitude: 55.878712
  longitude: 12.85648

- location: Stora Coop Landskrona
  urn: urn:coop:store:id:2686
  city: Landskrona
  latitude: 55.873711
  longitude: 12.857771

- location: Coop Nybrovägen
  urn: urn:coop:store:id:3667
  city: Ängelholm
  latitude: 56.248781
  longitude: 12.858067

- location: Coop Sysslebäck
  urn: urn:coop:store:id:1263
  city: Sysslebäck
  latitude: 60.734553
  longitude: 12.865507

- location: Coop Gamletull Halmstad
  urn: urn:coop:store:id:3803
  city: Halmstad
  latitude: 56.675502
  longitude: 12.86651

- location: Coop Landshövdingevägen
  urn: urn:coop:store:id:3666
  city: Ängelholm
  latitude: 56.23578
  longitude: 12.874361

- location: Coop Ängelholm
  urn: urn:coop:store:id:3842
  city: Ängelholm
  latitude: 56.237962
  longitude: 12.875792

- location: Coop Furuvägen
  urn: urn:coop:store:id:3802
  city: Halmstad
  latitude: 56.685187
  longitude: 12.879436

- location: Coop Vikene
  urn: urn:coop:store:id:1279
  city: Brunskog
  latitude: 59.669664
  longitude: 12.886841

- location: Coop Snöstorpsvägen
  urn: urn:coop:store:id:3810
  city: Halmstad
  latitude: 56.672635
  longitude: 12.891687

- location: Coop Borås Byttorp
  urn: urn:coop:store:id:3567
  city: Borås
  latitude: 57.728445
  longitude: 12.911047

- location: Stora Coop Halmstad
  urn: urn:coop:store:id:3805
  city: Halmstad
  latitude: 56.655264
  longitude: 12.911576

- location: Coop Bjuv
  urn: urn:coop:store:id:3661
  city: Bjuv
  latitude: 56.087274
  longitude: 12.914605

- location: Coop Fyllinge
  urn: urn:coop:store:id:3811
  city: Halmstad
  latitude: 56.649856
  longitude: 12.916607

- location: Coop Säffle
  urn: urn:coop:store:id:1230
  city: Säffle
  latitude: 59.134382
  longitude: 12.919542

- location: Coop Limhamn
  urn: urn:coop:store:id:3830
  city: Limhamn
  latitude: 55.587337
  longitude: 12.927019

- location: Coop Borås Sjöbotorg
  urn: urn:coop:store:id:3565
  city: Borås
  latitude: 57.749557
  longitude: 12.944644

- location: Coop Höllviken
  urn: urn:coop:store:id:3826
  city: Höllviken
  latitude: 55.417546
  longitude: 12.951983

- location: Coop Vara
  urn: urn:coop:store:id:3562
  city: Vara
  latitude: 58.262748
  longitude: 12.9523

- location: Coop Djupadal
  urn: urn:coop:store:id:3831
  city: Limhamn
  latitude: 55.573561
  longitude: 12.96162

- location: Stora Coop Borås
  urn: urn:coop:store:id:652
  city: Borås
  latitude: 57.716747
  longitude: 12.963704

- location: Coop Tessins väg
  urn: urn:coop:store:id:3836
  city: Malmö
  latitude: 55.600445
  longitude: 12.975497

- location: Coop Slottsstaden
  urn: urn:coop:store:id:3648
  city: Malmö
  latitude: 55.598262
  longitude: 12.9794

- location: Coop Västra Hamnen
  urn: urn:coop:store:id:3653
  city: Malmö
  latitude: 55.615653
  longitude: 12.983848

- location: Coop Nära Köpenhamnsvägen
  urn: urn:coop:store:id:3848
  city: Malmö
  latitude: 55.59339
  longitude: 12.986336

- location: X:-TRA Borås
  urn: urn:coop:store:id:3564
  city: Borås
  latitude: 57.723021
  longitude: 12.987122

- location: Stora Coop Stadion
  urn: urn:coop:store:id:3853
  city: Malmö
  latitude: 55.580365
  longitude: 12.990062

- location: Coop Torsby
  urn: urn:coop:store:id:1242
  city: Torsby
  latitude: 60.130855
  longitude: 12.997949

- location: Coop Malmö Central
  urn: urn:coop:store:id:3833
  city: Malmö
  latitude: 55.609165
  longitude: 12.999474

- location: Coop Lugnet Malmö
  urn: urn:coop:store:id:3647
  city: Malmö
  latitude: 55.597724
  longitude: 13.005703

- location: Coop Söderkulla
  urn: urn:coop:store:id:3646
  city: Malmö
  latitude: 55.567591
  longitude: 13.009863

- location: Coop Kornettsgatan
  urn: urn:coop:store:id:3835
  city: Malmö
  latitude: 55.600344
  longitude: 13.011786

- location: Coop Norra Parkgatan
  urn: urn:coop:store:id:3816
  city: Malmö
  latitude: 55.595533
  longitude: 13.012826

- location: Coop Herrljunga
  urn: urn:coop:store:id:3558
  city: Herrljunga
  latitude: 58.076983
  longitude: 13.014156

- location: Coop Östra Förstadsgatan
  urn: urn:coop:store:id:3654
  city: Malmö
  latitude: 55.607024
  longitude: 13.019072

- location: Coop Nobeltorget
  urn: urn:coop:store:id:3832
  city: Malmö
  latitude: 55.592352
  longitude: 13.019955

- location: Coop Nydala
  urn: urn:coop:store:id:3829
  city: Malmö
  latitude: 55.573004
  longitude: 13.020247

- location: Coop Värnhem
  urn: urn:coop:store:id:3823
  city: Malmö
  latitude: 55.60515
  longitude: 13.024396

- location: Coop Bjärred
  urn: urn:coop:store:id:3657
  city: Bjärred
  latitude: 55.717814
  longitude: 13.029234

- location: Coop Laholm
  urn: urn:coop:store:id:3771
  city: Laholm
  latitude: 56.504465
  longitude: 13.035386

- location: Coop Kirseberg
  urn: urn:coop:store:id:3834
  city: Malmö
  latitude: 55.608805
  longitude: 13.036186

- location: Coop Vattenverksvägen
  urn: urn:coop:store:id:3548
  city: Malmö
  latitude: 55.6099
  longitude: 13.044506

- location: Coop Högboda
  urn: urn:coop:store:id:1280
  city: Kil
  latitude: 59.557012
  longitude: 13.053318

- location: Coop Forum Jägersro
  urn: urn:coop:store:id:3850
  city: Malmö
  latitude: 55.570165
  longitude: 13.059254

- location: Coop Arlövsvägen
  urn: urn:coop:store:id:3650
  city: Arlöv
  latitude: 55.638434
  longitude: 13.059511

- location: Coop Bulltofta
  urn: urn:coop:store:id:3815
  city: Malmö
  latitude: 55.596197
  longitude: 13.062925

- location: Coop Karolingatan
  urn: urn:coop:store:id:3838
  city: Malmö
  latitude: 55.582107
  longitude: 13.064908

- location: Coop Lomma
  urn: urn:coop:store:id:3847
  city: Lomma
  latitude: 55.672891
  longitude: 13.069037

- location: Coop Videdal
  urn: urn:coop:store:id:3645
  city: Malmö
  latitude: 55.588182
  longitude: 13.069339

- location: Coop Torup
  urn: urn:coop:store:id:1048
  city: Torup
  latitude: 56.956607
  longitude: 13.075895

- location: Coop Dalbyvägen
  urn: urn:coop:store:id:3651
  city: Arlöv
  latitude: 55.63336
  longitude: 13.082597

- location: Stora Coop Burlöv
  urn: urn:coop:store:id:3857
  city: Arlöv
  latitude: 55.642202
  longitude: 13.083826

- location: Coop Åre
  urn: urn:coop:store:id:1407
  city: Åre
  latitude: 63.395666
  longitude: 13.086669

- location: Coop Kågeröd
  urn: urn:coop:store:id:3616
  city: Kågeröd
  latitude: 55.999002
  longitude: 13.086774

- location: Coop Oxie
  urn: urn:coop:store:id:3819
  city: Oxie
  latitude: 55.53969
  longitude: 13.095371

- location: Coop Bintjevägen
  urn: urn:coop:store:id:3664
  city: Kävlinge
  latitude: 55.78852
  longitude: 13.105772

- location: Coop Dalsjöfors
  urn: urn:coop:store:id:1222
  city: Dalsjöfors
  latitude: 57.722513
  longitude: 13.105999

- location: Coop Svalöv
  urn: urn:coop:store:id:3729
  city: Svalöv
  latitude: 55.913842
  longitude: 13.106005

- location: X:-TRA Svenljunga
  urn: urn:coop:store:id:3576
  city: Svenljunga
  latitude: 57.499896
  longitude: 13.112957

- location: Coop Grums
  urn: urn:coop:store:id:1236
  city: Grums
  latitude: 59.353819
  longitude: 13.113594

- location: Coop Stationsstaden
  urn: urn:coop:store:id:3827
  city: Kävlinge
  latitude: 55.797164
  longitude: 13.115206

- location: Coop Lidköping Råda Mossevägen
  urn: urn:coop:store:id:3745
  city: Lidköping
  latitude: 58.503099
  longitude: 13.123624

- location: Stora Coop Trelleborg
  urn: urn:coop:store:id:3851
  city: Trelleborg
  latitude: 55.37908
  longitude: 13.123874

- location: Coop Klippan
  urn: urn:coop:store:id:3660
  city: Klippan
  latitude: 56.135733
  longitude: 13.129805

- location: Coop Särna
  urn: urn:coop:store:id:1322
  city: Särna
  latitude: 61.693062
  longitude: 13.141127

- location: Coop Sunne
  urn: urn:coop:store:id:1232
  city: Sunne
  latitude: 59.838627
  longitude: 13.1429

- location: Coop Lysvik
  urn: urn:coop:store:id:1281
  city: Lysvik
  latitude: 60.015252
  longitude: 13.150726

- location: Coop Högalid
  urn: urn:coop:store:id:3825
  city: Trelleborg
  latitude: 55.387095
  longitude: 13.154727

- location: Coop Värpinge Lund
  urn: urn:coop:store:id:3659
  city: Lund
  latitude: 55.703838
  longitude: 13.160024

- location: Stora Coop Lund
  urn: urn:coop:store:id:2696
  city: Lund
  latitude: 55.718824
  longitude: 13.163324

- location: Coop Vildgåsen Lund
  urn: urn:coop:store:id:3656
  city: Lund
  latitude: 55.711175
  longitude: 13.168615

- location: Coop Örnvägen
  urn: urn:coop:store:id:3840
  city: Lund
  latitude: 55.705734
  longitude: 13.170494

- location: X:-TRA Lidköping
  urn: urn:coop:store:id:3746
  city: Lidköping
  latitude: 58.498871
  longitude: 13.172299

- location: Coop Engelbrektsgatan Trelleborg
  urn: urn:coop:store:id:3630
  city: Trelleborg
  latitude: 55.374767
  longitude: 13.175924

- location: Coop Klostergården
  urn: urn:coop:store:id:3820
  city: Lund
  latitude: 55.693036
  longitude: 13.179207

- location: Coop Trollebergsvägen
  urn: urn:coop:store:id:3837
  city: Lund
  latitude: 55.703618
  longitude: 13.182873

- location: Coop Änghagen Lidköping
  urn: urn:coop:store:id:2809
  city: Lidköping
  latitude: 58.493856
  longitude: 13.183552

- location: Coop Vålberg
  urn: urn:coop:store:id:1252
  city: Vålberg
  latitude: 59.395961
  longitude: 13.193599

- location: Coop Staffanstorp
  urn: urn:coop:store:id:3652
  city: Staffanstorp
  latitude: 55.640636
  longitude: 13.196126

- location: Coop Skansvägen Lund
  urn: urn:coop:store:id:3658
  city: Lund
  latitude: 55.728895
  longitude: 13.19643

- location: Coop Mårtenstorget
  urn: urn:coop:store:id:3813
  city: Lund
  latitude: 55.701655
  longitude: 13.19742

- location: Coop Flöjtvägen
  urn: urn:coop:store:id:3839
  city: Lund
  latitude: 55.710867
  longitude: 13.232837

- location: Coop Hyltebruk
  urn: urn:coop:store:id:1045
  city: Hyltebruk
  latitude: 56.998514
  longitude: 13.23994

- location: Coop Svedala
  urn: urn:coop:store:id:3632
  city: Svedala
  latitude: 55.508003
  longitude: 13.243657

- location: Coop Sälen
  urn: urn:coop:store:id:596
  city: Sälen
  latitude: 61.155781
  longitude: 13.266786

- location: Coop Stöllet
  urn: urn:coop:store:id:1287
  city: Stöllet
  latitude: 60.410843
  longitude: 13.270624

- location: Coop Örkelljunga
  urn: urn:coop:store:id:3821
  city: Örkelljunga
  latitude: 56.282549
  longitude: 13.278791

- location: X:-TRA Örkelljunga
  urn: urn:coop:store:id:3670
  city: Örkelljunga
  latitude: 56.283596
  longitude: 13.283438

- location: Coop Solkullen Eslöv
  urn: urn:coop:store:id:3728
  city: Eslöv
  latitude: 55.845797
  longitude: 13.285455

- location: Coop Eslöv
  urn: urn:coop:store:id:1140
  city: Eslöv
  latitude: 55.840677
  longitude: 13.30003

- location: X:-TRA Eslöv
  urn: urn:coop:store:id:3731
  city: Eslöv
  latitude: 55.852819
  longitude: 13.303736

- location: Coop Knäred
  urn: urn:coop:store:id:1164
  city: Knäred
  latitude: 56.520306
  longitude: 13.314904

- location: Stora Coop Flygstaden
  urn: urn:coop:store:id:3522
  city: Eslöv
  latitude: 55.843983
  longitude: 13.32797

- location: Coop Kil
  urn: urn:coop:store:id:1240
  city: Kil
  latitude: 59.503518
  longitude: 13.332175

- location: Coop Smygehamn
  urn: urn:coop:store:id:3824
  city: Smygehamn
  latitude: 55.343392
  longitude: 13.372439

- location: Coop Lima
  urn: urn:coop:store:id:594
  city: Lima
  latitude: 60.903234
  longitude: 13.382803

- location: X:-TRA Perstorp
  urn: urn:coop:store:id:3674
  city: Perstorp
  latitude: 56.135792
  longitude: 13.39435

- location: Coop Genarp
  urn: urn:coop:store:id:3841
  city: Genarp
  latitude: 55.598602
  longitude: 13.402976

- location: X:-TRA Smålandsstenar
  urn: urn:coop:store:id:3717
  city: Smålandsstenar
  latitude: 57.1614
  longitude: 13.410158

- location: Stora Coop Skara
  urn: urn:coop:store:id:661
  city: Skara
  latitude: 58.378488
  longitude: 13.413078

- location: Coop Smålandsstenar
  urn: urn:coop:store:id:3223
  city: Smålandsstenar
  latitude: 57.164328
  longitude: 13.413904

- location: Coop Ulricehamn
  urn: urn:coop:store:id:3566
  city: Ulricehamn
  latitude: 57.780431
  longitude: 13.414121

- location: Stora Coop Bergvik
  urn: urn:coop:store:id:1225
  city: Karlstad
  latitude: 59.377488
  longitude: 13.424855

- location: Coop Hällekis
  urn: urn:coop:store:id:480
  city: Hällekis
  latitude: 58.628887
  longitude: 13.432545

- location: Coop Järpen
  urn: urn:coop:store:id:1408
  city: Järpen
  latitude: 63.346282
  longitude: 13.462341

- location: Coop Strand
  urn: urn:coop:store:id:3679
  city: Karlstad
  latitude: 59.380841
  longitude: 13.470751

- location: Coop Forshaga
  urn: urn:coop:store:id:1233
  city: Forshaga
  latitude: 59.531879
  longitude: 13.480018

- location: Coop Skived
  urn: urn:coop:store:id:1274
  city: Forshaga
  latitude: 59.520977
  longitude: 13.482501

- location: Coop Veberöd
  urn: urn:coop:store:id:1158
  city: Veberöd
  latitude: 55.634226
  longitude: 13.491231

- location: Coop Råtorp
  urn: urn:coop:store:id:3678
  city: Karlstad
  latitude: 59.399283
  longitude: 13.496283

- location: Coop Götene
  urn: urn:coop:store:id:3551
  city: Götene
  latitude: 58.52933
  longitude: 13.496494

- location: Coop Skurup
  urn: urn:coop:store:id:3814
  city: Skurup
  latitude: 55.477537
  longitude: 13.499448

- location: Coop City Karlstad
  urn: urn:coop:store:id:1226
  city: Karlstad
  latitude: 59.380115
  longitude: 13.499559

- location: Coop Kök och Café
  urn: urn:coop:store:id:3709
  city: Karlstad
  latitude: 59.380032
  longitude: 13.499987

- location: Coop Stora Torggatan
  urn: urn:coop:store:id:3633
  city: Skurup
  latitude: 55.479312
  longitude: 13.501116

- location: Stora Coop Hammarö
  urn: urn:coop:store:id:1975
  city: Hammarö
  latitude: 59.346486
  longitude: 13.503687

- location: Coop Norrstrand
  urn: urn:coop:store:id:1243
  city: Karlstad
  latitude: 59.391613
  longitude: 13.51663

- location: Coop Herrhagen
  urn: urn:coop:store:id:1254
  city: Karlstad
  latitude: 59.377723
  longitude: 13.516721

- location: Coop Unnaryd
  urn: urn:coop:store:id:1049
  city: Unnaryd
  latitude: 56.95439
  longitude: 13.530489

- location: Coop Munkfors
  urn: urn:coop:store:id:1235
  city: Munkfors
  latitude: 59.830091
  longitude: 13.538976

- location: Coop Höör
  urn: urn:coop:store:id:1141
  city: Höör
  latitude: 55.934257
  longitude: 13.539528

- location: Coop Gislaved
  urn: urn:coop:store:id:3712
  city: Gislaved
  latitude: 57.302387
  longitude: 13.543597

- location: Coop Kroppkärr
  urn: urn:coop:store:id:1258
  city: Karlstad
  latitude: 59.403978
  longitude: 13.548536

- location: X:-TRA Höör
  urn: urn:coop:store:id:3727
  city: Höör
  latitude: 55.938493
  longitude: 13.551493

- location: Coop Falköping
  urn: urn:coop:store:id:2236
  city: Falköping
  latitude: 58.150103
  longitude: 13.556507

- location: Coop Kronoparken
  urn: urn:coop:store:id:1255
  city: Karlstad
  latitude: 59.402762
  longitude: 13.571775

- location: Stora Coop Välsviken
  urn: urn:coop:store:id:3494
  city: Karlstad
  latitude: 59.395995
  longitude: 13.575707

- location: Coop Markaryd Kronobergsgatan
  urn: urn:coop:store:id:3716
  city: Markaryd
  latitude: 56.457022
  longitude: 13.59349

- location: Coop Markaryd
  urn: urn:coop:store:id:304
  city: Markaryd
  latitude: 56.463198
  longitude: 13.597772

- location: Coop Anderstorp
  urn: urn:coop:store:id:3440
  city: Anderstorp
  latitude: 57.275175
  longitude: 13.627234

- location: X:-TRA Hörby
  urn: urn:coop:store:id:3730
  city: Hörby
  latitude: 55.850568
  longitude: 13.647763

- location: Coop Hörby
  urn: urn:coop:store:id:1115
  city: Hörby
  latitude: 55.85597
  longitude: 13.663867

- location: Coop Skattkärr
  urn: urn:coop:store:id:1264
  city: Skattkärr
  latitude: 59.413605
  longitude: 13.674065

- location: Coop Sjöbo
  urn: urn:coop:store:id:3817
  city: Sjöbo
  latitude: 55.636398
  longitude: 13.680682

- location: Coop Hagfors
  urn: urn:coop:store:id:1228
  city: Hagfors
  latitude: 60.035126
  longitude: 13.695822

- location: Coop Södergatan
  urn: urn:coop:store:id:3673
  city: Sjöbo
  latitude: 55.629302
  longitude: 13.704187

- location: Coop Sunnemo
  urn: urn:coop:store:id:1285
  city: Sunnemo
  latitude: 59.883343
  longitude: 13.719676

- location: Coop Molkom
  urn: urn:coop:store:id:1246
  city: Molkom
  latitude: 59.60151
  longitude: 13.721728

- location: Coop Gnosjö
  urn: urn:coop:store:id:274
  city: Gnosjö
  latitude: 57.358281
  longitude: 13.733246

- location: Coop Traryd
  urn: urn:coop:store:id:305
  city: Traryd
  latitude: 56.578182
  longitude: 13.746909

- location: X:-TRA Hässleholm
  urn: urn:coop:store:id:3732
  city: Hässleholm
  latitude: 56.161781
  longitude: 13.764036

- location: Coop Hässleholm
  urn: urn:coop:store:id:1095
  city: Hässleholm
  latitude: 56.149656
  longitude: 13.780579

- location: Coop Kommendörsgatan
  urn: urn:coop:store:id:3631
  city: Ystad
  latitude: 55.428686
  longitude: 13.786874

- location: X:-TRA Mariestad
  urn: urn:coop:store:id:3741
  city: Mariestad
  latitude: 58.702711
  longitude: 13.797216

- location: Coop Ystad
  urn: urn:coop:store:id:3822
  city: Ystad
  latitude: 55.431978
  longitude: 13.799662

- location: Coop Sydport Mariestad
  urn: urn:coop:store:id:474
  city: Mariestad
  latitude: 58.685313
  longitude: 13.816654

- location: Coop Dragonen
  urn: urn:coop:store:id:3812
  city: Ystad
  latitude: 55.42955
  longitude: 13.821003

- location: Coop Vipans Gränd Skövde
  urn: urn:coop:store:id:2702
  city: Skövde
  latitude: 58.387124
  longitude: 13.832061

- location: Stora Coop Nolhaga Skövde
  urn: urn:coop:store:id:676
  city: Skövde
  latitude: 58.407514
  longitude: 13.857612

- location: Coop Skövde Henriksbergsgatan
  urn: urn:coop:store:id:3743
  city: Skövde
  latitude: 58.386752
  longitude: 13.859937

- location: Coop Mariestad Marieforsleden
  urn: urn:coop:store:id:3742
  city: Mariestad
  latitude: 58.710186
  longitude: 13.860021

- location: X:-TRA Mullsjö
  urn: urn:coop:store:id:3726
  city: Mullsjö
  latitude: 57.913704
  longitude: 13.87051

- location: Coop Mullsjö
  urn: urn:coop:store:id:325
  city: Mullsjö
  latitude: 57.916345
  longitude: 13.879397

- location: X:-TRA Ljungby
  urn: urn:coop:store:id:3701
  city: Ljungby
  latitude: 56.829107
  longitude: 13.952334

- location: Coop Extra Tomelilla
  urn: urn:coop:store:id:3849
  city: Tomelilla
  latitude: 55.543294
  longitude: 13.953943

- location: Coop Tidaholm
  urn: urn:coop:store:id:471
  city: Tidaholm
  latitude: 58.179203
  longitude: 13.957486

- location: Coop Osby
  urn: urn:coop:store:id:1100
  city: Osby
  latitude: 56.383216
  longitude: 13.994731

- location: X:-TRA Osby
  urn: urn:coop:store:id:3735
  city: Osby
  latitude: 56.38537
  longitude: 14.002013

- location: Coop Värnamo Fredsgatan
  urn: urn:coop:store:id:3711
  city: Värnamo
  latitude: 57.183154
  longitude: 14.030332

- location: Coop Älvdalen
  urn: urn:coop:store:id:1321
  city: Älvdalen
  latitude: 61.228305
  longitude: 14.038095

- location: Coop Värnamo
  urn: urn:coop:store:id:2815
  city: Värnamo
  latitude: 57.181826
  longitude: 14.059173

- location: Coop Habo
  urn: urn:coop:store:id:283
  city: Habo
  latitude: 57.909595
  longitude: 14.074835

- location: Coop Broby
  urn: urn:coop:store:id:1111
  city: Broby
  latitude: 56.254257
  longitude: 14.076605

- location: Coop Knislinge
  urn: urn:coop:store:id:1118
  city: Knislinge
  latitude: 56.192627
  longitude: 14.086871

- location: Coop Taberg
  urn: urn:coop:store:id:1050
  city: Taberg
  latitude: 57.678679
  longitude: 14.088593

- location: Coop Degeberga
  urn: urn:coop:store:id:1110
  city: Degeberga
  latitude: 55.83739
  longitude: 14.091107

- location: Coop Vä
  urn: urn:coop:store:id:1116
  city: Kristianstad
  latitude: 56.001807
  longitude: 14.095869

- location: Stora Coop Kristinehamn
  urn: urn:coop:store:id:1231
  city: Kristinehamn
  latitude: 59.312988
  longitude: 14.101969

- location: Coop Vintergatan
  urn: urn:coop:store:id:3077
  city: Kristinehamn
  latitude: 59.309353
  longitude: 14.109614

- location: Stora Coop Härlöv
  urn: urn:coop:store:id:3759
  city: Kristianstad
  latitude: 56.025335
  longitude: 14.117526

- location: Coop Norrahammar
  urn: urn:coop:store:id:1046
  city: Norrahammar
  latitude: 57.704672
  longitude: 14.118197

- location: Coop Hovslätt
  urn: urn:coop:store:id:1047
  city: Jönköping
  latitude: 57.729326
  longitude: 14.118358

- location: Coop Bankeryd
  urn: urn:coop:store:id:280
  city: Bankeryd
  latitude: 57.860405
  longitude: 14.124559

- location: X:-TRA Töreboda
  urn: urn:coop:store:id:3740
  city: Töreboda
  latitude: 58.703713
  longitude: 14.124793

- location: Coop Kyrkogatan Töreboda
  urn: urn:coop:store:id:472
  city: Töreboda
  latitude: 58.709953
  longitude: 14.126805

- location: Coop Dalviksringen
  urn: urn:coop:store:id:327
  city: Jönköping
  latitude: 57.787525
  longitude: 14.130321

- location: Coop Hagaberg
  urn: urn:coop:store:id:3689
  city: Jönköping
  latitude: 57.743761
  longitude: 14.136243

- location: Coop Älmhult
  urn: urn:coop:store:id:268
  city: Älmhult
  latitude: 56.552513
  longitude: 14.14032

- location: Coop Vaggeryd
  urn: urn:coop:store:id:3687
  city: Vaggeryd
  latitude: 57.50636
  longitude: 14.143784

- location: Coop Jönköping Anders Blomstrands Väg
  urn: urn:coop:store:id:3688
  city: Jönköping
  latitude: 57.801093
  longitude: 14.148666

- location: Coop Kristinedal
  urn: urn:coop:store:id:1853
  city: Jönköping
  latitude: 57.778266
  longitude: 14.150822

- location: Coop City Kristianstad
  urn: urn:coop:store:id:3148
  city: Kristianstad
  latitude: 56.031224
  longitude: 14.157745

- location: X:-TRA Näsby
  urn: urn:coop:store:id:3734
  city: Kristianstad
  latitude: 56.055717
  longitude: 14.158915

- location: Coop Sommarlust
  urn: urn:coop:store:id:1105
  city: Kristianstad
  latitude: 56.041572
  longitude: 14.164461

- location: Coop Tibro
  urn: urn:coop:store:id:3739
  city: Tibro
  latitude: 58.423544
  longitude: 14.165369

- location: Coop Bor
  urn: urn:coop:store:id:339
  city: Bor
  latitude: 57.115294
  longitude: 14.168459

- location: Coop Extra Filipstad
  urn: urn:coop:store:id:1229
  city: Filipstad
  latitude: 59.713088
  longitude: 14.169986

- location: Coop Atollen Jönköping
  urn: urn:coop:store:id:3441
  city: Jönköping
  latitude: 57.780461
  longitude: 14.173232

- location: Coop Östra Torget
  urn: urn:coop:store:id:2816
  city: Jönköping
  latitude: 57.780516
  longitude: 14.180357

- location: X:-TRA Österäng
  urn: urn:coop:store:id:3733
  city: Kristianstad
  latitude: 56.042797
  longitude: 14.18036

- location: Coop Lesjöfors
  urn: urn:coop:store:id:1239
  city: Lesjöfors
  latitude: 59.97837
  longitude: 14.183243

- location: Coop Sibbhult
  urn: urn:coop:store:id:1108
  city: Sibbhult
  latitude: 56.266857
  longitude: 14.201794

- location: Stora Coop Jönköping
  urn: urn:coop:store:id:3460
  city: Jönköping
  latitude: 57.773011
  longitude: 14.205956

- location: Coop Vansbro
  urn: urn:coop:store:id:570
  city: Vansbro
  latitude: 60.511465
  longitude: 14.222719

- location: Coop Storfors
  urn: urn:coop:store:id:1245
  city: Storfors
  latitude: 59.531154
  longitude: 14.272631

- location: Coop Hjo
  urn: urn:coop:store:id:3557
  city: Hjo
  latitude: 58.312583
  longitude: 14.279952

- location: Coop Åhus
  urn: urn:coop:store:id:1103
  city: Åhus
  latitude: 55.926592
  longitude: 14.300777

- location: Coop Lönsboda
  urn: urn:coop:store:id:1098
  city: Lönsboda
  latitude: 56.398744
  longitude: 14.322407

- location: Coop Tenhult
  urn: urn:coop:store:id:335
  city: Tenhult
  latitude: 57.709513
  longitude: 14.322564

- location: Coop Simrishamn
  urn: urn:coop:store:id:3818
  city: Simrishamn
  latitude: 55.551885
  longitude: 14.331267

- location: Coop Visingsö
  urn: urn:coop:store:id:333
  city: Visingsö
  latitude: 58.04565
  longitude: 14.338193

- location: Coop Stora Rådmansgatan
  urn: urn:coop:store:id:3629
  city: Simrishamn
  latitude: 55.557172
  longitude: 14.348185

- location: Coop Sveg
  urn: urn:coop:store:id:633
  city: Sveg
  latitude: 62.034988
  longitude: 14.365953

- location: Coop Fredriksberg
  urn: urn:coop:store:id:509
  city: Fredriksberg
  latitude: 60.140721
  longitude: 14.372737

- location: Coop Gränna
  urn: urn:coop:store:id:285
  city: Gränna
  latitude: 58.024484
  longitude: 14.466757

- location: Coop Bromölla
  urn: urn:coop:store:id:3714
  city: Bromölla
  latitude: 56.073873
  longitude: 14.467972

- location: Coop Forserum
  urn: urn:coop:store:id:336
  city: Forserum
  latitude: 57.699649
  longitude: 14.474813

- location: Coop Storängen
  urn: urn:coop:store:id:1303
  city: Karlskoga
  latitude: 59.302296
  longitude: 14.495383

- location: Coop Fröding
  urn: urn:coop:store:id:1300
  city: Karlskoga
  latitude: 59.328681
  longitude: 14.501606

- location: Coop Karlsborg
  urn: urn:coop:store:id:473
  city: Karlsborg
  latitude: 58.53772
  longitude: 14.505119

- location: X:-TRA Alvesta
  urn: urn:coop:store:id:3705
  city: Alvesta
  latitude: 56.900492
  longitude: 14.562153

- location: Coop Bråten
  urn: urn:coop:store:id:1304
  city: Karlskoga
  latitude: 59.344699
  longitude: 14.567203

- location: Coop Forum Karlskoga
  urn: urn:coop:store:id:1289
  city: Karlskoga
  latitude: 59.328164
  longitude: 14.574902

- location: X:-TRA Sölvesborg
  urn: urn:coop:store:id:3713
  city: Sölvesborg
  latitude: 56.045008
  longitude: 14.578063

- location: Coop Sölvesborg
  urn: urn:coop:store:id:1104
  city: Sölvesborg
  latitude: 56.051379
  longitude: 14.581921

- location: Coop Sollerön
  urn: urn:coop:store:id:1333
  city: Sollerön
  latitude: 60.917268
  longitude: 14.617168

- location: Coop Frösön
  urn: urn:coop:store:id:1412
  city: Frösön
  latitude: 63.182466
  longitude: 14.618181

- location: Coop Orsa
  urn: urn:coop:store:id:567
  city: Orsa
  latitude: 61.11848
  longitude: 14.619783

- location: Coop Laxå
  urn: urn:coop:store:id:3796
  city: Laxå
  latitude: 58.98189
  longitude: 14.622881

- location: Coop City Östersund
  urn: urn:coop:store:id:1968
  city: Östersund
  latitude: 63.175808
  longitude: 14.638687

- location: X:-TRA Sävsjö
  urn: urn:coop:store:id:3691
  city: Sävsjö
  latitude: 57.396736
  longitude: 14.656614

- location: Coop Sävsjö
  urn: urn:coop:store:id:281
  city: Sävsjö
  latitude: 57.400427
  longitude: 14.667461

- location: Stora Coop Östersund
  urn: urn:coop:store:id:1930
  city: Östersund
  latitude: 63.174008
  longitude: 14.692805

- location: Coop Nässjö
  urn: urn:coop:store:id:1805
  city: Nässjö
  latitude: 57.65303
  longitude: 14.697867

- location: Coop Torvalla
  urn: urn:coop:store:id:1417
  city: Östersund
  latitude: 63.158487
  longitude: 14.742058

- location: Coop Mörrum
  urn: urn:coop:store:id:1099
  city: Mörrum
  latitude: 56.192946
  longitude: 14.746705

- location: Coop Svängsta
  urn: urn:coop:store:id:1131
  city: Svängsta
  latitude: 56.262733
  longitude: 14.771083

- location: Coop Nydalavägen
  urn: urn:coop:store:id:3702
  city: Växjö
  latitude: 56.900009
  longitude: 14.796419

- location: Coop Södra Ringvägen
  urn: urn:coop:store:id:298
  city: Växjö
  latitude: 56.87194
  longitude: 14.796897

- location: Coop Oxtorget
  urn: urn:coop:store:id:1889
  city: Växjö
  latitude: 56.878674
  longitude: 14.797897

- location: Coop Aneby
  urn: urn:coop:store:id:287
  city: Aneby
  latitude: 57.838388
  longitude: 14.81773

- location: Coop Växjö Emil Lindells Väg
  urn: urn:coop:store:id:3704
  city: Växjö
  latitude: 56.866954
  longitude: 14.819201

- location: Coop Kristinatorget
  urn: urn:coop:store:id:293
  city: Växjö
  latitude: 56.883756
  longitude: 14.8203

- location: Coop Brunflo
  urn: urn:coop:store:id:1419
  city: Brunflo
  latitude: 63.081157
  longitude: 14.824643

- location: Stora Coop Norremark
  urn: urn:coop:store:id:1929
  city: Växjö
  latitude: 56.90258
  longitude: 14.829471

- location: Coop Asarum
  urn: urn:coop:store:id:1128
  city: Asarum
  latitude: 56.208029
  longitude: 14.833424

- location: Coop Nyemöllevägen Karlshamn
  urn: urn:coop:store:id:3707
  city: Karlshamn
  latitude: 56.187454
  longitude: 14.846217

- location: Stora Coop Karlshamn
  urn: urn:coop:store:id:2206
  city: Karlshamn
  latitude: 56.190722
  longitude: 14.848342

- location: Coop Fjugesta
  urn: urn:coop:store:id:3794
  city: Fjugesta
  latitude: 59.174386
  longitude: 14.873634

- location: Coop Konsum Österport
  urn: urn:coop:store:id:1129
  city: Karlshamn
  latitude: 56.167064
  longitude: 14.88132

- location: Coop Vadstena
  urn: urn:coop:store:id:237
  city: Vadstena
  latitude: 58.447072
  longitude: 14.888125

- location: Coop askersund
  urn: urn:coop:store:id:3788
  city: Askersund
  latitude: 58.88669
  longitude: 14.912643

- location: X:-TRA Askersund
  urn: urn:coop:store:id:3798
  city: Askersund
  latitude: 58.887494
  longitude: 14.914703

- location: Coop Garphyttan
  urn: urn:coop:store:id:3793
  city: Garphyttan
  latitude: 59.304339
  longitude: 14.94653

- location: Coop Sunnansjö
  urn: urn:coop:store:id:591
  city: Sunnansjö
  latitude: 60.216482
  longitude: 14.957726

- location: Coop Nyhammar
  urn: urn:coop:store:id:590
  city: Nyhammar
  latitude: 60.292203
  longitude: 14.969416

- location: Coop Tranås
  urn: urn:coop:store:id:272
  city: Tranås
  latitude: 58.031186
  longitude: 14.970493

- location: Coop Eksjö
  urn: urn:coop:store:id:271
  city: Eksjö
  latitude: 57.66462
  longitude: 14.97239

- location: X:-TRA Eksjö
  urn: urn:coop:store:id:3692
  city: Eksjö
  latitude: 57.663088
  longitude: 14.972861

- location: Coop Leksand
  urn: urn:coop:store:id:563
  city: Leksand
  latitude: 60.731494
  longitude: 14.998295

- location: Coop Grängesberg
  urn: urn:coop:store:id:569
  city: Grängesberg
  latitude: 60.075599
  longitude: 15.007351

- location: Coop Ekenässjön
  urn: urn:coop:store:id:338
  city: Ekenässjön
  latitude: 57.492185
  longitude: 15.02085

- location: Coop Nora
  urn: urn:coop:store:id:3789
  city: Nora
  latitude: 59.519038
  longitude: 15.036964

- location: Coop Linden Motala
  urn: urn:coop:store:id:3617
  city: Motala
  latitude: 58.536681
  longitude: 15.045649

- location: Coop Boxholm
  urn: urn:coop:store:id:229
  city: Boxholm
  latitude: 58.197667
  longitude: 15.05403

- location: Coop Östermalmsgatan Motala
  urn: urn:coop:store:id:3875
  city: Motala
  latitude: 58.547411
  longitude: 15.059706

- location: X:-TRA Vetlanda
  urn: urn:coop:store:id:3694
  city: Vetlanda
  latitude: 57.425276
  longitude: 15.083573

- location: X:-TRA Hallsberg
  urn: urn:coop:store:id:3797
  city: Hallsberg
  latitude: 59.06756
  longitude: 15.10045

- location: Coop City Hallsberg
  urn: urn:coop:store:id:3785
  city: Hallsberg
  latitude: 59.064961
  longitude: 15.112898

- location: Coop Mjölby
  urn: urn:coop:store:id:3862
  city: Mjölby
  latitude: 58.317436
  longitude: 15.115593

- location: Coop Rättvik
  urn: urn:coop:store:id:574
  city: Rättvik
  latitude: 60.882855
  longitude: 15.118992

- location: Coop Djurås
  urn: urn:coop:store:id:581
  city: Djurås
  latitude: 60.56055
  longitude: 15.130473

- location: Coop Forum Marieberg
  urn: urn:coop:store:id:3795
  city: Örebro
  latitude: 59.218299
  longitude: 15.138542

- location: Stora Coop Ludvika
  urn: urn:coop:store:id:2235
  city: Ludvika
  latitude: 60.1357
  longitude: 15.156283

- location: Coop Haga Örebro
  urn: urn:coop:store:id:3799
  city: Örebro
  latitude: 59.27508
  longitude: 15.163793

- location: Coop Ludvika Gård
  urn: urn:coop:store:id:572
  city: Ludvika
  latitude: 60.131548
  longitude: 15.181357

- location: Coop Rosta
  urn: urn:coop:store:id:3790
  city: Örebro
  latitude: 59.270079
  longitude: 15.187737

- location: Coop Markbacken Örebro
  urn: urn:coop:store:id:3801
  city: Örebro
  latitude: 59.281111
  longitude: 15.193396

- location: Coop Ladugårdsängen
  urn: urn:coop:store:id:3787
  city: Örebro
  latitude: 59.251318
  longitude: 15.195526

- location: Coop Änggatan
  urn: urn:coop:store:id:3792
  city: Örebro
  latitude: 59.265811
  longitude: 15.210118

- location: Coop Boda Kyrkby
  urn: urn:coop:store:id:588
  city: Boda Kyrkby
  latitude: 61.011734
  longitude: 15.212221

- location: Coop Svampen
  urn: urn:coop:store:id:3791
  city: Örebro
  latitude: 59.28587
  longitude: 15.230997

- location: Coop Österplan
  urn: urn:coop:store:id:3786
  city: Örebro
  latitude: 59.265884
  longitude: 15.234279

- location: Coop Tybble Örebro
  urn: urn:coop:store:id:3610
  city: Örebro
  latitude: 59.258851
  longitude: 15.239446

- location: Coop Tärnaby
  urn: urn:coop:store:id:1448
  city: Tärnaby
  latitude: 65.711518
  longitude: 15.257613

- location: Stora Coop Ronneby
  urn: urn:coop:store:id:3884
  city: Ronneby
  latitude: 56.216853
  longitude: 15.269894

- location: Coop Lessebo
  urn: urn:coop:store:id:288
  city: Lessebo
  latitude: 56.751479
  longitude: 15.270357

- location: Coop Österbymo
  urn: urn:coop:store:id:334
  city: Ydre
  latitude: 57.824695
  longitude: 15.277213

- location: Coop Lenhovda
  urn: urn:coop:store:id:1056
  city: Lenhovda
  latitude: 56.994349
  longitude: 15.287569

- location: Coop Kallinge
  urn: urn:coop:store:id:1120
  city: Kallinge
  latitude: 56.244999
  longitude: 15.28863

- location: Coop Åseda
  urn: urn:coop:store:id:278
  city: Åseda
  latitude: 57.168538
  longitude: 15.346755

- location: Coop Kosta
  urn: urn:coop:store:id:1053
  city: Kosta
  latitude: 56.84367
  longitude: 15.395707

- location: Coop Smedjebacken
  urn: urn:coop:store:id:568
  city: Smedjebacken
  latitude: 60.142408
  longitude: 15.412166

- location: Stora Coop Norra Backa
  urn: urn:coop:store:id:3150
  city: Borlänge
  latitude: 60.477896
  longitude: 15.418342

- location: Coop Bräcke
  urn: urn:coop:store:id:1401
  city: Bräcke
  latitude: 62.749541
  longitude: 15.419812

- location: Coop Forssa
  urn: urn:coop:store:id:578
  city: Borlänge
  latitude: 60.496555
  longitude: 15.431037

- location: Coop Bjursås
  urn: urn:coop:store:id:1329
  city: Bjursås
  latitude: 60.739584
  longitude: 15.443108

- location: Coop Hasslö
  urn: urn:coop:store:id:1107
  city: Hasslö
  latitude: 56.1152
  longitude: 15.476222

- location: Coop Grycksbo
  urn: urn:coop:store:id:1331
  city: Grycksbo
  latitude: 60.687483
  longitude: 15.484564

- location: Coop Kittelfjäll
  urn: urn:coop:store:id:3887
  city: Kittelfjäll
  latitude: 65.253881
  longitude: 15.487579

- location: Coop Nättraby
  urn: urn:coop:store:id:1106
  city: Nã?Ttraby
  latitude: 56.206144
  longitude: 15.52789

- location: Coop Emmaboda
  urn: urn:coop:store:id:276
  city: Emmaboda
  latitude: 56.630434
  longitude: 15.538037

- location: Coop Strömsund
  urn: urn:coop:store:id:1402
  city: Strömsund
  latitude: 63.851718
  longitude: 15.55786

- location: Coop Lambohov
  urn: urn:coop:store:id:238
  city: Linköping
  latitude: 58.388239
  longitude: 15.565579

- location: Coop Älghult
  urn: urn:coop:store:id:1060
  city: Älghult
  latitude: 57.008911
  longitude: 15.573981

- location: Coop Virserum
  urn: urn:coop:store:id:1090
  city: Virserum
  latitude: 57.321471
  longitude: 15.58169

- location: Coop Skäggetorp
  urn: urn:coop:store:id:3869
  city: Linköping
  latitude: 58.42794
  longitude: 15.585625

- location: Coop Vallaplan
  urn: urn:coop:store:id:239
  city: Linköping
  latitude: 58.407239
  longitude: 15.59766

- location: Coop Lägerhyddan
  urn: urn:coop:store:id:240
  city: Linköping
  latitude: 58.401809
  longitude: 15.609852

- location: Coop Rödeby
  urn: urn:coop:store:id:1113
  city: Rödeby
  latitude: 56.261421
  longitude: 15.61779

- location: Stora Coop Falun
  urn: urn:coop:store:id:3506
  city: Falun
  latitude: 60.602882
  longitude: 15.618718

- location: Stora Coop Garnisonen Linköping
  urn: urn:coop:store:id:2303
  city: Linköping
  latitude: 58.391129
  longitude: 15.624513

- location: Coop Drottninggatan Linköping
  urn: urn:coop:store:id:3867
  city: Linköping
  latitude: 58.408996
  longitude: 15.625704

- location: Coop Kisa
  urn: urn:coop:store:id:231
  city: Kisa
  latitude: 57.984922
  longitude: 15.63195

- location: X:-TRA Karlskrona
  urn: urn:coop:store:id:3715
  city: Karlskrona
  latitude: 56.202529
  longitude: 15.640264

- location: Coop Kvarnberget
  urn: urn:coop:store:id:573
  city: Falun
  latitude: 60.59448
  longitude: 15.645137

- location: Coop Ånge
  urn: urn:coop:store:id:918
  city: Ånge
  latitude: 62.525073
  longitude: 15.659099

- location: Coop Högsjö
  urn: urn:coop:store:id:532
  city: Högsjö
  latitude: 59.0279
  longitude: 15.669694

- location: Coop Ullstämma
  urn: urn:coop:store:id:3868
  city: Linköping
  latitude: 58.373229
  longitude: 15.669874

- location: Coop Skinnskatteberg
  urn: urn:coop:store:id:528
  city: Skinnskatteberg
  latitude: 59.829525
  longitude: 15.693241

- location: Coop Säter
  urn: urn:coop:store:id:566
  city: Säter
  latitude: 60.346318
  longitude: 15.752418

- location: Coop Bergslagshallen
  urn: urn:coop:store:id:1036
  city: Finspång
  latitude: 58.706349
  longitude: 15.766669

- location: Coop Sundborn
  urn: urn:coop:store:id:3463
  city: Sundborn
  latitude: 60.653196
  longitude: 15.773974

- location: Coop Östermalmshallen
  urn: urn:coop:store:id:3684
  city: Finspång
  latitude: 58.709065
  longitude: 15.792598

- location: Coop Fagersta
  urn: urn:coop:store:id:520
  city: Fagersta
  latitude: 60.004259
  longitude: 15.795884

- location: Coop Målilla
  urn: urn:coop:store:id:1091
  city: Målilla
  latitude: 57.387813
  longitude: 15.80648

- location: Stora Coop Finspång
  urn: urn:coop:store:id:1024
  city: Finspång
  latitude: 58.701192
  longitude: 15.81556

- location: X:-TRA Edsbyn
  urn: urn:coop:store:id:1347
  city: Edsbyn
  latitude: 61.374038
  longitude: 15.818193

- location: Coop Hultsfred
  urn: urn:coop:store:id:1070
  city: Hultsfred
  latitude: 57.488195
  longitude: 15.842412

- location: Coop Fiskaregatan Vimmerby
  urn: urn:coop:store:id:3864
  city: Vimmerby
  latitude: 57.668546
  longitude: 15.847367

- location: X:-TRA Arboga
  urn: urn:coop:store:id:3780
  city: Arboga
  latitude: 59.396323
  longitude: 15.8506

- location: Coop Vingåker
  urn: urn:coop:store:id:524
  city: Vingåker
  latitude: 59.045029
  longitude: 15.872568

- location: Coop Skärblacka
  urn: urn:coop:store:id:3485
  city: Skärblacka
  latitude: 58.581729
  longitude: 15.913618

- location: Coop Alsterbro
  urn: urn:coop:store:id:1089
  city: Alsterbro
  latitude: 56.941623
  longitude: 15.914055

- location: Coop Norberg
  urn: urn:coop:store:id:527
  city: Norberg
  latitude: 60.066022
  longitude: 15.923897

- location: Coop Rejmyre
  urn: urn:coop:store:id:1041
  city: Rejmyre
  latitude: 58.829805
  longitude: 15.931178

- location: Coop Nybro
  urn: urn:coop:store:id:3703
  city: Nybro
  latitude: 56.732462
  longitude: 15.947046

- location: Coop Dikanäs
  urn: urn:coop:store:id:1508
  city: Dikanäs
  latitude: 65.235492
  longitude: 15.993469

- location: Coop Köping
  urn: urn:coop:store:id:3779
  city: Köping
  latitude: 59.509873
  longitude: 15.994081

- location: Coop Torsås
  urn: urn:coop:store:id:310
  city: Torsås
  latitude: 56.412011
  longitude: 16.000893

- location: Coop Östanås
  urn: urn:coop:store:id:3777
  city: Köping
  latitude: 59.519785
  longitude: 16.004506

- location: Coop Högsby
  urn: urn:coop:store:id:1087
  city: Högsby
  latitude: 57.162531
  longitude: 16.031873

- location: Coop Berga
  urn: urn:coop:store:id:1082
  city: Berga
  latitude: 57.217677
  longitude: 16.035685

- location: Stora Coop Ljusdal
  urn: urn:coop:store:id:3767
  city: Ljusdal
  latitude: 61.828813
  longitude: 16.09209

- location: Coop Kungsör
  urn: urn:coop:store:id:3770
  city: Kungsör
  latitude: 59.423557
  longitude: 16.096672

- location: Coop Eneby
  urn: urn:coop:store:id:3876
  city: Norrköping
  latitude: 58.60351
  longitude: 16.142085

- location: Coop Skarphagen
  urn: urn:coop:store:id:247
  city: Norrköping
  latitude: 58.577486
  longitude: 16.158251

- location: Coop Värmlandsgatan
  urn: urn:coop:store:id:252
  city: Norrköping
  latitude: 58.597162
  longitude: 16.165793

- location: Coop Stockholmsvägen
  urn: urn:coop:store:id:3871
  city: Norrköping
  latitude: 58.60064
  longitude: 16.167617

- location: Coop Fränsta
  urn: urn:coop:store:id:1531
  city: Fränsta
  latitude: 62.498107
  longitude: 16.171019

- location: Coop Vingåkersvägen Katrineholm
  urn: urn:coop:store:id:3880
  city: Vingåker
  latitude: 58.994691
  longitude: 16.174606

- location: Coop Bråddgatan
  urn: urn:coop:store:id:3870
  city: Norrköping
  latitude: 58.593344
  longitude: 16.179304

- location: Coop Åby
  urn: urn:coop:store:id:233
  city: Åby
  latitude: 58.664986
  longitude: 16.181878

- location: Coop Trozelligatan
  urn: urn:coop:store:id:253
  city: Norrköping
  latitude: 58.582837
  longitude: 16.186327

- location: Coop Domino
  urn: urn:coop:store:id:3874
  city: Norrköping
  latitude: 58.588625
  longitude: 16.190138

- location: Coop Saluhallen
  urn: urn:coop:store:id:235
  city: Norrköping
  latitude: 58.591324
  longitude: 16.191509

- location: Coop Ljura
  urn: urn:coop:store:id:3873
  city: Norrköping
  latitude: 58.580089
  longitude: 16.195717

- location: Coop Kristdala
  urn: urn:coop:store:id:1085
  city: Kristdala
  latitude: 57.400492
  longitude: 16.198475

- location: Coop Hantverkaregatan
  urn: urn:coop:store:id:248
  city: Norrköping
  latitude: 58.588682
  longitude: 16.201057

- location: Coop Kyrkogatan
  urn: urn:coop:store:id:534
  city: Katrineholm
  latitude: 58.998259
  longitude: 16.206413

- location: Coop Katrineholm
  urn: urn:coop:store:id:512
  city: Katrineholm
  latitude: 58.994774
  longitude: 16.210044

- location: Coop Krylbo
  urn: urn:coop:store:id:598
  city: Krylbo
  latitude: 60.130727
  longitude: 16.213442

- location: Coop Hageby
  urn: urn:coop:store:id:3872
  city: Norrköping
  latitude: 58.568322
  longitude: 16.214971

- location: Coop Risängen
  urn: urn:coop:store:id:254
  city: Norrköping
  latitude: 58.580612
  longitude: 16.220787

- location: Coop Surahammar
  urn: urn:coop:store:id:3784
  city: Surahammar
  latitude: 59.698254
  longitude: 16.24386

- location: Coop Hofors
  urn: urn:coop:store:id:3766
  city: Hofors
  latitude: 60.546187
  longitude: 16.285582

- location: Coop Överum
  urn: urn:coop:store:id:1067
  city: Överum
  latitude: 57.988213
  longitude: 16.313953

- location: Coop Torpshammar
  urn: urn:coop:store:id:927
  city: Torpshammar
  latitude: 62.474162
  longitude: 16.328477

- location: Coop Blomstermåla
  urn: urn:coop:store:id:1088
  city: Blomstermåla
  latitude: 56.982136
  longitude: 16.333703

- location: Stora Coop Kalmar
  urn: urn:coop:store:id:3461
  city: Kalmar
  latitude: 56.670891
  longitude: 16.335415

- location: Coop Ankarsrum
  urn: urn:coop:store:id:3762
  city: Ankarsrum
  latitude: 57.698591
  longitude: 16.336292

- location: Coop Kalmar Sandåsgatan
  urn: urn:coop:store:id:3697
  city: Kalmar
  latitude: 56.66284
  longitude: 16.340618

- location: Coop Funkabo
  urn: urn:coop:store:id:3696
  city: Kalmar
  latitude: 56.68513
  longitude: 16.342647

- location: Coop Hammarstrand
  urn: urn:coop:store:id:1404
  city: Hammarstrand
  latitude: 63.109947
  longitude: 16.354078

- location: Coop Norrliden
  urn: urn:coop:store:id:314
  city: Kalmar
  latitude: 56.702933
  longitude: 16.358116

- location: Coop Krokek
  urn: urn:coop:store:id:255
  city: Kolmården
  latitude: 58.674874
  longitude: 16.364211

- location: Coop Baronen Kalmar
  urn: urn:coop:store:id:3442
  city: Kalmar
  latitude: 56.661011
  longitude: 16.364515

- location: Stora Coop Bollnäs
  urn: urn:coop:store:id:1876
  city: Bollnäs
  latitude: 61.368859
  longitude: 16.391278

- location: Coop Dorotea
  urn: urn:coop:store:id:1447
  city: Dorotea
  latitude: 64.261542
  longitude: 16.41263

- location: Coop Mönsterås
  urn: urn:coop:store:id:913
  city: Mönsterås
  latitude: 57.041691
  longitude: 16.443832

- location: Coop Södra Vägen Mönsterås
  urn: urn:coop:store:id:3865
  city: Mönsterås
  latitude: 57.036395
  longitude: 16.445158

- location: Coop Flanaden
  urn: urn:coop:store:id:1066
  city: Oskarshamn
  latitude: 57.264375
  longitude: 16.445271

- location: Coop Kolberga
  urn: urn:coop:store:id:1080
  city: Oskarshamn
  latitude: 57.270275
  longitude: 16.457441

- location: Coop Påskallavik
  urn: urn:coop:store:id:1081
  city: Påskallavik
  latitude: 57.165394
  longitude: 16.460389

- location: Coop Åsavägen
  urn: urn:coop:store:id:3863
  city: Oskarshamn
  latitude: 57.257485
  longitude: 16.461308

- location: Coop Edsbruk
  urn: urn:coop:store:id:1076
  city: Edsbruk
  latitude: 58.018471
  longitude: 16.466408

- location: Stora Coop Eskilstuna
  urn: urn:coop:store:id:659
  city: Eskilstuna
  latitude: 59.374785
  longitude: 16.466782

- location: Coop Färjestaden
  urn: urn:coop:store:id:316
  city: Färjestaden
  latitude: 56.64946
  longitude: 16.472754

- location: Coop Östra Torget Torshälla
  urn: urn:coop:store:id:517
  city: Torshälla
  latitude: 59.420656
  longitude: 16.475672

- location: Coop Eskilstunavägen Torshälla
  urn: urn:coop:store:id:3877
  city: Torshälla
  latitude: 59.410529
  longitude: 16.475807

- location: Coop Skogstorp
  urn: urn:coop:store:id:540
  city: Skogstorp
  latitude: 59.328017
  longitude: 16.482387

- location: Coop Fårbo
  urn: urn:coop:store:id:1078
  city: Fårbo
  latitude: 57.383249
  longitude: 16.484365

- location: Coop Färjestaden Brofästet
  urn: urn:coop:store:id:3699
  city: Färjestaden
  latitude: 56.664659
  longitude: 16.488483

- location: Coop Hälleforsnäs
  urn: urn:coop:store:id:530
  city: Hälleforsnäs
  latitude: 59.152559
  longitude: 16.496609

- location: Coop Stengatan Västerås
  urn: urn:coop:store:id:3783
  city: Västerås
  latitude: 59.609415
  longitude: 16.511625

- location: Coop Triangeln Eskilstuna
  urn: urn:coop:store:id:537
  city: Eskilstuna
  latitude: 59.359191
  longitude: 16.518172

- location: Coop Årbygatan Eskilstuna
  urn: urn:coop:store:id:3879
  city: Eskilstuna
  latitude: 59.381681
  longitude: 16.522567

- location: Coop Sveaplan Eskilstuna
  urn: urn:coop:store:id:519
  city: Eskilstuna
  latitude: 59.366084
  longitude: 16.523364

- location: Coop Konsum Oxbacken
  urn: urn:coop:store:id:3775
  city: Västerås
  latitude: 59.606209
  longitude: 16.53166

- location: Coop Storvik
  urn: urn:coop:store:id:1368
  city: Storvik
  latitude: 60.583599
  longitude: 16.531698

- location: Coop  City Västerås
  urn: urn:coop:store:id:3773
  city: Västerås
  latitude: 59.61167
  longitude: 16.543948

- location: Coop Karlfeldtsplatsen
  urn: urn:coop:store:id:3774
  city: Västerås
  latitude: 59.63057
  longitude: 16.546259

- location: Coop Figeholm
  urn: urn:coop:store:id:1083
  city: Figeholm
  latitude: 57.37323
  longitude: 16.549139

- location: Coop Kilafors
  urn: urn:coop:store:id:1374
  city: Kilafors
  latitude: 61.230555
  longitude: 16.564215

- location: Coop Pilgatan Västerås
  urn: urn:coop:store:id:3772
  city: Västerås
  latitude: 59.612781
  longitude: 16.564699

- location: Coop Bangatan Västerås
  urn: urn:coop:store:id:3781
  city: Västerås
  latitude: 59.628092
  longitude: 16.56687

- location: Stora Coop Stenby Västerås
  urn: urn:coop:store:id:3778
  city: Västerås
  latitude: 59.635347
  longitude: 16.568062

- location: Coop Viksängsgatan Västerås
  urn: urn:coop:store:id:3782
  city: Västerås
  latitude: 59.606725
  longitude: 16.587181

- location: Coop Flen
  urn: urn:coop:store:id:3878
  city: Flen
  latitude: 59.061756
  longitude: 16.592589

- location: Coop Stjärnan Västerås
  urn: urn:coop:store:id:3776
  city: Västerås
  latitude: 59.622904
  longitude: 16.601591

- location: Coop Kungsgården
  urn: urn:coop:store:id:1369
  city: Kungsgården
  latitude: 60.60685
  longitude: 16.603277

- location: Coop Folkparksvägen
  urn: urn:coop:store:id:3681
  city: Västervik
  latitude: 57.76227
  longitude: 16.60381

- location: Coop Sala
  urn: urn:coop:store:id:1771
  city: Sala
  latitude: 59.919876
  longitude: 16.613656

- location: Coop Västervik
  urn: urn:coop:store:id:1065
  city: Västervik
  latitude: 57.760196
  longitude: 16.616431

- location: Coop Västervik Vapengränd
  urn: urn:coop:store:id:3682
  city: Västervik
  latitude: 57.74527
  longitude: 16.6431

- location: Coop Högö
  urn: urn:coop:store:id:1075
  city: Västervik
  latitude: 57.747401
  longitude: 16.650774

- location: Coop Vilhelmina
  urn: urn:coop:store:id:920
  city: Vilhelmina
  latitude: 64.624047
  longitude: 16.657571

- location: Coop Borgholm
  urn: urn:coop:store:id:3698
  city: Borgholm
  latitude: 56.878193
  longitude: 16.661192

- location: Coop Ärla
  urn: urn:coop:store:id:541
  city: Ärla
  latitude: 59.282586
  longitude: 16.675761

- location: Coop Hassela
  urn: urn:coop:store:id:1383
  city: Hassela
  latitude: 62.110029
  longitude: 16.709872

- location: Coop Malmköping
  urn: urn:coop:store:id:531
  city: Malmköping
  latitude: 59.132261
  longitude: 16.731929

- location: Coop Sandviken
  urn: urn:coop:store:id:1349
  city: Sandviken
  latitude: 60.620203
  longitude: 16.740869

- location: Coop Enen
  urn: urn:coop:store:id:1365
  city: Sandviken
  latitude: 60.618051
  longitude: 16.767234

- location: Coop Bergvik
  urn: urn:coop:store:id:1373
  city: Bergvik
  latitude: 61.258179
  longitude: 16.83532

- location: Coop Heby
  urn: urn:coop:store:id:529
  city: Heby
  latitude: 59.938981
  longitude: 16.862209

- location: Coop Forsbacka
  urn: urn:coop:store:id:1351
  city: Forsbacka
  latitude: 60.613732
  longitude: 16.890775

- location: Coop Näsåker
  urn: urn:coop:store:id:1537
  city: Näsåker
  latitude: 63.442421
  longitude: 16.899041

- location: Stora Coop Valbo
  urn: urn:coop:store:id:1344
  city: Valbo
  latitude: 60.633924
  longitude: 16.991611

- location: Coop Stenbärsvägen Nyköping
  urn: urn:coop:store:id:2229
  city: Nyköping
  latitude: 58.746594
  longitude: 16.99342

- location: Coop Enånger
  urn: urn:coop:store:id:608
  city: Enånger
  latitude: 61.547798
  longitude: 17.005458

- location: Stora Coop Söderhamn
  urn: urn:coop:store:id:666
  city: Söderhamn
  latitude: 61.295729
  longitude: 17.020043

- location: Stora Coop Strängnäs
  urn: urn:coop:store:id:2666
  city: Strängnäs
  latitude: 59.336337
  longitude: 17.020082

- location: Coop Ringvägen
  urn: urn:coop:store:id:259
  city: Nyköping
  latitude: 58.753615
  longitude: 17.025173

- location: Stora Coop Nyköping
  urn: urn:coop:store:id:675
  city: Nyköping
  latitude: 58.770213
  longitude: 17.025443

- location: Coop Hagaström
  urn: urn:coop:store:id:1364
  city: Gävle
  latitude: 60.671374
  longitude: 17.073651

- location: Stora Coop Enköping
  urn: urn:coop:store:id:677
  city: Enköping
  latitude: 59.633133
  longitude: 17.082756

- location: Stora Coop Hudiksvall
  urn: urn:coop:store:id:1839
  city: Hudiksvall
  latitude: 61.734914
  longitude: 17.092902

- location: Coop Oxelösund
  urn: urn:coop:store:id:3881
  city: Oxelösund
  latitude: 58.672537
  longitude: 17.097376

- location: Coop Storuman
  urn: urn:coop:store:id:1451
  city: Storuman
  latitude: 65.096329
  longitude: 17.116785

- location: Coop Eken Gävle
  urn: urn:coop:store:id:1355
  city: Gävle
  latitude: 60.678333
  longitude: 17.125455

- location: Coop Ljusne
  urn: urn:coop:store:id:1345
  city: Ljusne
  latitude: 61.211138
  longitude: 17.125826

- location: Coop Sätrahöjden
  urn: urn:coop:store:id:3756
  city: Gävle
  latitude: 60.688047
  longitude: 17.127006

- location: Coop Krysset
  urn: urn:coop:store:id:1354
  city: Gävle
  latitude: 60.657582
  longitude: 17.134317

- location: Coop Norrsundet
  urn: urn:coop:store:id:1346
  city: Norrsundet
  latitude: 60.929935
  longitude: 17.139758

- location: Coop Nian
  urn: urn:coop:store:id:1338
  city: Gävle
  latitude: 60.674078
  longitude: 17.139955

- location: Coop Hallen
  urn: urn:coop:store:id:1360
  city: Gävle
  latitude: 60.670405
  longitude: 17.148201

- location: Coop Triangeln Gävle
  urn: urn:coop:store:id:1361
  city: Gävle
  latitude: 60.701287
  longitude: 17.153993

- location: Coop Tullhuset
  urn: urn:coop:store:id:3721
  city: Gävle
  latitude: 60.677783
  longitude: 17.158939

- location: Coop Östervåla
  urn: urn:coop:store:id:559
  city: Östervåla
  latitude: 60.1816
  longitude: 17.178975

- location: Coop Fjällbacken
  urn: urn:coop:store:id:1348
  city: Gävle
  latitude: 60.668634
  longitude: 17.183014

- location: Coop Bergsåker
  urn: urn:coop:store:id:1526
  city: Sundsvall
  latitude: 62.415599
  longitude: 17.217259

- location: Coop Mariefred
  urn: urn:coop:store:id:545
  city: Mariefred
  latitude: 59.262299
  longitude: 17.22104

- location: Coop Tystberga
  urn: urn:coop:store:id:265
  city: Tystberga
  latitude: 58.84817
  longitude: 17.238173

- location: Coop Granlo
  urn: urn:coop:store:id:3493
  city: Sundsvall
  latitude: 62.401637
  longitude: 17.265075

- location: Coop Nacksta
  urn: urn:coop:store:id:1890
  city: Sundsvall
  latitude: 62.391145
  longitude: 17.271198

- location: Coop Sollefteå
  urn: urn:coop:store:id:1439
  city: Sollefteå
  latitude: 63.165172
  longitude: 17.27754

- location: Coop Gnesta
  urn: urn:coop:store:id:21
  city: Gnesta
  latitude: 59.047894
  longitude: 17.311088

- location: Coop Timrå
  urn: urn:coop:store:id:1388
  city: Timrå
  latitude: 62.48566
  longitude: 17.324071

- location: Coop Haga Sundsvall
  urn: urn:coop:store:id:1528
  city: Sundsvall
  latitude: 62.401128
  longitude: 17.329347

- location: Stora Coop Sundsvall
  urn: urn:coop:store:id:2239
  city: Sundsvall
  latitude: 62.443892
  longitude: 17.33497

- location: Coop Åsele
  urn: urn:coop:store:id:923
  city: Åsele
  latitude: 64.1612
  longitude: 17.35059

- location: X:-TRA Bredsand
  urn: urn:coop:store:id:3761
  city: Sundsvall
  latitude: 62.352254
  longitude: 17.36669

- location: Coop Skutskär
  urn: urn:coop:store:id:917
  city: Skutskär
  latitude: 60.62471
  longitude: 17.414281

- location: Coop Älvkarleby
  urn: urn:coop:store:id:1363
  city: Älvkarleby
  latitude: 60.566624
  longitude: 17.455402

- location: Coop Tierp
  urn: urn:coop:store:id:199
  city: Tierp
  latitude: 60.344942
  longitude: 17.51631

- location: Coop Bålsta
  urn: urn:coop:store:id:3751
  city: Bålsta
  latitude: 59.566295
  longitude: 17.528972

- location: Coop Sorsele
  urn: urn:coop:store:id:1444
  city: Sorsele
  latitude: 65.535624
  longitude: 17.531987

- location: Coop Hölö
  urn: urn:coop:store:id:143
  city: Hölö
  latitude: 59.026158
  longitude: 17.537546

- location: Coop Trosa
  urn: urn:coop:store:id:234
  city: Trosa
  latitude: 58.896434
  longitude: 17.549237

- location: Coop Järna
  urn: urn:coop:store:id:26
  city: Järna
  latitude: 59.092983
  longitude: 17.563946

- location: Stora Coop Södertälje
  urn: urn:coop:store:id:640
  city: Södertälje
  latitude: 59.187463
  longitude: 17.574133

- location: Coop Klockarvägen Södertälje
  urn: urn:coop:store:id:3859
  city: Södertälje
  latitude: 59.196531
  longitude: 17.587343

- location: Coop Konsum Västertorg
  urn: urn:coop:store:id:212
  city: Uppsala
  latitude: 59.840895
  longitude: 17.602993

- location: Coop Ekeby Uppsala
  urn: urn:coop:store:id:208
  city: Uppsala
  latitude: 59.851128
  longitude: 17.605722

- location: Coop Ringgatan
  urn: urn:coop:store:id:211
  city: Uppsala
  latitude: 59.863541
  longitude: 17.615175

- location: Coop Karlholm
  urn: urn:coop:store:id:1362
  city: Karlholmsbruk
  latitude: 60.519231
  longitude: 17.625017

- location: Coop Södertälje C
  urn: urn:coop:store:id:88
  city: Södertälje
  latitude: 59.195787
  longitude: 17.627402

- location: Coop Kungsberga
  urn: urn:coop:store:id:964
  city: Färentuna
  latitude: 59.405029
  longitude: 17.631208

- location: Coop Brunne
  urn: urn:coop:store:id:3500
  city: Härnösand
  latitude: 62.65419
  longitude: 17.63404

- location: Coop Folkparken
  urn: urn:coop:store:id:2705
  city: Södertälje
  latitude: 59.193736
  longitude: 17.643009

- location: Coop Stationsgallerian
  urn: urn:coop:store:id:2821
  city: Uppsala
  latitude: 59.858329
  longitude: 17.649181

- location: Coop Sunnersta
  urn: urn:coop:store:id:207
  city: Uppsala
  latitude: 59.796462
  longitude: 17.656759

- location: Coop Liljegatan
  urn: urn:coop:store:id:3720
  city: Uppsala
  latitude: 59.858915
  longitude: 17.657317

- location: Coop Bollstabruk
  urn: urn:coop:store:id:1457
  city: Bollstabruk
  latitude: 62.998429
  longitude: 17.674366

- location: Coop Gunnarn
  urn: urn:coop:store:id:1479
  city: Gunnarn
  latitude: 65.006407
  longitude: 17.677922

- location: Coop Stenhamra
  urn: urn:coop:store:id:968
  city: Stenhamra
  latitude: 59.335558
  longitude: 17.686337

- location: Stora Coop Boländerna
  urn: urn:coop:store:id:643
  city: Uppsala
  latitude: 59.845628
  longitude: 17.694548

- location: Coop Storvreta
  urn: urn:coop:store:id:214
  city: Storvreta
  latitude: 59.95991
  longitude: 17.705274

- location: Coop Tibble
  urn: urn:coop:store:id:180
  city: Kungsängen
  latitude: 59.485401
  longitude: 17.734096

- location: Stora Coop Brunna Park
  urn: urn:coop:store:id:3498
  city: Kungsängen
  latitude: 59.495661
  longitude: 17.74155

- location: Coop Rönninge
  urn: urn:coop:store:id:165
  city: Rönninge
  latitude: 59.193831
  longitude: 17.747674

- location: Coop Kungsängen
  urn: urn:coop:store:id:181
  city: Kungsängen
  latitude: 59.478316
  longitude: 17.750459

- location: Coop Alsike
  urn: urn:coop:store:id:3521
  city: Knivsta
  latitude: 59.758938
  longitude: 17.775005

- location: Coop Kramfors
  urn: urn:coop:store:id:921
  city: Kramfors
  latitude: 62.931204
  longitude: 17.78224

- location: Coop Träkvista
  urn: urn:coop:store:id:109
  city: Ekerö
  latitude: 59.275435
  longitude: 17.783985

- location: Coop Spångbro
  urn: urn:coop:store:id:149
  city: Sorunda
  latitude: 59.008021
  longitude: 17.806775

- location: Coop Kallhäll
  urn: urn:coop:store:id:186
  city: Järfälla
  latitude: 59.45379
  longitude: 17.807285

- location: Coop Veckovägen
  urn: urn:coop:store:id:179
  city: Järfälla
  latitude: 59.423698
  longitude: 17.823253

- location: Stora Coop Tumba
  urn: urn:coop:store:id:3532
  city: Tumba
  latitude: 59.198627
  longitude: 17.844939

- location: Coop Björnboda
  urn: urn:coop:store:id:2273
  city: Vällingby
  latitude: 59.379102
  longitude: 17.848443

- location: Stora Coop Märsta
  urn: urn:coop:store:id:1954
  city: Märsta
  latitude: 59.616361
  longitude: 17.856149

- location: Stora Coop Vinsta
  urn: urn:coop:store:id:1958
  city: Vällingby
  latitude: 59.369188
  longitude: 17.858772

- location: Coop Barkarby
  urn: urn:coop:store:id:178
  city: Järfälla
  latitude: 59.402706
  longitude: 17.86802

- location: Coop Vällingby Centrum
  urn: urn:coop:store:id:2200
  city: Vällingby
  latitude: 59.363351
  longitude: 17.873019

- location: Coop Arjeplog
  urn: urn:coop:store:id:1562
  city: Arjeplog
  latitude: 66.051371
  longitude: 17.888719

- location: Coop Österbybruk
  urn: urn:coop:store:id:198
  city: Österbybruk
  latitude: 60.195631
  longitude: 17.895442

- location: Coop Spånga Torg
  urn: urn:coop:store:id:121
  city: Spånga
  latitude: 59.381571
  longitude: 17.896655

- location: Coop Spångavägen
  urn: urn:coop:store:id:101
  city: Spånga
  latitude: 59.367815
  longitude: 17.900541

- location: Coop Korpkulla
  urn: urn:coop:store:id:174
  city: Upplands Väsby
  latitude: 59.521615
  longitude: 17.902032

- location: Coop Skärholmen
  urn: urn:coop:store:id:3861
  city: Skärholmen
  latitude: 59.275959
  longitude: 17.909792

- location: Coop Bromsten
  urn: urn:coop:store:id:114
  city: Spånga
  latitude: 59.379388
  longitude: 17.913978

- location: Stora Coop Rotebro
  urn: urn:coop:store:id:639
  city: Sollentuna
  latitude: 59.470969
  longitude: 17.916169

- location: Coop Tullporten
  urn: urn:coop:store:id:3501
  city: Härnösand
  latitude: 62.627945
  longitude: 17.924241

- location: Stora Coop Härnösand
  urn: urn:coop:store:id:1438
  city: Härnösand
  latitude: 62.6353
  longitude: 17.925117

- location: Coop Bredden
  urn: urn:coop:store:id:3755
  city: Upplands Väsby
  latitude: 59.497125
  longitude: 17.926226

- location: Coop Engströms Livs
  urn: urn:coop:store:id:2274
  city: Bromma
  latitude: 59.32879
  longitude: 17.928837

- location: Stora Coop Häggvik
  urn: urn:coop:store:id:2246
  city: Sollentuna
  latitude: 59.440883
  longitude: 17.933688

- location: Coop Brommaplan
  urn: urn:coop:store:id:52
  city: Bromma
  latitude: 59.338739
  longitude: 17.939864

- location: Coop Kista
  urn: urn:coop:store:id:16
  city: Kista
  latitude: 59.402262
  longitude: 17.943558

- location: Coop Nynäshamn
  urn: urn:coop:store:id:17
  city: Nynäshamn
  latitude: 58.903573
  longitude: 17.94619

- location: Coop Malmvägen
  urn: urn:coop:store:id:3858
  city: Sollentuna
  latitude: 59.424838
  longitude: 17.947325

- location: Stora Coop Bromma
  urn: urn:coop:store:id:657
  city: Bromma
  latitude: 59.356611
  longitude: 17.953384

- location: Coop Mälarhöjden
  urn: urn:coop:store:id:134
  city: Hägersten
  latitude: 59.301316
  longitude: 17.957096

- location: Stora Coop Sundby Park
  urn: urn:coop:store:id:3147
  city: Sundbyberg
  latitude: 59.379154
  longitude: 17.964524

- location: Coop Fruängen
  urn: urn:coop:store:id:43
  city: Hägersten
  latitude: 59.285524
  longitude: 17.965612

- location: Coop Västertorp
  urn: urn:coop:store:id:53
  city: Hägersten
  latitude: 59.292673
  longitude: 17.967697

- location: Coop Tranebergsvägen
  urn: urn:coop:store:id:50
  city: Bromma
  latitude: 59.335367
  longitude: 17.969566

- location: Coop Grand Central
  urn: urn:coop:store:id:3534
  city: Sundbyberg
  latitude: 59.361157
  longitude: 17.971718

- location: Stora Coop Huddinge
  urn: urn:coop:store:id:28
  city: Huddinge
  latitude: 59.236163
  longitude: 17.980698

- location: Coop Råsundavägen
  urn: urn:coop:store:id:41
  city: Solna
  latitude: 59.364735
  longitude: 17.981674

- location: Coop Essingen
  urn: urn:coop:store:id:111
  city: Stockholm
  latitude: 59.321827
  longitude: 17.989419

- location: Coop Minneberg
  urn: urn:coop:store:id:57
  city: Bromma
  latitude: 59.339292
  longitude: 17.98945

- location: Coop Örnsberg
  urn: urn:coop:store:id:60
  city: Hägersten
  latitude: 59.305831
  longitude: 17.98957

- location: Coop Aspudden
  urn: urn:coop:store:id:3860
  city: Hägersten
  latitude: 59.305443
  longitude: 17.994006

- location: Coop Kristineberg
  urn: urn:coop:store:id:38
  city: Stockholm
  latitude: 59.333215
  longitude: 18.002119

- location: Coop Svandammsplan
  urn: urn:coop:store:id:129
  city: Hägersten
  latitude: 59.301084
  longitude: 18.003277

- location: Coop Västra Skogen
  urn: urn:coop:store:id:93
  city: Solna
  latitude: 59.347863
  longitude: 18.003609

- location: Coop Vasalund
  urn: urn:coop:store:id:97
  city: Solna
  latitude: 59.364527
  longitude: 18.004265

- location: Stora Coop Västberga
  urn: urn:coop:store:id:2275
  city: Hägersten
  latitude: 59.293674
  longitude: 18.004467

- location: Coop Älvsjö
  urn: urn:coop:store:id:3141
  city: Älvsjö
  latitude: 59.279035
  longitude: 18.009875

- location: Stora Coop Stuvsta
  urn: urn:coop:store:id:18
  city: Huddinge
  latitude: 59.250719
  longitude: 18.010572

- location: Coop Gröndal
  urn: urn:coop:store:id:9
  city: Stockholm
  latitude: 59.316065
  longitude: 18.011657

- location: Coop Midsommarkransen
  urn: urn:coop:store:id:8
  city: Hägersten
  latitude: 59.301654
  longitude: 18.01262

- location: Coop Reimersholme
  urn: urn:coop:store:id:133
  city: Stockholm
  latitude: 59.317478
  longitude: 18.022552

- location: Coop Liljeholmen
  urn: urn:coop:store:id:1919
  city: Stockholm
  latitude: 59.310609
  longitude: 18.023598

- location: Coop Daglivs
  urn: urn:coop:store:id:2207
  city: Stockholm
  latitude: 59.333902
  longitude: 18.032551

- location: Coop Bergshamra
  urn: urn:coop:store:id:125
  city: Solna
  latitude: 59.381229
  longitude: 18.035512

- location: Coop Tomtebogatan
  urn: urn:coop:store:id:73
  city: Stockholm
  latitude: 59.341424
  longitude: 18.035873

- location: Coop Hagastaden
  urn: urn:coop:store:id:3706
  city: Stockholm
  latitude: 59.348146
  longitude: 18.03714

- location: Coop Högdalen
  urn: urn:coop:store:id:13
  city: Bandhagen
  latitude: 59.263847
  longitude: 18.040097

- location: Coop Stamgatan
  urn: urn:coop:store:id:90
  city: Älvsjö
  latitude: 59.283642
  longitude: 18.041973

- location: Coop Storsjövägen
  urn: urn:coop:store:id:36
  city: Årsta
  latitude: 59.299328
  longitude: 18.042634

- location: Coop Rådhuset
  urn: urn:coop:store:id:72
  city: Stockholm
  latitude: 59.331581
  longitude: 18.044841

- location: Coop Tungelsta
  urn: urn:coop:store:id:22
  city: Tungelsta
  latitude: 59.103279
  longitude: 18.045142

- location: Stora Coop Danderyd
  urn: urn:coop:store:id:2703
  city: Danderyd
  latitude: 59.42144
  longitude: 18.046015

- location: Coop Almunge
  urn: urn:coop:store:id:219
  city: Knivsta
  latitude: 59.875784
  longitude: 18.046438

- location: Coop Norrtull
  urn: urn:coop:store:id:2801
  city: Stockholm
  latitude: 59.346602
  longitude: 18.047061

- location: Coop Zinken
  urn: urn:coop:store:id:86
  city: Stockholm
  latitude: 59.317557
  longitude: 18.050946

- location: Coop Odenplan
  urn: urn:coop:store:id:7
  city: Stockholm
  latitude: 59.342979
  longitude: 18.052026

- location: Coop Centralen
  urn: urn:coop:store:id:3079
  city: Stockholm
  latitude: 59.329595
  longitude: 18.058998

- location: Coop Sveavägen
  urn: urn:coop:store:id:127
  city: Stockholm
  latitude: 59.339462
  longitude: 18.060179

- location: Coop Odengatan
  urn: urn:coop:store:id:80
  city: Stockholm
  latitude: 59.345135
  longitude: 18.060836

- location: Coop Mariatorget
  urn: urn:coop:store:id:46
  city: Stockholm
  latitude: 59.318968
  longitude: 18.062335

- location: Coop Hötorget
  urn: urn:coop:store:id:3414
  city: Stockholm
  latitude: 59.335233
  longitude: 18.06322

- location: Coop Södra Station
  urn: urn:coop:store:id:40
  city: Stockholm
  latitude: 59.314053
  longitude: 18.065083

- location: Coop Grindsgatan
  urn: urn:coop:store:id:131
  city: Stockholm
  latitude: 59.309315
  longitude: 18.066982

- location: Coop Epicenter
  urn: urn:coop:store:id:3757
  city: Stockholm
  latitude: 59.334557
  longitude: 18.067517

- location: Coop Medborgarplatsen
  urn: urn:coop:store:id:2305
  city: Stockholm
  latitude: 59.314946
  longitude: 18.070078

- location: Coop Sockenplan
  urn: urn:coop:store:id:83
  city: Enskede
  latitude: 59.282723
  longitude: 18.072799

- location: Coop Järntorget
  urn: urn:coop:store:id:104
  city: Stockholm
  latitude: 59.322603
  longitude: 18.072802

- location: Coop Stadion
  urn: urn:coop:store:id:1849
  city: Stockholm
  latitude: 59.340277
  longitude: 18.078409

- location: Coop Östgötagatan
  urn: urn:coop:store:id:126
  city: Stockholm
  latitude: 59.310095
  longitude: 18.078906

- location: Coop Vallentuna
  urn: urn:coop:store:id:185
  city: Vallentuna
  latitude: 59.534536
  longitude: 18.078959

- location: Coop Nytorgsgatan
  urn: urn:coop:store:id:137
  city: Stockholm
  latitude: 59.314388
  longitude: 18.081951

- location: Coop Gubbängen
  urn: urn:coop:store:id:69
  city: Enskede
  latitude: 59.262301
  longitude: 18.083193

- location: Coop Renstiernas gata
  urn: urn:coop:store:id:3413
  city: Stockholm
  latitude: 59.313863
  longitude: 18.084779

- location: Coop Storgatan
  urn: urn:coop:store:id:79
  city: Stockholm
  latitude: 59.334667
  longitude: 18.085961

- location: Coop Djursholm
  urn: urn:coop:store:id:106
  city: Djursholm
  latitude: 59.397681
  longitude: 18.086373

- location: Coop Vintertullen
  urn: urn:coop:store:id:47
  city: Stockholm
  latitude: 59.308097
  longitude: 18.090996

- location: Coop Norra Djurgårdsstaden
  urn: urn:coop:store:id:3484
  city: Stockholm
  latitude: 59.358617
  longitude: 18.091068

- location: Coop Erik Dahlbergsgatan
  urn: urn:coop:store:id:61
  city: Stockholm
  latitude: 59.342298
  longitude: 18.091202

- location: Coop Farsta
  urn: urn:coop:store:id:32
  city: Farsta
  latitude: 59.242948
  longitude: 18.091403

- location: Coop Bondegatan
  urn: urn:coop:store:id:76
  city: Stockholm
  latitude: 59.313507
  longitude: 18.0928

- location: Coop Garnisonen
  urn: urn:coop:store:id:62
  city: Stockholm
  latitude: 59.335979
  longitude: 18.097193

- location: Coop Finn Malmgren
  urn: urn:coop:store:id:55
  city: Johanneshov
  latitude: 59.295425
  longitude: 18.101242

- location: Coop Farsta Strand
  urn: urn:coop:store:id:51
  city: Farsta
  latitude: 59.235109
  longitude: 18.102129

- location: Coop Hammarby Sjöstad
  urn: urn:coop:store:id:1906
  city: Stockholm
  latitude: 59.302483
  longitude: 18.102824

- location: Coop Västerhaninge Centrum
  urn: urn:coop:store:id:25
  city: Västerhaninge
  latitude: 59.122478
  longitude: 18.105259

- location: Coop Ribby
  urn: urn:coop:store:id:105
  city: Västerhaninge
  latitude: 59.115428
  longitude: 18.107825

- location: Coop Bredbyn
  urn: urn:coop:store:id:616
  city: Bredbyn
  latitude: 63.448
  longitude: 18.110049

- location: Coop Kärrtorp
  urn: urn:coop:store:id:11
  city: Johanneshov
  latitude: 59.28396
  longitude: 18.113791

- location: Coop Björkhagen
  urn: urn:coop:store:id:44
  city: Johanneshov
  latitude: 59.290248
  longitude: 18.116726

- location: Coop Torsvik
  urn: urn:coop:store:id:2802
  city: Lidingö
  latitude: 59.362994
  longitude: 18.123378

- location: Coop Bagarmossen
  urn: urn:coop:store:id:56
  city: Bagarmossen
  latitude: 59.276839
  longitude: 18.131995

- location: Coop Skeppet
  urn: urn:coop:store:id:2800
  city: Lidingö
  latitude: 59.366258
  longitude: 18.134737

- location: Coop Skarpnäck
  urn: urn:coop:store:id:42
  city: Skarpnäck
  latitude: 59.265991
  longitude: 18.135009

- location: Stora Coop Arninge
  urn: urn:coop:store:id:3719
  city: Täby
  latitude: 59.460111
  longitude: 18.137115

- location: Coop Haningeterrassen
  urn: urn:coop:store:id:3520
  city: Handen
  latitude: 59.167502
  longitude: 18.137123

- location: Coop Kvarnholmen
  urn: urn:coop:store:id:3505
  city: Nacka
  latitude: 59.316537
  longitude: 18.139187

- location: Coop Forum Haninge
  urn: urn:coop:store:id:636
  city: Haninge
  latitude: 59.179208
  longitude: 18.14987

- location: Coop Katterjåkk
  urn: urn:coop:store:id:2294
  city: Riksgränsen
  latitude: 68.424931
  longitude: 18.161048

- location: Coop Vendelsömalm
  urn: urn:coop:store:id:130
  city: Haninge
  latitude: 59.179734
  longitude: 18.180246

- location: Coop Älta Gård
  urn: urn:coop:store:id:66
  city: Älta
  latitude: 59.261405
  longitude: 18.183507

- location: Coop Ullånger
  urn: urn:coop:store:id:3525
  city: Ullånger
  latitude: 63.00952
  longitude: 18.186549

- location: Coop Klintehamn
  urn: urn:coop:store:id:187
  city: Klintehamn
  latitude: 57.387344
  longitude: 18.204206

- location: Coop Farmarstigen
  urn: urn:coop:store:id:115
  city: Tyresö
  latitude: 59.232944
  longitude: 18.22744

- location: Coop Tyresö
  urn: urn:coop:store:id:30
  city: Tyresö
  latitude: 59.243877
  longitude: 18.230599

- location: Stora Coop Orminge
  urn: urn:coop:store:id:89
  city: Saltsjö-Boo
  latitude: 59.326738
  longitude: 18.257096

- location: Stora Coop Åkersberga
  urn: urn:coop:store:id:2814
  city: Åkersberga
  latitude: 59.487422
  longitude: 18.272956

- location: Coop Tyresö Strand
  urn: urn:coop:store:id:2267
  city: Tyresö
  latitude: 59.241679
  longitude: 18.284346

- location: Coop Gråbo
  urn: urn:coop:store:id:164
  city: Visby
  latitude: 57.619011
  longitude: 18.301147

- location: Coop Öster
  urn: urn:coop:store:id:3088
  city: Visby
  latitude: 57.637725
  longitude: 18.301442

- location: Coop Mellansel
  urn: urn:coop:store:id:615
  city: Mellansel
  latitude: 63.426606
  longitude: 18.308467

- location: Stora Coop Visby
  urn: urn:coop:store:id:3225
  city: Visby
  latitude: 57.621746
  longitude: 18.322646

- location: Coop Energivägen Östhammar
  urn: urn:coop:store:id:1997
  city: Östhammar
  latitude: 60.24879
  longitude: 18.350689

- location: Coop Vaxholm
  urn: urn:coop:store:id:23
  city: Vaxholm
  latitude: 59.402994
  longitude: 18.350722

- location: Coop Rimbo
  urn: urn:coop:store:id:200
  city: Rimbo
  latitude: 59.743325
  longitude: 18.367092

- location: Coop Östhammar Centrum
  urn: urn:coop:store:id:203
  city: Östhammar
  latitude: 60.258375
  longitude: 18.372414

- location: Coop Hemse
  urn: urn:coop:store:id:190
  city: Hemse
  latitude: 57.238933
  longitude: 18.377182

- location: Stora Coop Värmdö
  urn: urn:coop:store:id:1927
  city: Gustavsberg
  latitude: 59.309233
  longitude: 18.383266

- location: Coop Gustavsberg
  urn: urn:coop:store:id:1931
  city: Gustavsberg
  latitude: 59.327493
  longitude: 18.392259

- location: Coop Öregrund
  urn: urn:coop:store:id:205
  city: Öregrund
  latitude: 60.3369
  longitude: 18.440081

- location: Coop Roma
  urn: urn:coop:store:id:188
  city: Romakloster
  latitude: 57.504632
  longitude: 18.455877

- location: Coop Hemmesta
  urn: urn:coop:store:id:168
  city: Värmdö
  latitude: 59.322482
  longitude: 18.488138

- location: Coop Köpmanholmen
  urn: urn:coop:store:id:613
  city: Köpmanholmen
  latitude: 63.167848
  longitude: 18.563194

- location: Coop Hallstavik
  urn: urn:coop:store:id:202
  city: Hallstavik
  latitude: 60.049616
  longitude: 18.596299

- location: Coop Björna
  urn: urn:coop:store:id:3649
  city: Björna
  latitude: 63.551832
  longitude: 18.59828

- location: Coop Själevad
  urn: urn:coop:store:id:618
  city: Själevad
  latitude: 63.29451
  longitude: 18.622935

- location: Stora Coop Norrteljeporten
  urn: urn:coop:store:id:3478
  city: Norrtälje
  latitude: 59.746374
  longitude: 18.676548

- location: Coop Lycksele
  urn: urn:coop:store:id:1435
  city: Lycksele
  latitude: 64.594457
  longitude: 18.677064

- location: Coop Hörnett
  urn: urn:coop:store:id:1922
  city: Domsjö
  latitude: 63.272129
  longitude: 18.690582

- location: Coop Ljugarn
  urn: urn:coop:store:id:189
  city: Ljugarn
  latitude: 57.332946
  longitude: 18.702254

- location: Coop Gullänget
  urn: urn:coop:store:id:3455
  city: Örnsköldsvik
  latitude: 63.313941
  longitude: 18.70379

- location: Coop City Örnsköldsvik
  urn: urn:coop:store:id:3768
  city: Örnsköldsvik
  latitude: 63.289132
  longitude: 18.714922

- location: Coop Grindvägen
  urn: urn:coop:store:id:220
  city: Norrtälje
  latitude: 59.76766
  longitude: 18.720224

- location: Stora Coop Örnsköldsvik
  urn: urn:coop:store:id:631
  city: Örnsköldsvik
  latitude: 63.302679
  longitude: 18.734249

- location: Coop Malå
  urn: urn:coop:store:id:1445
  city: Malå
  latitude: 65.183691
  longitude: 18.739816

- location: Coop Ingmarsö
  urn: urn:coop:store:id:3496
  city: Ingmarsö
  latitude: 59.466206
  longitude: 18.751749

- location: Coop Lärbro
  urn: urn:coop:store:id:191
  city: Lärbro
  latitude: 57.784758
  longitude: 18.788894

- location: Coop Slite
  urn: urn:coop:store:id:194
  city: Slite
  latitude: 57.704254
  longitude: 18.803263

- location: Coop Trehörningsjö
  urn: urn:coop:store:id:622
  city: Trehörningsjö
  latitude: 63.693764
  longitude: 18.865858

- location: Coop Berg
  urn: urn:coop:store:id:966
  city: Möja
  latitude: 59.406683
  longitude: 18.886961

- location: Coop Långvik
  urn: urn:coop:store:id:967
  city: Möja
  latitude: 59.442397
  longitude: 18.920723

- location: Coop Arvidsjaur
  urn: urn:coop:store:id:1561
  city: Arvidsjaur
  latitude: 65.59233
  longitude: 19.177745

- location: Coop Bjurholm
  urn: urn:coop:store:id:1476
  city: Bjurholm
  latitude: 63.932251
  longitude: 19.216658

- location: Coop Norsjö
  urn: urn:coop:store:id:1443
  city: Norsjö
  latitude: 64.913297
  longitude: 19.478668

- location: Coop Nordmaling
  urn: urn:coop:store:id:1450
  city: Nordmaling
  latitude: 63.570116
  longitude: 19.497399

- location: Coop Vindeln
  urn: urn:coop:store:id:1455
  city: Vindeln
  latitude: 64.199472
  longitude: 19.717609

- location: Coop Vännäs
  urn: urn:coop:store:id:924
  city: Vännäs
  latitude: 63.906885
  longitude: 19.75142

- location: Coop Vännäsby
  urn: urn:coop:store:id:1464
  city: Vännäsby
  latitude: 63.912929
  longitude: 19.820744

- location: Coop Jokkmokk
  urn: urn:coop:store:id:1573
  city: Jokkmokk
  latitude: 66.606397
  longitude: 19.8276

- location: Coop Hörnefors
  urn: urn:coop:store:id:1453
  city: Hörnefors
  latitude: 63.626379
  longitude: 19.907841

- location: Coop Jörn
  urn: urn:coop:store:id:1483
  city: Jörn
  latitude: 65.059536
  longitude: 20.037433

- location: Coop Röbäck
  urn: urn:coop:store:id:3486
  city: Röbäck
  latitude: 63.809151
  longitude: 20.186676

- location: Coop Grisbacka
  urn: urn:coop:store:id:1474
  city: Umeå
  latitude: 63.83346
  longitude: 20.217061

- location: Coop Föraregatan
  urn: urn:coop:store:id:1576
  city: Kiruna
  latitude: 67.865103
  longitude: 20.22495

- location: Coop Trädgårdsgatan
  urn: urn:coop:store:id:1578
  city: Kiruna
  latitude: 67.847291
  longitude: 20.232737

- location: Coop Lappgatan
  urn: urn:coop:store:id:1577
  city: Kiruna
  latitude: 67.855994
  longitude: 20.242154

- location: Coop Teg
  urn: urn:coop:store:id:1471
  city: Umeå
  latitude: 63.820137
  longitude: 20.253198

- location: Stora Coop Kiruna
  urn: urn:coop:store:id:1539
  city: Kiruna
  latitude: 67.844313
  longitude: 20.254093

- location: Coop City Umeå
  urn: urn:coop:store:id:1433
  city: Umeå
  latitude: 63.826014
  longitude: 20.260801

- location: Coop Haga Umeå
  urn: urn:coop:store:id:1465
  city: Umeå
  latitude: 63.836758
  longitude: 20.282451

- location: Stora Coop Ersboda
  urn: urn:coop:store:id:1437
  city: Umeå
  latitude: 63.850604
  longitude: 20.29991

- location: Coop Ålidhem
  urn: urn:coop:store:id:1449
  city: Umeå
  latitude: 63.81226
  longitude: 20.314718

- location: Coop Mariehem
  urn: urn:coop:store:id:3502
  city: Umeå
  latitude: 63.834022
  longitude: 20.327244

- location: Stora Coop Tomtebo
  urn: urn:coop:store:id:3516
  city: Umeå
  latitude: 63.810983
  longitude: 20.330785

- location: Coop Ersboda
  urn: urn:coop:store:id:1462
  city: Umeå
  latitude: 63.857581
  longitude: 20.334069

- location: Coop Holmsund
  urn: urn:coop:store:id:1452
  city: Holmsund
  latitude: 63.708428
  longitude: 20.364791

- location: Coop Vuollerim
  urn: urn:coop:store:id:1616
  city: Vuollerim
  latitude: 66.430447
  longitude: 20.604422

- location: Coop Jukkasjärvi
  urn: urn:coop:store:id:1581
  city: Jukkasjärvi
  latitude: 67.849365
  longitude: 20.60836

- location: Coop Burträsk
  urn: urn:coop:store:id:922
  city: Burträsk
  latitude: 64.520068
  longitude: 20.658049

- location: Stora Coop Gällivare
  urn: urn:coop:store:id:1850
  city: Gällivare
  latitude: 67.149094
  longitude: 20.659358

- location: Coop Gällivare Centrum
  urn: urn:coop:store:id:1553
  city: Gällivare
  latitude: 67.13459
  longitude: 20.661571

- location: Coop Gällivare Luleåvägen
  urn: urn:coop:store:id:2798
  city: Gällivare
  latitude: 67.134925
  longitude: 20.67948

- location: Coop Robertsfors
  urn: urn:coop:store:id:1454
  city: Robertsfors
  latitude: 64.192984
  longitude: 20.84746

- location: Coop Harads
  urn: urn:coop:store:id:1560
  city: Harads
  latitude: 66.085959
  longitude: 20.95219

- location: Coop Erikslid
  urn: urn:coop:store:id:1495
  city: Skellefteå
  latitude: 64.76091
  longitude: 20.954014

- location: Stora Coop Anderstorp
  urn: urn:coop:store:id:1436
  city: Skellefteå
  latitude: 64.73842
  longitude: 20.966646

- location: Stora Coop Hem och Trädgård Skellefteå
  urn: urn:coop:store:id:2477
  city: Skellefteå
  latitude: 64.736476
  longitude: 20.968758

- location: Coop Älvsbyn
  urn: urn:coop:store:id:1558
  city: Älvsbyn
  latitude: 65.673132
  longitude: 21.009791

- location: Coop Ånäset
  urn: urn:coop:store:id:3492
  city: Ånäset
  latitude: 64.278157
  longitude: 21.041021

- location: Coop Svappavaara
  urn: urn:coop:store:id:1580
  city: Svappavaara
  latitude: 67.647509
  longitude: 21.047789

- location: Coop Ursviken
  urn: urn:coop:store:id:1494
  city: Ursviken
  latitude: 64.707851
  longitude: 21.174698

- location: Coop Bureå
  urn: urn:coop:store:id:1442
  city: Bureå
  latitude: 64.618477
  longitude: 21.201128

- location: Coop Byske
  urn: urn:coop:store:id:1441
  city: Byske
  latitude: 64.953041
  longitude: 21.203588

- location: Coop Lövånger
  urn: urn:coop:store:id:1485
  city: Lövånger
  latitude: 64.370514
  longitude: 21.311715

- location: Coop Öjebyn
  urn: urn:coop:store:id:1563
  city: Öjebyn
  latitude: 65.342067
  longitude: 21.394832

- location: Coop Norra Ringen
  urn: urn:coop:store:id:3545
  city: Piteå
  latitude: 65.329862
  longitude: 21.463801

- location: Stora Coop Piteå
  urn: urn:coop:store:id:1570
  city: Piteå
  latitude: 65.316518
  longitude: 21.474335

- location: Coop Munksund
  urn: urn:coop:store:id:1592
  city: Piteå
  latitude: 65.284976
  longitude: 21.498041

- location: Coop Strömlida
  urn: urn:coop:store:id:3888
  city: Piteå
  latitude: 65.315335
  longitude: 21.500656

- location: Coop Vittangi
  urn: urn:coop:store:id:1579
  city: Vittangi
  latitude: 67.677311
  longitude: 21.645113

- location: Coop Sveafältet
  urn: urn:coop:store:id:1597
  city: Boden
  latitude: 65.819251
  longitude: 21.672527

- location: Stora Coop Boden
  urn: urn:coop:store:id:1546
  city: Boden
  latitude: 65.825083
  longitude: 21.684923

- location: Coop Rosvik
  urn: urn:coop:store:id:1566
  city: Rosvik
  latitude: 65.431038
  longitude: 21.690535

- location: Stora Coop Storheden
  urn: urn:coop:store:id:1551
  city: Luleå
  latitude: 65.618169
  longitude: 22.041712

- location: Coop Bergnäset
  urn: urn:coop:store:id:1567
  city: Luleå
  latitude: 65.574039
  longitude: 22.106596

- location: Coop Mjölkudden
  urn: urn:coop:store:id:1609
  city: Luleå
  latitude: 65.600952
  longitude: 22.131058

- location: Coop Varvet
  urn: urn:coop:store:id:3536
  city: Luleå
  latitude: 65.579577
  longitude: 22.139203

- location: Coop Kallkällan
  urn: urn:coop:store:id:3885
  city: Luleå
  latitude: 65.601006
  longitude: 22.152366

- location: Coop Loet
  urn: urn:coop:store:id:2450
  city: Luleå
  latitude: 65.585009
  longitude: 22.158482

- location: Coop Björkskatan
  urn: urn:coop:store:id:1565
  city: Luleå
  latitude: 65.614887
  longitude: 22.177379

- location: Stora Coop Örnäset
  urn: urn:coop:store:id:1926
  city: Luleå
  latitude: 65.578937
  longitude: 22.198985

- location: Coop Råneå
  urn: urn:coop:store:id:1569
  city: Råneå
  latitude: 65.855512
  longitude: 22.290222

- location: Coop Överkalix
  urn: urn:coop:store:id:1556
  city: Överkalix
  latitude: 66.325125
  longitude: 22.84557

- location: Stora Coop Kalix
  urn: urn:coop:store:id:1544
  city: Kalix
  latitude: 65.854853
  longitude: 23.144592

- location: Coop Pajala
  urn: urn:coop:store:id:1559
  city: Pajala
  latitude: 67.212662
  longitude: 23.369064

- location: Coop Sangis
  urn: urn:coop:store:id:1604
  city: Sangis
  latitude: 65.857284
  longitude: 23.49318

- location: Coop Övertorneå
  urn: urn:coop:store:id:1557
  city: Övertorneå
  latitude: 66.387661
  longitude: 23.658571

- location: Coop Haparanda
  urn: urn:coop:store:id:1571
  city: Haparanda
  latitude: 65.840518
  longitude: 24.133671

- location: Coop Skorped
  urn: urn:coop:store:id:625
  city: Skorped
  latitude: 36.757909
  longitude: 83.745036
