meta:
  name: Folkets Hus och Parker
  web: https://www.folketshusochparker.se/
  wikipedia: null
  category: Folkets Hus och Parker
  locations: 498
locations:

- location: Anderstorps Byggnadsförening
  urn: null
  city: Jönköping
  county: Jönköping
  country: Sverige
  latitude: 57.2823889
  longitude: 13.6339173

- location: Värnamo Folkets Hus och Park
  urn: null
  city: Jönköping
  county: Jönköping
  country: Sverige
  latitude: 57.1849181
  longitude: 14.0423705

- location: Högsjö Folkets Hus
  urn: null
  city: Södermanland
  county: Södermanland
  country: Sverige
  latitude: 59.0286286
  longitude: 15.6653761

- location: Töre Folkets Hus
  urn: null
  city: Norrbotten
  county: Norrbotten
  country: Sverige
  latitude: 65.9135137
  longitude: 22.6477965

- location: Ulvsjöns Folkets Hus
  urn: null
  city: Västernorrland
  county: Västernorrland
  country: Sverige
  latitude: 62.2651078
  longitude: 16.4463614

- location: Ambjörby Folkets Hus
  urn: null
  city: Värmland
  county: Värmland
  country: Sverige
  latitude: 60.5106527
  longitude: 13.1512412

- location: Tysslinge Kulturförening
  urn: null
  city: Örebro
  county: Örebro
  country: Sverige
  latitude: 59.2541098
  longitude: 14.9561188

- location: Kuivakangas Folkets Hus
  urn: null
  city: Norrbotten
  county: Norrbotten
  country: Sverige
  latitude: 66.4218685
  longitude: 23.6260091

- location: Folkets Husby
  urn: null
  city: Stockholm
  county: Stockholm
  country: Sverige
  latitude: 59.4092156
  longitude: 17.9266913

- location: Kvidinge Folkets Hus
  urn: null
  city: Skåne
  county: Skåne
  country: Sverige
  latitude: 56.1340896
  longitude: 13.054381

- location: Björkhagens Hjärta
  urn: null
  city: Stockholm
  county: Stockholm
  country: Sverige
  latitude: null
  longitude: null

- location: Alfta Spelförening
  urn: null
  city: Gävleborg
  county: Gävleborg
  country: Sverige
  latitude: null
  longitude: null

- location: Röda Kvarn Kultur
  urn: null
  city: Gävleborg
  county: Gävleborg
  country: Sverige
  latitude: 61.8300781
  longitude: 16.0878612

- location: Västra Fäladens Folkets Hus
  urn: null
  city: 261 45 Landskrona
  county: Skåne
  country: Sverige
  latitude: 55.8886407
  longitude: 12.8239689

- location: Ljungsbro Folkets Park
  urn: null
  city: 585 74 Ljungsbro
  county: Östergötland
  country: Sverige
  latitude: 58.505411
  longitude: 15.4942523

- location: Abborrträsk Folkets Hus
  urn: null
  city: Abborrträsk
  county: Norrbotten
  country: Sverige
  latitude: 65.4473259
  longitude: 19.384355

- location: Ale Folkets Hus
  urn: null
  city: Alafors
  county: Västra Götaland
  country: Sverige
  latitude: 57.9266385879374
  longitude: 12.0838814330658

- location: Bybergets Folkets Hus
  urn: null
  city: Alby
  county: Västernorrland
  country: Sverige
  latitude: 62.4923744
  longitude: 15.2812606

- location: Alingsås Folkets Hus
  urn: null
  city: Alingsås
  county: Västra Götaland
  country: Sverige
  latitude: 57.9290765
  longitude: 12.5365308

- location: Alsterbro Byggnadsförening
  urn: null
  city: Alsterbro
  county: Kalmar
  country: Sverige
  latitude: 56.9469357
  longitude: 15.9116977

- location: Alstermo Folkets Hus och Park
  urn: null
  city: Alstermo
  county: Kronoberg
  country: Sverige
  latitude: 56.976322
  longitude: 15.6534058

- location: Alvesta Folkets Hus
  urn: null
  city: Alvesta
  county: Kronoberg
  country: Sverige
  latitude: 56.9014448
  longitude: 14.5533981

- location: Anderslövs Folkets Hus
  urn: null
  city: Anderslöv
  county: Skåne
  country: Sverige
  latitude: 55.3826322
  longitude: 13.4721021

- location: Aneby Konserthus
  urn: null
  city: Aneby
  county: Jönköping
  country: Sverige
  latitude: 57.8353008
  longitude: 14.8155803

- location: Aneby Folkets Park
  urn: null
  city: null
  county: null
  country: Sverige
  latitude: 57.8296738
  longitude: 14.8244304

- location: Hammarkullens Folkets Hus
  urn: null
  city: Angered
  county: Västra Götaland
  country: Sverige
  latitude: 57.780245
  longitude: 12.0359159

- location: Ankarsrum Folkets Hus
  urn: null
  city: Ankarsrum
  county: Kalmar
  country: Sverige
  latitude: 57.7029239
  longitude: 16.3332043

- location: Pilaboparken
  urn: null
  city: Anneberg
  county: Jönköping
  country: Sverige
  latitude: 57.7239595007249
  longitude: 14.8177423153443

- location: Arboga Folkets Park
  urn: null
  city: Arboga
  county: Västmanland
  country: Sverige
  latitude: 59.3860848
  longitude: 15.8269342999999

- location: Arboga Digitala Hus
  urn: null
  city: Arboga
  county: Västmanland
  country: Sverige
  latitude: 59.3953602
  longitude: 15.8395982

- location: Arjeplogs Biograf
  urn: null
  city: Arjeplog
  county: Norrbotten
  country: Sverige
  latitude: 66.0519063
  longitude: 17.8895428000001

- location: Arkelstorps Folkets Hus
  urn: null
  city: Arkelstorp
  county: Skåne
  country: Sverige
  latitude: 56.1745466
  longitude: 14.2795987

- location: Arvika-parken
  urn: null
  city: Arvika
  county: Värmland
  country: Sverige
  latitude: 59.6507815
  longitude: 12.6201725

- location: Jössefors Folkets Hus
  urn: null
  city: Arvika
  county: Värmland
  country: Sverige
  latitude: 59.6733046203038
  longitude: 12.4895453453064

- location: Askersunds Folkets Hus
  urn: null
  city: Askersund
  county: Örebro
  country: Sverige
  latitude: 58.8792473
  longitude: 14.9060404

- location: Asmundtorps Folkets Hus
  urn: null
  city: Asmundtorp
  county: Skåne
  country: Sverige
  latitude: 55.8852255
  longitude: 12.9376472

- location: Aspö Folkets Hus
  urn: null
  city: Aspö/Drottningskär
  county: Blekinge
  country: Sverige
  latitude: 56.1100889
  longitude: 15.543243

- location: Bagarmossens Folkets Hus
  urn: null
  city: Bagarmossen
  county: Stockholm
  country: Sverige
  latitude: 59.2768688
  longitude: 18.1327953

- location: Rågsveds Folkets Hus
  urn: null
  city: Bandhagen
  county: Stockholm
  country: Sverige
  latitude: 59.2572507
  longitude: 18.0274916999999

- location: Bastuträsk Folkets Hus
  urn: null
  city: Bastuträsk
  county: Västerbotten
  country: Sverige
  latitude: 64.7912811
  longitude: 20.0366617

- location: Folkparken Valhalls Framtid
  urn: null
  city: Bengtsfors
  county: Västra Götaland
  country: Sverige
  latitude: 59.0287109
  longitude: 12.2128675

- location: Berga Bio & Teater
  urn: null
  city: Berga
  county: Kalmar
  country: Sverige
  latitude: 57.21846
  longitude: 16.0327041

- location: Eklunda Bio
  urn: null
  city: Bestorp
  county: Östergötland
  country: Sverige
  latitude: 58.2344907
  longitude: 15.7290453

- location: Billesholms Folkets Hus och Park
  urn: null
  city: Billesholm
  county: Skåne
  country: Sverige
  latitude: 56.0667376
  longitude: 12.9743543

- location: Ängebo Folkets Hus
  urn: null
  city: Bjuråker
  county: Gävleborg
  country: Sverige
  latitude: 61.9704863936359
  longitude: 16.3406828753937

- location: Marieberg Folkets Hus
  urn: null
  city: Bjärtrå
  county: Västernorrland
  country: Sverige
  latitude: 62.9813609
  longitude: 17.7928691

- location: Björkviks Folkets park
  urn: null
  city: Björkvik
  county: Södermanland
  country: Sverige
  latitude: 58.8140476
  longitude: 16.4579343

- location: Björneborgs Folkets Hus och Park
  urn: null
  city: Björneborg
  county: Värmland
  country: Sverige
  latitude: 59.2411751
  longitude: 14.2486226999999

- location: Folkets Hus Boden
  urn: null
  city: Boden
  county: Norrbotten
  country: Sverige
  latitude: 65.8243724
  longitude: 21.6867512

- location: Malmöns Folkets Hus
  urn: null
  city: Bohus-Malmön
  county: Västra Götaland
  country: Sverige
  latitude: 58.3425109
  longitude: 11.3359945

- location: Bolidens Folkets Hus
  urn: null
  city: Boliden
  county: Västerbotten
  country: Sverige
  latitude: 64.8702573
  longitude: 20.3780534

- location: Bonäsets Folket Hus
  urn: null
  city: Bonässund
  county: Västernorrland
  country: Sverige
  latitude: 63.2622326
  longitude: 18.7835454

- location: Hällagården
  urn: null
  city: Borensberg
  county: Östergötland
  country: Sverige
  latitude: 58.5633722
  longitude: 15.2721481

- location: Borensbergs Folkets Park
  urn: null
  city: Borensberg
  county: Östergötland
  country: Sverige
  latitude: 58.555471
  longitude: 15.3051662

- location: Borgholms Folkets Hus
  urn: null
  city: Borgholm
  county: Kalmar
  country: Sverige
  latitude: 56.8779979
  longitude: 16.6632165999999

- location: Borlänge Folkets Hus
  urn: null
  city: Borlänge
  county: Dalarna
  country: Sverige
  latitude: 60.4881528
  longitude: 15.4303898000001

- location: Borrby Biografförening
  urn: null
  city: Borrby
  county: Skåne
  country: Sverige
  latitude: 55.4573471
  longitude: 14.1789019

- location: Boxholms Folkets Hus
  urn: null
  city: Boxholm
  county: Östergötland
  country: Sverige
  latitude: 58.1961844
  longitude: 15.0513981

- location: På gång i Boxholm
  urn: null
  city: Boxholm
  county: Östergötland
  country: Sverige
  latitude: 58.1867596
  longitude: 15.058867

- location: Brastads Folkets Hus
  urn: null
  city: Brastad
  county: Västra Götaland
  country: Sverige
  latitude: 58.3846881
  longitude: 11.4872035999999

- location: Härnäsets Folkets Hus
  urn: null
  city: Brastad
  county: Västra Götaland
  country: Sverige
  latitude: 58.3746255
  longitude: 11.3994087

- location: Brevens Folkets Hus
  urn: null
  city: Brevens Bruk
  county: Örebro
  country: Sverige
  latitude: 59.0156048
  longitude: 15.5800403

- location: Alviks Kulturhus
  urn: null
  city: Bromma
  county: Stockholm
  country: Sverige
  latitude: 59.3332282
  longitude: 17.9790452

- location: Bromölla Folkets Hus och Park
  urn: null
  city: Bromölla
  county: Skåne
  country: Sverige
  latitude: 56.0757463
  longitude: 14.4839380999999

- location: Bruzaholms Folkets Hus
  urn: null
  city: Bruzaholm
  county: Jönköping
  country: Sverige
  latitude: 57.6433624
  longitude: 15.2702702

- location: Bräcke Folkets Hus
  urn: null
  city: Bräcke
  county: Jämtland
  country: Sverige
  latitude: 62.7495564
  longitude: 15.4216590999999

- location: Hunge Folkets Hus
  urn: null
  city: Bräcke
  county: Jämtland
  country: Sverige
  latitude: 62.7540978
  longitude: 15.0712215

- location: Bräkne-Hoby Folkets Hus
  urn: null
  city: Bräkne-Hoby
  county: Blekinge
  country: Sverige
  latitude: 56.2288939
  longitude: 15.1121697

- location: Burträskarnas Hus
  urn: null
  city: Burträsk
  county: Västerbotten
  country: Sverige
  latitude: 64.5116735
  longitude: 20.6485381

- location: Föreningshuset Gullringen
  urn: null
  city: Byske
  county: Västerbotten
  country: Sverige
  latitude: 64.9463713
  longitude: 21.2128354

- location: Borgen Bålsta
  urn: null
  city: null
  county: null
  country: Sverige
  latitude: null
  longitude: null

- location: Båtskärsnäs Folkets Hus
  urn: null
  city: Båtskärsnäs
  county: Norrbotten
  country: Sverige
  latitude: 65.7810667
  longitude: 23.4244621

- location: Häljeboda Folkets Hus
  urn: null
  city: Charlottenberg
  county: Värmland
  country: Sverige
  latitude: 59.9744738019432
  longitude: 12.4109434127807

- location: Strandbackens Folkpark
  urn: null
  city: Dala-Floda
  county: Dalarna
  country: Sverige
  latitude: 60.5103519
  longitude: 14.7891424

- location: Mustadfors Folkets Hus
  urn: null
  city: Dals Långed
  county: Västra Götaland
  country: Sverige
  latitude: 58.9217374
  longitude: 12.3106328

- location: Dalsjöfors Folkets Park
  urn: null
  city: Dalsjöfors
  county: Västra Götaland
  country: Sverige
  latitude: 57.7174831
  longitude: 13.1196963

- location: Degerfors Folkets Hus
  urn: null
  city: Degerfors
  county: Örebro
  country: Sverige
  latitude: 59.2369217
  longitude: 14.4315567

- location: Degerfors Folkets Park
  urn: null
  city: Degerfors
  county: Örebro
  country: Sverige
  latitude: 59.2392077
  longitude: 14.425782

- location: Degerhamns Folkets Hus
  urn: null
  city: Degerhamn
  county: Kalmar
  country: Sverige
  latitude: 56.3543907
  longitude: 16.4215127

- location: Deje Folkets Hus
  urn: null
  city: Deje
  county: Värmland
  country: Sverige
  latitude: 59.6054672
  longitude: 13.4648331

- location: Delsbo Folkets Hus
  urn: null
  city: Delsbo
  county: Gävleborg
  country: Sverige
  latitude: 61.7978163
  longitude: 16.5435296000001

- location: Diö Folkets Hus
  urn: null
  city: Diö
  county: Kronoberg
  country: Sverige
  latitude: 56.6365709
  longitude: 14.216999

- location: Dorotea Folkets Hus
  urn: null
  city: Dorotea
  county: Västerbotten
  country: Sverige
  latitude: 64.2639562
  longitude: 16.41652

- location: Axberg Folkets Hus
  urn: null
  city: Dyltabruk
  county: Örebro
  country: Sverige
  latitude: 59.3897475
  longitude: 15.2398747

- location: Edsvalla Folkets Hus
  urn: null
  city: Edsvalla
  county: Värmland
  country: Sverige
  latitude: 59.4369251
  longitude: 13.2096991

- location: Ekshärads Folkets Hus
  urn: null
  city: Ekshärad
  county: Värmland
  country: Sverige
  latitude: 60.18368
  longitude: 13.52396

- location: Metropolbiografen
  urn: null
  city: Eksjö
  county: Jönköping
  country: Sverige
  latitude: 57.6674699
  longitude: 14.9701718

- location: Ellösparken
  urn: null
  city: Ellös
  county: Västra Götaland
  country: Sverige
  latitude: 58.1767846
  longitude: 11.4814099

- location: Emmaboda Folkets Hus
  urn: null
  city: Emmaboda
  county: Kalmar
  country: Sverige
  latitude: 56.630236703874
  longitude: 15.5420412423279

- location: Enköpings Folkets hus
  urn: null
  city: Enköping
  county: Uppsala
  country: Sverige
  latitude: null
  longitude: null

- location: Tängergården
  urn: null
  city: Enviken
  county: Dalarna
  country: Sverige
  latitude: 60.8532333
  longitude: 15.7522525

- location: Åfors Folkets Hus
  urn: null
  city: Eriksmåla
  county: Kalmar
  country: Sverige
  latitude: 56.7417067
  longitude: 15.494397

- location: Royal Eskilstuna
  urn: null
  city: Eskilstuna
  county: Södermanland
  country: Sverige
  latitude: 59.3667586
  longitude: 16.5077292999999

- location: ABF Huset – Visheten i Eskilstuna AB
  urn: null
  city: Eskilstuna
  county: Södermanland
  country: Sverige
  latitude: 59.3703883
  longitude: 16.51444

- location: Fagersta Folkets Hus
  urn: null
  city: Fagersta
  county: Västmanland
  country: Sverige
  latitude: 60.007688
  longitude: 15.8025047

- location: Falköpings Folkets Park
  urn: null
  city: Falköping
  county: Västra Götaland
  country: Sverige
  latitude: 58.1724701
  longitude: 13.5574478

- location: Kulturstöten Falun
  urn: null
  city: Falun
  county: Dalarna
  country: Sverige
  latitude: 60.6051364
  longitude: 15.6265543

- location: Lilltorpet, IOGT-NTO
  urn: null
  city: Falun
  county: Dalarna
  country: Sverige
  latitude: 60.594962
  longitude: 15.5725864999999

- location: Filipstads Folkets Hus
  urn: null
  city: Filipstad
  county: Värmland
  country: Sverige
  latitude: 59.7126575
  longitude: 14.1722236000001

- location: Nordmarks Folkets Hus
  urn: null
  city: Filipstad
  county: Värmland
  country: Sverige
  latitude: 59.7994441
  longitude: 14.1152984

- location: Falla Folkets Hus
  urn: null
  city: Finspång
  county: Östergötland
  country: Sverige
  latitude: 58.6858212
  longitude: 15.7525713

- location: Vanneberga Folkets Hus
  urn: null
  city: Fjälkinge
  county: Skåne
  country: Sverige
  latitude: 55.9985563017381
  longitude: 14.3562386269837

- location: Forsa Folkets Hus
  urn: null
  city: Forsa
  county: Gävleborg
  country: Sverige
  latitude: 61.7204451
  longitude: 16.9755506

- location: Forshaga Folkets Hus
  urn: null
  city: Forshaga
  county: Värmland
  country: Sverige
  latitude: 59.5337244
  longitude: 13.4826684

- location: Forshaga Folkets Park
  urn: null
  city: Forshaga
  county: Värmland
  country: Sverige
  latitude: 59.5266638
  longitude: 13.4706087

- location: Fredriksbergs Folkets Hus
  urn: null
  city: Fredriksberg
  county: Dalarna
  country: Sverige
  latitude: 60.1384883
  longitude: 14.3780378

- location: Fritsla Folkets Hus
  urn: null
  city: Fritsla
  county: Västra Götaland
  country: Sverige
  latitude: 57.5543295
  longitude: 12.779802

- location: Naggens Folkets Hus
  urn: null
  city: Fränsta
  county: Västernorrland
  country: Sverige
  latitude: 62.2758125
  longitude: 15.9945425

- location: Fröseke Folkets Hus
  urn: null
  city: Fröseke
  county: Kronoberg
  country: Sverige
  latitude: 56.9473168112897
  longitude: 15.7967354466271

- location: Oreparken
  urn: null
  city: Furudal
  county: Dalarna
  country: Sverige
  latitude: 61.156301540884
  longitude: 15.130903001328

- location: Fågelfors Folkets Hus och Park
  urn: null
  city: Fågelfors
  county: Kalmar
  country: Sverige
  latitude: 57.2051748
  longitude: 15.8445043

- location: Biografen Roy (Fårösund)
  urn: null
  city: null
  county: null
  country: Sverige
  latitude: null
  longitude: null

- location: Aktivitetshuset Älvan i Fällfors
  urn: null
  city: Fällfors
  county: Västerbotten
  country: Sverige
  latitude: 65.125979
  longitude: 20.7896818

- location: Ölsta Folkets Hus och Park
  urn: null
  city: Färentuna
  county: Stockholm
  country: Sverige
  latitude: 59.4041911
  longitude: 17.6551168

- location: Kulturföreningen Allhem i Färgelanda
  urn: null
  city: Färgelanda
  county: Västra Götaland
  country: Sverige
  latitude: 58.5695139
  longitude: 11.9860536

- location: Gamleby Folkets Park
  urn: null
  city: Gamleby
  county: Kalmar
  country: Sverige
  latitude: 57.90566
  longitude: 16.4101998079345

- location: Överums Folkpark Vallonen
  urn: null
  city: Gamleby
  county: Kalmar
  country: Sverige
  latitude: 57.9344476
  longitude: 16.3813161

- location: Garpenbergs Folkets Hus
  urn: null
  city: Garpenberg
  county: Dalarna
  country: Sverige
  latitude: 60.3106555
  longitude: 16.1858158

- location: Garphyttans Folkets Hus
  urn: null
  city: Garphyttan
  county: Örebro
  country: Sverige
  latitude: 59.3052728
  longitude: 14.9487538999999

- location: Gemla Folkpark
  urn: null
  city: Gemla
  county: Kronoberg
  country: Sverige
  latitude: 56.8595985
  longitude: 14.6284666

- location: Genevads Folkets Hus
  urn: null
  city: Genevad
  county: Halland
  country: Sverige
  latitude: 56.5708997
  longitude: 13.0337589000001

- location: Gislaved Folkets Hus
  urn: null
  city: Gislaved
  county: Jönköping
  country: Sverige
  latitude: 57.3005564
  longitude: 13.5440978

- location: Vår lokal
  urn: null
  city: Gnesta
  county: Södermanland
  country: Sverige
  latitude: 59.047866
  longitude: 17.3135508

- location: Grums Folkets Hus
  urn: null
  city: Grums
  county: Värmland
  country: Sverige
  latitude: 59.3550642
  longitude: 13.114346

- location: Skaftö Folkets Hus
  urn: null
  city: Grundsund
  county: Västra Götaland
  country: Sverige
  latitude: 58.2143567
  longitude: 11.4227819

- location: Gualövs Folkets Hus
  urn: null
  city: Gualöv
  county: Skåne
  country: Sverige
  latitude: 56.0464624
  longitude: 14.4199243

- location: Gubbo Folkets Hus
  urn: null
  city: Gubbo
  county: Dalarna
  country: Sverige
  latitude: 60.1778769
  longitude: 15.3221008

- location: Gullaskruvs Folkets Hus
  urn: null
  city: Gullaskruv
  county: Kalmar
  country: Sverige
  latitude: 56.8773564
  longitude: 15.6733015

- location: Gullbrandstorps Folkets Hus
  urn: null
  city: Gullbrandstorp
  county: Halland
  country: Sverige
  latitude: 56.7026007
  longitude: 12.7298843

- location: Gunnarsbyns Folkets Hus
  urn: null
  city: Gunnarsbyn
  county: Norrbotten
  country: Sverige
  latitude: 66.0885722
  longitude: 21.8018178

- location: Gustavsfors Folkets Hus
  urn: null
  city: Gustavsfors
  county: Västra Götaland
  country: Sverige
  latitude: 59.1917433
  longitude: 12.1074424999999

- location: Gusums Folkets Hus
  urn: null
  city: Gusum
  county: Östergötland
  country: Sverige
  latitude: 58.2652577
  longitude: 16.494588

- location: Gäddede Folkets Hus
  urn: null
  city: Gäddede
  county: Jämtland
  country: Sverige
  latitude: 64.5047251
  longitude: 14.1479042

- location: Jormstugans Folkets Hus
  urn: null
  city: Gäddede
  county: Jämtland
  country: Sverige
  latitude: 64.7112304
  longitude: 14.0546844

- location: Gällivare Folkets Hus
  urn: null
  city: Gällivare
  county: Norrbotten
  country: Sverige
  latitude: 67.1363339
  longitude: 20.6596194

- location: Nunisparken
  urn: null
  city: Gällivare
  county: Norrbotten
  country: Sverige
  latitude: 67.1330355
  longitude: 20.7365205999999

- location: Bomhus Folkets Hus
  urn: null
  city: Gävle
  county: Gävleborg
  country: Sverige
  latitude: 60.6758763
  longitude: 17.2149657

- location: Aftonstjärnan Folkets Hus
  urn: null
  city: Göteborg
  county: Västra Götaland
  country: Sverige
  latitude: 57.7069653
  longitude: 11.9325441999999

- location: Fräntorps Folkets Hus
  urn: null
  city: Göteborg
  county: Västra Götaland
  country: Sverige
  latitude: 57.7280657
  longitude: 12.0521936

- location: Föreningen Navet i Bergsjön
  urn: null
  city: Göteborg
  county: Västra Götaland
  country: Sverige
  latitude: 57.7552887
  longitude: 12.0723461

- location: Lagerhuset
  urn: null
  city: Göteborg
  county: Västra Götaland
  country: Sverige
  latitude: null
  longitude: null

- location: Meeting Plays
  urn: null
  city: Göteborg
  county: Västra Götaland
  country: Sverige
  latitude: 57.7124198
  longitude: 11.8923658

- location: Biblioteksvännerna i Biskopsgården
  urn: null
  city: null
  county: null
  country: Sverige
  latitude: 57.7120121
  longitude: 11.8923092

- location: Hagfors Folkets Hus
  urn: null
  city: Hagfors
  county: Värmland
  country: Sverige
  latitude: 60.0423708
  longitude: 13.6937081

- location: Hakkas Folkets Hus
  urn: null
  city: Hakkas
  county: Norrbotten
  country: Sverige
  latitude: 66.9144415
  longitude: 21.5751217

- location: Hallsbergs Folkets Hus
  urn: null
  city: Hallsberg
  county: Örebro
  country: Sverige
  latitude: 59.0660751
  longitude: 15.1084842

- location: Berga Folkets Hus
  urn: null
  city: Hallstahammar
  county: Västmanland
  country: Sverige
  latitude: 59.6027781
  longitude: 16.1968618

- location: Hallstaviks Folkets Hus
  urn: null
  city: Hallstavik
  county: Stockholm
  country: Sverige
  latitude: 60.050295553755
  longitude: 18.5962942209014

- location: Söndrums Folkets Hus
  urn: null
  city: Halmstad
  county: Halland
  country: Sverige
  latitude: 56.6503726
  longitude: 12.7826355

- location: Hamburgsunds Folkets Hus
  urn: null
  city: Hamburgsund
  county: Västra Götaland
  country: Sverige
  latitude: 58.5553398
  longitude: 11.2773207

- location: Värestorps Folkets Hus
  urn: null
  city: Hanaskog
  county: Skåne
  country: Sverige
  latitude: 56.1581049
  longitude: 14.0937612

- location: Hargshamns Folkets Hus
  urn: null
  city: Hargshamn
  county: Uppsala
  country: Sverige
  latitude: 60.1684711
  longitude: 18.4628306

- location: Havstenssunds Folkets Hus
  urn: null
  city: Havstenssund
  county: Västra Götaland
  country: Sverige
  latitude: 58.7550667
  longitude: 11.1813996

- location: Heby Folkets Hus och Park
  urn: null
  city: Heby
  county: Uppsala
  country: Sverige
  latitude: 59.9405783
  longitude: 16.8585681

- location: Hedemora Folkets Park
  urn: null
  city: Hedemora
  county: Dalarna
  country: Sverige
  latitude: 60.2921495
  longitude: 15.9751712

- location: Sundspärlan
  urn: null
  city: Helsingborg
  county: Skåne
  country: Sverige
  latitude: 56.0385207
  longitude: 12.7460024

- location: Fästets Folkets Hus
  urn: null
  city: Henån
  county: Västra Götaland
  country: Sverige
  latitude: 58.2816697
  longitude: 11.7148399

- location: Herrljunga Folkpark
  urn: null
  city: Herrljunga
  county: Västra Götaland
  country: Sverige
  latitude: 58.0721968
  longitude: 13.0371717

- location: Herrängs Folkets Hus
  urn: null
  city: Herräng
  county: Stockholm
  country: Sverige
  latitude: 60.1282423
  longitude: 18.645962

- location: House of Possibilitas – Backa Folkets Hus
  urn: null
  city: Hisings Backa
  county: Västra Götaland
  country: Sverige
  latitude: 57.7348735
  longitude: 11.9744953

- location: Hjo Kultur och Teaterförening
  urn: null
  city: Hjo
  county: Västra Götaland
  country: Sverige
  latitude: 58.3015072
  longitude: 14.2872839

- location: Hjo Biografförening
  urn: null
  city: Hjo
  county: Västra Götaland
  country: Sverige
  latitude: 58.3034939
  longitude: 14.2904159

- location: Blankaholms Folkets Hus
  urn: null
  city: Hjortred
  county: Kalmar
  country: Sverige
  latitude: 57.587637716769
  longitude: 16.5185576925903

- location: Hofors Folkets Hus
  urn: null
  city: Hofors
  county: Gävleborg
  country: Sverige
  latitude: 60.5455786
  longitude: 16.282854

- location: Hoks Folkets Hus
  urn: null
  city: Hok
  county: Jönköping
  country: Sverige
  latitude: 57.5185127
  longitude: 14.2789463

- location: Hotings föreningshus
  urn: null
  city: Hoting
  county: Jämtland
  country: Sverige
  latitude: 64.1172609
  longitude: 16.2062801

- location: Byahuset Huan
  urn: null
  city: Huaröd
  county: Skåne
  country: Sverige
  latitude: 55.8414639
  longitude: 13.9694815

- location: Rio Bio
  urn: null
  city: Hultsfred
  county: Kalmar
  country: Sverige
  latitude: 57.4869297
  longitude: 15.8405495

- location: Hultsfred Folkets Park
  urn: null
  city: Hultsfred
  county: Kalmar
  country: Sverige
  latitude: 57.4957305
  longitude: 15.8632451999999

- location: Kulturhuset Hav och Land
  urn: null
  city: Hunnebostrand
  county: Västra Götaland
  country: Sverige
  latitude: 58.4353615
  longitude: 11.2993722

- location: Huskvarna Folkets Park
  urn: null
  city: Huskvarna
  county: Jönköping
  country: Sverige
  latitude: 57.7836595
  longitude: 14.2636092

- location: Husumgårdens Folkets Hus
  urn: null
  city: Husum
  county: Västernorrland
  country: Sverige
  latitude: 63.335061
  longitude: 19.1661343000001

- location: Hyllie Folkets Hus
  urn: null
  city: Hyllie
  county: Skåne
  country: Sverige
  latitude: 55.5728751
  longitude: 12.9876569

- location: Hyllinge Folkets Hus
  urn: null
  city: Hyllinge
  county: Skåne
  country: Sverige
  latitude: 56.103663
  longitude: 12.871683

- location: Hägerstensåsens Medborgarhus
  urn: null
  city: Hägersten
  county: Stockholm
  country: Sverige
  latitude: 59.2982924
  longitude: 17.9846665

- location: Hällefors Folkets Hus
  urn: null
  city: Hällefors
  county: Örebro
  country: Sverige
  latitude: 59.7843132
  longitude: 14.5239047

- location: Hälleforsnäs Folkets Hus
  urn: null
  city: Hälleforsnäs
  county: Södermanland
  country: Sverige
  latitude: 59.1515344
  longitude: 16.4981261

- location: Hällekis Folkets Hus
  urn: null
  city: Hällekis
  county: Västra Götaland
  country: Sverige
  latitude: 58.6317449
  longitude: 13.4383043

- location: Borggårds Folkets Hus
  urn: null
  city: Hällestad
  county: Östergötland
  country: Sverige
  latitude: 58.7300609
  longitude: 15.5789045

- location: Hällnäs Folkets Hus
  urn: null
  city: Hällnäs
  county: Västerbotten
  country: Sverige
  latitude: 64.3145881
  longitude: 19.6103945

- location: Härnösands Teaterförening
  urn: null
  city: Härnösand
  county: Västernorrland
  country: Sverige
  latitude: 62.6301582
  longitude: 17.9360822

- location: Gussjö Norets Festplats
  urn: null
  city: Härnösand
  county: Västernorrland
  country: Sverige
  latitude: 62.7125513
  longitude: 17.562395

- location: Härslövs Folkets Hus
  urn: null
  city: Härslöv
  county: Skåne
  country: Sverige
  latitude: 55.9299478
  longitude: 12.8743422

- location: Hässelby Villastads Folkets Hus
  urn: null
  city: Hässelby
  county: Stockholm
  country: Sverige
  latitude: 59.37931
  longitude: 17.8039226999999

- location: Höganäs Folkets Hus och Park
  urn: null
  city: Höganäs
  county: Skåne
  country: Sverige
  latitude: 56.1979476
  longitude: 12.5567168

- location: Högboda Folkets Hus
  urn: null
  city: Högboda
  county: Värmland
  country: Sverige
  latitude: 59.563804
  longitude: 13.0523181999999

- location: By-Skymnäs Folkets Hus
  urn: null
  city: Höje
  county: Värmland
  country: Sverige
  latitude: 59.9206137
  longitude: 13.5649648

- location: Höljes Folkets Hus
  urn: null
  city: Höljes
  county: Värmland
  country: Sverige
  latitude: 60.898463
  longitude: 12.5988622

- location: Hörby Folkets Hus
  urn: null
  city: Hörby
  county: Skåne
  country: Sverige
  latitude: 55.8544403
  longitude: 13.6569039

- location: Höör Folkets Hus
  urn: null
  city: Höör
  county: Skåne
  country: Sverige
  latitude: 55.936466
  longitude: 13.5434723

- location: Idkerbergets Folkets Hus
  urn: null
  city: Idkerberget
  county: Dalarna
  country: Sverige
  latitude: 60.3766712
  longitude: 15.2297138

- location: Iggesunds Folkets Hus
  urn: null
  city: Iggesund
  county: Gävleborg
  country: Sverige
  latitude: 61.6424192
  longitude: 17.0777938

- location: Häreborgs Byggnadsförening
  urn: null
  city: Indal
  county: Västernorrland
  country: Sverige
  latitude: 62.5761266
  longitude: 17.0994482

- location: Jokkmokks Folkets Hus
  urn: null
  city: Jokkmokk
  county: Norrbotten
  country: Sverige
  latitude: 66.6075929
  longitude: 19.8290082999999

- location: Junsele Folkets Hus
  urn: null
  city: Junsele
  county: Västernorrland
  country: Sverige
  latitude: 63.6946282
  longitude: 16.8805644

- location: Jädraås Folkets Hus
  urn: null
  city: Jädraås
  county: Gävleborg
  country: Sverige
  latitude: 60.841251
  longitude: 16.4750704

- location: Jämjö Folkets Hus
  urn: null
  city: Jämjö
  county: Blekinge
  country: Sverige
  latitude: 56.1902352
  longitude: 15.8466416

- location: Jönköpings Folkets Hus
  urn: null
  city: Jönköping
  county: Jönköping
  country: Sverige
  latitude: 57.7818839
  longitude: 14.1659531

- location: Birkagårdens Folkets Hus
  urn: null
  city: Jönköping
  county: Jönköping
  country: Sverige
  latitude: 57.7863873
  longitude: 14.2443461

- location: Jörns Folkets Park
  urn: null
  city: Jörn
  county: Västerbotten
  country: Sverige
  latitude: 65.0505658
  longitude: 20.0224125

- location: Kypasjärvi Folkets Hus
  urn: null
  city: Kalix
  county: Norrbotten
  country: Sverige
  latitude: 66.1643294
  longitude: 23.2189946

- location: Kalix Konstförening
  urn: null
  city: Kalix
  county: Norrbotten
  country: Sverige
  latitude: 65.8566937
  longitude: 23.1445437

- location: Kallhälls Folkets Hus
  urn: null
  city: Kallhäll
  county: Stockholm
  country: Sverige
  latitude: 59.4543782
  longitude: 17.8076318

- location: Kallinge Folkets Hus
  urn: null
  city: Kallinge
  county: Blekinge
  country: Sverige
  latitude: 56.2477227
  longitude: 15.2875686

- location: Lindsdals Folkets Hus
  urn: null
  city: Kalmar
  county: Kalmar
  country: Sverige
  latitude: 56.7346653
  longitude: 16.2874908

- location: Kalmarparken – Föreningarnas hus
  urn: null
  city: Kalmar
  county: Kalmar
  country: Sverige
  latitude: 56.6654109
  longitude: 16.3295664

- location: Karlholmsbruk Folkets Hus
  urn: null
  city: Karlholmsbruk
  county: Uppsala
  country: Sverige
  latitude: 60.5194906
  longitude: 17.616376

- location: Bio Casablanca
  urn: null
  city: Karlsborg
  county: Västra Götaland
  country: Sverige
  latitude: 58.5330586
  longitude: 14.5113082

- location: Undenäsgården
  urn: null
  city: Karlsborg
  county: Västra Götaland
  country: Sverige
  latitude: 58.6897251
  longitude: 14.4560962

- location: Karlshamns Folkets Hus
  urn: null
  city: Karlshamn
  county: Blekinge
  country: Sverige
  latitude: 56.1703457
  longitude: 14.8655885

- location: Centrumbiografen Karlshamn
  urn: null
  city: Karlshamn
  county: Blekinge
  country: Sverige
  latitude: 56.1639837
  longitude: 14.8658402

- location: Karlskrona Folkets Hus
  urn: null
  city: Karlskrona
  county: Blekinge
  country: Sverige
  latitude: 56.1640612
  longitude: 15.5874722

- location: Karlstad Folkets Hus
  urn: null
  city: Karlstad
  county: Värmland
  country: Sverige
  latitude: 59.3759632
  longitude: 13.4470055

- location: Kiruna Folkets Hus och Park
  urn: null
  city: Kiruna
  county: Norrbotten
  country: Sverige
  latitude: 67.8554112
  longitude: 20.2246482

- location: Kiviks Bio
  urn: null
  city: Kivik
  county: Skåne
  country: Sverige
  latitude: 55.6893243
  longitude: 14.2218239

- location: Knislinge Folkets Hus och Park
  urn: null
  city: Knislinge
  county: Skåne
  country: Sverige
  latitude: 56.1931774
  longitude: 14.0953085

- location: Konga Folkets Hus
  urn: null
  city: Konga
  county: Kronoberg
  country: Sverige
  latitude: 56.4976153
  longitude: 15.1233023

- location: Kosta Folkets Hus
  urn: null
  city: Kosta
  county: Kronoberg
  country: Sverige
  latitude: 56.8431854
  longitude: 15.3958762

- location: Frånö Folkets Hus
  urn: null
  city: Kramfors
  county: Västernorrland
  country: Sverige
  latitude: 62.9064769
  longitude: 17.8243087

- location: Bäckhammars Folkets Hus
  urn: null
  city: Kristinehamn
  county: Värmland
  country: Sverige
  latitude: 59.161642
  longitude: 14.1888032

- location: Hissmofors Folkets Hus
  urn: null
  city: Krokom
  county: Jämtland
  country: Sverige
  latitude: 63.327779
  longitude: 14.4779562

- location: Kumla Folkets Hus
  urn: null
  city: Kumla
  county: Örebro
  country: Sverige
  latitude: 59.1266408
  longitude: 15.1362654

- location: Kungshamns Folkets Hus
  urn: null
  city: Kungshamn
  county: Västra Götaland
  country: Sverige
  latitude: 58.3570807
  longitude: 11.2600921000001

- location: Kungälvs Folkets Hus & Park
  urn: null
  city: Kungälv
  county: Västra Götaland
  country: Sverige
  latitude: 57.8777888
  longitude: 11.9733922

- location: Njurunda Folkets Hus
  urn: null
  city: Kvissleby
  county: Västernorrland
  country: Sverige
  latitude: 62.2940998
  longitude: 17.3796806

- location: Kyrkhult Folkets Hus
  urn: null
  city: Kyrkhult
  county: Blekinge
  country: Sverige
  latitude: 56.3488361
  longitude: 14.5839979

- location: Hällesjö Folkets Hus
  urn: null
  city: Kälarne
  county: Jämtland
  country: Sverige
  latitude: 62.9078126
  longitude: 16.233918

- location: Kulturföreningen Biograf Reflexen
  urn: null
  city: Kärrtorp
  county: Stockholm
  country: Sverige
  latitude: 59.2839425
  longitude: 18.1142738

- location: Kävlinge Folkets Park
  urn: null
  city: Kävlinge
  county: Skåne
  country: Sverige
  latitude: 55.7877874992922
  longitude: 13.1150676375732

- location: Köpings Folkets Hus
  urn: null
  city: Köping
  county: Västmanland
  country: Sverige
  latitude: 59.5142246
  longitude: 16.0022122

- location: Lammhult Folkets Hus
  urn: null
  city: Lammhult
  county: Kronoberg
  country: Sverige
  latitude: 57.1690588
  longitude: 14.5822951576721

- location: Glumslövs Folkets Hus
  urn: null
  city: Landskrona
  county: Skåne
  country: Sverige
  latitude: 55.94405
  longitude: 12.7891381

- location: Örja Folkets Hus
  urn: null
  city: Landskrona
  county: Skåne
  country: Sverige
  latitude: 55.8700832
  longitude: 12.8581768

- location: Lidköpings Folkets Hus
  urn: null
  city: Lidköping
  county: Västra Götaland
  country: Sverige
  latitude: 58.5050248
  longitude: 13.1524684999999

- location: Lidköpings Folkets Park
  urn: null
  city: Lidköping
  county: Västra Götaland
  country: Sverige
  latitude: 58.5111415
  longitude: 13.1459798

- location: Lillhärdals Folkets Hus
  urn: null
  city: Lillhärdal
  county: Jämtland
  country: Sverige
  latitude: 61.8525065
  longitude: 14.0829419

- location: Limhamns Folkets Hus
  urn: null
  city: Limhamn
  county: Skåne
  country: Sverige
  latitude: 55.5810253
  longitude: 12.9373652

- location: Limmareds Folkets Hus
  urn: null
  city: Limmared
  county: Västra Götaland
  country: Sverige
  latitude: 57.5346598
  longitude: 13.3550587

- location: Lindås Folkets Hus
  urn: null
  city: Lindås
  county: Kalmar
  country: Sverige
  latitude: 56.6215874
  longitude: 15.5679916

- location: Ljungaverks Folkets Hus
  urn: null
  city: Ljungaverk
  county: Västernorrland
  country: Sverige
  latitude: 62.4912589
  longitude: 16.0531522

- location: Grand
  urn: null
  city: null
  county: null
  country: Sverige
  latitude: null
  longitude: null

- location: Ljusne Folkets Hus
  urn: null
  city: Ljusne
  county: Gävleborg
  country: Sverige
  latitude: 61.2155184
  longitude: 17.1344069

- location: Lomma Folkets Hus
  urn: null
  city: Lomma
  county: Skåne
  country: Sverige
  latitude: 55.6694364
  longitude: 13.0672767

- location: Gonäs Folkets Hus
  urn: null
  city: Ludvika
  county: Dalarna
  country: Sverige
  latitude: 60.1467215
  longitude: 15.0933219999999

- location: Ludvika Byggnadsförening UPA
  urn: null
  city: Ludvika
  county: Dalarna
  country: Sverige
  latitude: 60.1018274739484
  longitude: 15.0997616134919

- location: Sörviks Folkets Hus
  urn: null
  city: Ludvika
  county: Dalarna
  country: Sverige
  latitude: 60.1891953
  longitude: 15.1452871

- location: Gräsbergs Folkets Hus
  urn: null
  city: Ludvika
  county: Dalarna
  country: Sverige
  latitude: 60.2151836
  longitude: 15.2256601

- location: Luleå Folket Hus
  urn: null
  city: Luleå
  county: Norrbotten
  country: Sverige
  latitude: 65.5883376
  longitude: 22.1615505

- location: Folkets Bio, Bio Royal
  urn: null
  city: Luleå
  county: Norrbotten
  country: Sverige
  latitude: 65.5812623
  longitude: 22.1511421

- location: Lunds Folkets Hus
  urn: null
  city: Lund
  county: Skåne
  country: Sverige
  latitude: 55.7028625
  longitude: 13.1966635

- location: Lunde Folkets Hus
  urn: null
  city: Lunde
  county: Västernorrland
  country: Sverige
  latitude: 62.8811624
  longitude: 17.8713374

- location: Svanö Folkets Hus
  urn: null
  city: Lunde
  county: Västernorrland
  country: Sverige
  latitude: 62.8975077
  longitude: 17.8767736

- location: Lyckeby Folkets Hus
  urn: null
  city: Lyckeby
  county: Blekinge
  country: Sverige
  latitude: 56.1967826
  longitude: 15.6619951

- location: Lycksele Medborgarhus
  urn: null
  city: Lycksele
  county: Västerbotten
  country: Sverige
  latitude: 64.5956905
  longitude: 18.6727097

- location: Brattens Folkets Hus
  urn: null
  city: Lycksele
  county: Västerbotten
  country: Sverige
  latitude: 64.5190933
  longitude: 18.3944467

- location: Kattisavans Folkets Hus
  urn: null
  city: Lycksele
  county: Västerbotten
  country: Sverige
  latitude: 64.759029
  longitude: 18.1570383

- location: Lysekils Folkets Hus
  urn: null
  city: Lysekil
  county: Västra Götaland
  country: Sverige
  latitude: 58.2753454
  longitude: 11.4312711

- location: Lyse Folkets Hus
  urn: null
  city: Lysekil
  county: Västra Götaland
  country: Sverige
  latitude: 58.3157587
  longitude: 11.4219926000001

- location: Långshyttans Folkets Hus
  urn: null
  city: Långshyttan
  county: Dalarna
  country: Sverige
  latitude: 60.4543006
  longitude: 16.0328774

- location: Lönsboda Folkets Park
  urn: null
  city: Lönsboda
  county: Skåne
  country: Sverige
  latitude: 56.3923018
  longitude: 14.3217721

- location: Lövånger Folkets Hus
  urn: null
  city: Lövånger
  county: Västerbotten
  country: Sverige
  latitude: 64.3719672
  longitude: 21.3144579

- location: Malmö Folkets Park
  urn: null
  city: Malmö
  county: Skåne
  country: Sverige
  latitude: 55.5931602
  longitude: 13.0141662

- location: Motettens Folkets Hus
  urn: null
  city: Malmö
  county: Skåne
  country: Sverige
  latitude: 55.5588332
  longitude: 13.0179783

- location: Rosengårds Folkets Hus
  urn: null
  city: Malmö
  county: Skåne
  country: Sverige
  latitude: 55.5874199
  longitude: 13.0452898999999

- location: Sofielunds Folkets Hus
  urn: null
  city: Malmö
  county: Skåne
  country: Sverige
  latitude: 55.5870017
  longitude: 13.0163371

- location: Orrskogens Folkets Park
  urn: null
  city: Malung
  county: Dalarna
  country: Sverige
  latitude: 60.6898645
  longitude: 13.7238766

- location: Malungs Folkets Hus
  urn: null
  city: Malung
  county: Dalarna
  country: Sverige
  latitude: 60.6829898
  longitude: 13.718255

- location: Park Malåborg
  urn: null
  city: Malå
  county: Västerbotten
  country: Sverige
  latitude: 65.1876279
  longitude: 18.7503707999999

- location: Mariannelunds Folkets Hus
  urn: null
  city: Mariannelund
  county: Jönköping
  country: Sverige
  latitude: 57.6159045
  longitude: 15.5702051

- location: Karlsholme Folkets Park
  urn: null
  city: Mariestad
  county: Västra Götaland
  country: Sverige
  latitude: 58.7151561461023
  longitude: 13.8252135449829

- location: Timsfors Folkets Hus
  urn: null
  city: Markaryd
  county: Kronoberg
  country: Sverige
  latitude: 56.4800801
  longitude: 13.6093546

- location: Matforsfabriken
  urn: null
  city: Matfors
  county: Västernorrland
  country: Sverige
  latitude: 62.3492508
  longitude: 17.0320272

- location: Mora-Norets Folkets Hus
  urn: null
  city: Mora
  county: Dalarna
  country: Sverige
  latitude: 61.0081695
  longitude: 14.5770887

- location: Morgongåva Folkets Hus
  urn: null
  city: Morgongåva
  county: Uppsala
  country: Sverige
  latitude: 59.9362272
  longitude: 16.9669985

- location: Morjärvs Folkets Hus
  urn: null
  city: Morjärv
  county: Norrbotten
  country: Sverige
  latitude: 66.071104
  longitude: 22.7184761

- location: Motala Folkets Hus
  urn: null
  city: Motala
  county: Östergötland
  country: Sverige
  latitude: 58.5353973
  longitude: 15.0351226

- location: Munkedals Folkpark
  urn: null
  city: Munkedal
  county: Västra Götaland
  country: Sverige
  latitude: 58.4745232
  longitude: 11.677542

- location: Målerås Folkets Hus
  urn: null
  city: Målerås
  county: Kalmar
  country: Sverige
  latitude: 56.9157413282846
  longitude: 15.5700861245368

- location: Målilla, Skeppet
  urn: null
  city: Målilla
  county: Kalmar
  country: Sverige
  latitude: 57.3867083
  longitude: 15.8059806

- location: Mölnbo Folkets Hus
  urn: null
  city: Mölnbo
  county: Stockholm
  country: Sverige
  latitude: 59.0459195
  longitude: 17.4220481

- location: Mölndals Folkets Hus – Kulturhuset Möllan
  urn: null
  city: Mölndal
  county: Västra Götaland
  country: Sverige
  latitude: 57.6578494
  longitude: 12.0150897

- location: Mölnlycke Folkets Hus
  urn: null
  city: Mölnlycke
  county: Västra Götaland
  country: Sverige
  latitude: 57.6562205
  longitude: 12.1255163

- location: Råda Rum
  urn: null
  city: Mölnlycke
  county: Västra Götaland
  country: Sverige
  latitude: 57.6587681
  longitude: 12.1065913

- location: Mörrums Folkets Hus och Park
  urn: null
  city: Mörrum
  county: Blekinge
  country: Sverige
  latitude: 56.1883295
  longitude: 14.7466716

- location: Nacksta Kultur
  urn: null
  city: Nacksta
  county: Västernorrland
  country: Sverige
  latitude: 62.3924558
  longitude: 17.2595434

- location: Nattavaara Folkets Hus
  urn: null
  city: Nattavaara
  county: Norrbotten
  country: Sverige
  latitude: 66.7557425286903
  longitude: 20.9552407264709

- location: Bjurådalens teaterförening
  urn: null
  city: Niemisel
  county: Norrbotten
  country: Sverige
  latitude: 66.032407
  longitude: 22.1441156

- location: Nora Folkets Park
  urn: null
  city: Nora
  county: Örebro
  country: Sverige
  latitude: 59.514187
  longitude: 15.0224219

- location: Norrahammars Folkets Hus
  urn: null
  city: Norrahammar
  county: Jönköping
  country: Sverige
  latitude: 57.6990889
  longitude: 14.1137382

- location: Norrhults Folkets Hus och Park
  urn: null
  city: Norrhult
  county: Kronoberg
  country: Sverige
  latitude: 57.1208444
  longitude: 15.1659811

- location: Norrtälje Folkets Hus
  urn: null
  city: Norrtälje
  county: Stockholm
  country: Sverige
  latitude: 59.7563009
  longitude: 18.7002181

- location: Vätö Folkets Hus
  urn: null
  city: Norrtälje
  county: Stockholm
  country: Sverige
  latitude: 59.8098195
  longitude: 18.9626301

- location: Hallunda Folkets Hus
  urn: null
  city: Norsborg
  county: Stockholm
  country: Sverige
  latitude: 59.2444733
  longitude: 17.8220199

- location: Norsjö Folkets Hus
  urn: null
  city: Norsjö
  county: Västerbotten
  country: Sverige
  latitude: 64.9138884
  longitude: 19.4851869

- location: Nossebro Nöjesstjärnan
  urn: null
  city: Nossebro
  county: Västra Götaland
  country: Sverige
  latitude: 58.1910053
  longitude: 12.7170083999999

- location: Flerohopp Folkets Hus & Park
  urn: null
  city: Nybro
  county: Kalmar
  country: Sverige
  latitude: 56.8225371
  longitude: 15.8800855

- location: Nyhammars Folkets Hus
  urn: null
  city: Nyhammar
  county: Dalarna
  country: Sverige
  latitude: 60.2913613
  longitude: 14.9652928

- location: Nykroppa Folkets Hus och Dammboparken
  urn: null
  city: Nykroppa
  county: Värmland
  country: Sverige
  latitude: 59.626067
  longitude: 14.3097304

- location: Nykvarns Folkets Hus
  urn: null
  city: Nykvarn
  county: Stockholm
  country: Sverige
  latitude: 59.1774966
  longitude: 17.4324964

- location: Nynäshamns Folkets Hus
  urn: null
  city: Nynäshamn
  county: Stockholm
  country: Sverige
  latitude: 58.9022558
  longitude: 17.9463674

- location: Vaplans Folkets Hus
  urn: null
  city: Nälden
  county: Jämtland
  country: Sverige
  latitude: 63.3377205
  longitude: 14.2216514

- location: Norrbo Folkets Hus
  urn: null
  city: Näsviken
  county: Gävleborg
  country: Sverige
  latitude: 61.7892091
  longitude: 16.8369405

- location: Nävekvarns Folkets Hus och Park
  urn: null
  city: Nävekvarn
  county: Södermanland
  country: Sverige
  latitude: 58.626988
  longitude: 16.797765

- location: Gränums Folkets Hus
  urn: null
  city: Olofström
  county: Blekinge
  country: Sverige
  latitude: 56.2189344
  longitude: 14.5881589000001

- location: Orsa Operasällskap
  urn: null
  city: Orsa
  county: Dalarna
  country: Sverige
  latitude: 61.1245343
  longitude: 14.6213744

- location: Osby Medborgarhus
  urn: null
  city: Osby
  county: Skåne
  country: Sverige
  latitude: 56.3818848
  longitude: 13.9929427

- location: Sagabiografen
  urn: null
  city: Oskarshamn
  county: Kalmar
  country: Sverige
  latitude: 57.2652197
  longitude: 16.4316988

- location: Oskarström Folkets Hus
  urn: null
  city: Oskarström
  county: Halland
  country: Sverige
  latitude: 56.8017184
  longitude: 12.9786546

- location: Otterbäckens Folkets Hus
  urn: null
  city: Otterbäcken
  county: Västra Götaland
  country: Sverige
  latitude: 58.9418651
  longitude: 14.0392802

- location: Myssjö-Ovikens IF
  urn: null
  city: Oviken
  county: Jämtland
  country: Sverige
  latitude: 62.9991086
  longitude: 14.3502531

- location: Pajala Folkets Hus
  urn: null
  city: Pajala
  county: Norrbotten
  country: Sverige
  latitude: 67.2089525
  longitude: 23.3711968

- location: Perstorps Folkets Park
  urn: null
  city: Perstorp
  county: Skåne
  country: Sverige
  latitude: 56.1402168
  longitude: 13.3876144

- location: Piteå Folkets Hus
  urn: null
  city: Piteå
  county: Norrbotten
  country: Sverige
  latitude: 65.3137615
  longitude: 21.4896842000001

- location: Munksunds Folkets Hus
  urn: null
  city: Piteå
  county: Norrbotten
  country: Sverige
  latitude: 65.2862701
  longitude: 21.4923559

- location: Storfors Folkets Hus
  urn: null
  city: Piteå
  county: Norrbotten
  country: Sverige
  latitude: 65.3047393
  longitude: 21.4039779

- location: Pålsboda Folkets Hus och Park
  urn: null
  city: Pålsboda
  county: Örebro
  country: Sverige
  latitude: 59.0648102
  longitude: 15.3401603

- location: Påryds Parkförening
  urn: null
  city: Påryd
  county: Kalmar
  country: Sverige
  latitude: 56.5641857
  longitude: 15.9208762

- location: Rabbalshede Park och Bygdegårdsförening
  urn: null
  city: Rabbalshede
  county: Västra Götaland
  country: Sverige
  latitude: 58.6082646
  longitude: 11.4779993

- location: Ramviks Folkets Hus
  urn: null
  city: Ramvik
  county: Västernorrland
  country: Sverige
  latitude: 62.8133425
  longitude: 17.865865

- location: Teatermaskinen
  urn: null
  city: Riddarhyttan
  county: Västmanland
  country: Sverige
  latitude: 59.8374196
  longitude: 15.503372

- location: Centrumhusföreningen fd Brukets Bio
  urn: null
  city: Robertsfors
  county: Västerbotten
  country: Sverige
  latitude: 64.1929407
  longitude: 20.8502778

- location: Rolfstorps Folkets Hus
  urn: null
  city: Rolfstorp
  county: Halland
  country: Sverige
  latitude: 57.1460509
  longitude: 12.4602207

- location: Ronneby Folkets Hus
  urn: null
  city: Ronneby
  county: Blekinge
  country: Sverige
  latitude: 56.2101302
  longitude: 15.2759059

- location: Ronneby Folkteater
  urn: null
  city: Ronneby
  county: Blekinge
  country: Sverige
  latitude: 56.2085984
  longitude: 15.2812334

- location: Rossöns Folkets Hus
  urn: null
  city: Rossön
  county: Jämtland
  country: Sverige
  latitude: 63.9270918
  longitude: 16.3252834

- location: Rundviks Folkets Hus
  urn: null
  city: Rundvik
  county: Västerbotten
  country: Sverige
  latitude: 63.5406366
  longitude: 19.4391826

- location: Rydaholms Folkets Park
  urn: null
  city: Rydaholm
  county: Jönköping
  country: Sverige
  latitude: 56.9834983
  longitude: 14.2983977

- location: Råneå Folkets Hus
  urn: null
  city: Råneå
  county: Norrbotten
  country: Sverige
  latitude: 65.8536235
  longitude: 22.2969842

- location: Rönninge Hemgården
  urn: null
  city: Rönninge
  county: Stockholm
  country: Sverige
  latitude: 59.193008
  longitude: 17.7495572

- location: Sala Folkets Park
  urn: null
  city: Sala
  county: Västmanland
  country: Sverige
  latitude: 59.9217916
  longitude: 16.5768137

- location: Sala Folkets Hus
  urn: null
  city: Sala
  county: Västmanland
  country: Sverige
  latitude: 59.9214633
  longitude: 16.6053948

- location: Boo Folkets Hus
  urn: null
  city: Saltsjö-Boo
  county: Stockholm
  country: Sverige
  latitude: 59.3260988
  longitude: 18.2558699

- location: Fisksätra Folkets Hus
  urn: null
  city: Saltsjöbaden
  county: Stockholm
  country: Sverige
  latitude: 59.2948197
  longitude: 18.2581212

- location: Sandvikens Folkets Hus
  urn: null
  city: Sandviken
  county: Gävleborg
  country: Sverige
  latitude: 60.6203984
  longitude: 16.7789574999999

- location: Segmons Folkets Hus
  urn: null
  city: Segmon
  county: Värmland
  country: Sverige
  latitude: 59.2734197
  longitude: 13.047602

- location: Seskarö Hembygdsförening
  urn: null
  city: Seskarö
  county: Norrbotten
  country: Sverige
  latitude: 65.7400307
  longitude: 23.7325281

- location: Sibbhults Folkets Hus
  urn: null
  city: Sibbhult
  county: Skåne
  country: Sverige
  latitude: 56.2690399
  longitude: 14.2007997000001

- location: Sikfors Folkets Hus
  urn: null
  city: Sikfors
  county: Norrbotten
  country: Sverige
  latitude: 65.5274579
  longitude: 21.1919213

- location: Silverdalen Folkets Hus
  urn: null
  city: Silverdalen
  county: Kalmar
  country: Sverige
  latitude: 57.5437394
  longitude: 15.7453616

- location: Sjuntorps Folkets Hus
  urn: null
  city: Sjuntorp
  county: Västra Götaland
  country: Sverige
  latitude: 58.2000247
  longitude: 12.2340816999999

- location: Sjöbo Folkets Hus och Park
  urn: null
  city: Sjöbo
  county: Skåne
  country: Sverige
  latitude: 55.6300517
  longitude: 13.7121916

- location: Skara Fokus Folkets Park
  urn: null
  city: Skara
  county: Västra Götaland
  country: Sverige
  latitude: 58.3765542
  longitude: 13.430413

- location: Skaulo-Puoltikasvaara Folkets Hus
  urn: null
  city: Skaulo
  county: Norrbotten
  country: Sverige
  latitude: 67.4215295
  longitude: 21.1407102

- location: Skelleftehamn Folkets Hus
  urn: null
  city: Skelleftehamn
  county: Västerbotten
  country: Sverige
  latitude: 64.6880015
  longitude: 21.2448704

- location: Nyhamns Folkets Hus
  urn: null
  city: Skellefteå
  county: Västerbotten
  country: Sverige
  latitude: 64.7028705
  longitude: 21.1464559

- location: Skellefteå Folkpark
  urn: null
  city: Skellefteå
  county: Västerbotten
  country: Sverige
  latitude: 64.7603359
  longitude: 20.9665253000001

- location: Kulturhuset Skene
  urn: null
  city: Skene
  county: Västra Götaland
  country: Sverige
  latitude: 57.4895579
  longitude: 12.6395141

- location: Skinnskattebergs Folkets Park
  urn: null
  city: Skinnskatteberg
  county: Västmanland
  country: Sverige
  latitude: 59.8605704
  longitude: 15.7044149

- location: Skurups Folkets Hus och Park
  urn: null
  city: Skurup
  county: Skåne
  country: Sverige
  latitude: 55.4812994
  longitude: 13.4936685

- location: Skutskärs Folkets Hus
  urn: null
  city: Skutskär
  county: Uppsala
  country: Sverige
  latitude: 60.6326662
  longitude: 17.4080621000001

- location: Skåpafors Folkets Hus
  urn: null
  city: Skåpafors
  county: Västra Götaland
  country: Sverige
  latitude: 59.0225356
  longitude: 12.2833088

- location: Skärblacka Folkets Hus
  urn: null
  city: Skärblacka
  county: Östergötland
  country: Sverige
  latitude: 58.5767558
  longitude: 15.9187466

- location: Folk i Skärholmen
  urn: null
  city: Skärholmen
  county: Stockholm
  country: Sverige
  latitude: 59.2762748
  longitude: 17.906258

- location: Sköldinge Folkets hus
  urn: null
  city: Sköldinge
  county: Södermanland
  country: Sverige
  latitude: 59.0328391
  longitude: 16.4477077

- location: Riksteatern Skövde
  urn: null
  city: Skövde
  county: Västra Götaland
  country: Sverige
  latitude: 58.3899255
  longitude: 13.8508373

- location: Skövde Filmfestival
  urn: null
  city: Skövde
  county: Västra Götaland
  country: Sverige
  latitude: 58.3897538
  longitude: 13.8507894

- location: Smedjebackens Folkets Hus
  urn: null
  city: Smedjebacken
  county: Dalarna
  country: Sverige
  latitude: 60.1421099
  longitude: 15.4115753999999

- location: Smålandsstenars Folkets Hus och Park
  urn: null
  city: Smålandsstenar
  county: Jönköping
  country: Sverige
  latitude: 57.1660941
  longitude: 13.4238068

- location: Smögengården
  urn: null
  city: Smögen
  county: Västra Götaland
  country: Sverige
  latitude: 58.357108
  longitude: 11.2274589

- location: Hullsta Gård
  urn: null
  city: Sollefteå
  county: Västernorrland
  country: Sverige
  latitude: 63.1665001
  longitude: 17.2739467

- location: Solna Folkets Hus
  urn: null
  city: Solna
  county: Stockholm
  country: Sverige
  latitude: 59.3560027
  longitude: 17.9998403

- location: Sorunda Folkets Hus
  urn: null
  city: Sorunda
  county: Stockholm
  country: Sverige
  latitude: 59.0489221
  longitude: 17.8590852

- location: Spånga Folkan
  urn: null
  city: Spånga
  county: Stockholm
  country: Sverige
  latitude: 59.3730641
  longitude: 17.8999529

- location: Järva Folkets Park
  urn: null
  city: Spånga
  county: Stockholm
  country: Sverige
  latitude: 59.3981789
  longitude: 17.9187976000001

- location: Rinkeby Folkets Hus
  urn: null
  city: Spånga
  county: Stockholm
  country: Sverige
  latitude: 59.3887031
  longitude: 17.9270791

- location: Spånga Folkan
  urn: null
  city: Spånga
  county: Stockholm
  country: Sverige
  latitude: null
  longitude: null

- location: Staffanstorps Folkets Hus
  urn: null
  city: Staffanstorp
  county: Skåne
  country: Sverige
  latitude: 55.6423735
  longitude: 13.2117017

- location: Stigens Folkets Hus
  urn: null
  city: Stigen
  county: Västra Götaland
  country: Sverige
  latitude: 58.562583
  longitude: 12.0700491

- location: Stjärnsunds Folkets Hus
  urn: null
  city: Stjärnsund
  county: Dalarna
  country: Sverige
  latitude: 60.4309044
  longitude: 16.2317525999999

- location: Gershedens Folkets Hus
  urn: null
  city: Stockholm
  county: Stockholm
  country: Sverige
  latitude: 59.3244236
  longitude: 18.1009802

- location: Sjöstadens Folkets Hus
  urn: null
  city: Stockholm
  county: Stockholm
  country: Sverige
  latitude: 59.3060604
  longitude: 18.1035371

- location: Folkkulturcentrum Hjorthagens Kulturhus
  urn: null
  city: Stockholm
  county: Stockholm
  country: Sverige
  latitude: 59.3556137
  longitude: 18.0993248

- location: ABF:s avdelning i Stockholm
  urn: null
  city: Stockholm
  county: Stockholm
  country: Sverige
  latitude: 59.3386126
  longitude: 18.0596819

- location: Åsö Föreningsråd
  urn: null
  city: Stockholm
  county: Stockholm
  country: Sverige
  latitude: 59.3087037
  longitude: 18.0926186

- location: Storumans Folkets Hus
  urn: null
  city: Storuman
  county: Västerbotten
  country: Sverige
  latitude: 65.1025415
  longitude: 17.123905

- location: Storviks Folkets Hus
  urn: null
  city: Storvik
  county: Gävleborg
  country: Sverige
  latitude: 60.589313
  longitude: 16.5371362999999

- location: Strömsnäsbruk Byggnadsförening
  urn: null
  city: Strömsnäsbruk
  county: Kronoberg
  country: Sverige
  latitude: 56.5501888
  longitude: 13.7303009

- location: Krokstrands Folkets Hus
  urn: null
  city: Strömstad
  county: Västra Götaland
  country: Sverige
  latitude: 59.0
  longitude: 11.4333329999999

- location: Strömstads Folkets Hus
  urn: null
  city: Strömstad
  county: Västra Götaland
  country: Sverige
  latitude: 58.9411252
  longitude: 11.1801124

- location: Strömsunds Folkets Hus
  urn: null
  city: Strömsund
  county: Jämtland
  country: Sverige
  latitude: 63.8492477
  longitude: 15.5592627999999

- location: Sundborns Folkets Hus
  urn: null
  city: Sundborn
  county: Dalarna
  country: Sverige
  latitude: 60.6445796
  longitude: 15.854747

- location: Sundbybergs Folkets Hus
  urn: null
  city: Sundbyberg
  county: Stockholm
  country: Sverige
  latitude: 59.3620745
  longitude: 17.9719025

- location: Sundsvalls Folkets Hus
  urn: null
  city: Sundsvall
  county: Västernorrland
  country: Sverige
  latitude: 62.3864574
  longitude: 17.3071958

- location: Bredsands Folkets Hus
  urn: null
  city: Sundsvall
  county: Västernorrland
  country: Sverige
  latitude: 62.342984
  longitude: 17.3616119

- location: Sunnemo Folkets Hus och Park
  urn: null
  city: Sunnemo
  county: Värmland
  country: Sverige
  latitude: 59.8859862
  longitude: 13.7185088

- location: Sunnersta Folkets Hus
  urn: null
  city: Sunnersta
  county: Västernorrland
  country: Sverige
  latitude: 63.1479934
  longitude: 17.6916694

- location: Svalöv Kulturhuset
  urn: null
  city: Svalöv
  county: Skåne
  country: Sverige
  latitude: 55.9145843
  longitude: 13.1085262

- location: Svanskogs Folkets Hus
  urn: null
  city: Svanskog
  county: Värmland
  country: Sverige
  latitude: 59.1733825
  longitude: 12.5451221

- location: Glötegårdens Folkets Hus
  urn: null
  city: Sveg
  county: Jämtland
  country: Sverige
  latitude: 62.103504
  longitude: 13.4966352

- location: Storöns Folkpark
  urn: null
  city: Sveg
  county: Jämtland
  country: Sverige
  latitude: 62.030037279364
  longitude: 14.368459551343

- location: Svenljungas Folkets Hus
  urn: null
  city: Svenljunga
  county: Västra Götaland
  country: Sverige
  latitude: 57.4969478
  longitude: 13.1099013

- location: Stranna Folkets Husförening upa
  urn: null
  city: Sysslebäck
  county: Värmland
  country: Sverige
  latitude: 60.8264848
  longitude: 12.689736

- location: Sysslebäcksparken
  urn: null
  city: Sysslebäck
  county: Värmland
  country: Sverige
  latitude: 60.7339082
  longitude: 12.8627598

- location: Säters Folkets Hus
  urn: null
  city: Säter
  county: Dalarna
  country: Sverige
  latitude: 60.3449994
  longitude: 15.7591844

- location: Sävsjö Kulturhuset
  urn: null
  city: Sävsjö
  county: Jönköping
  country: Sverige
  latitude: 57.4013005
  longitude: 14.6619905

- location: Sävsjöströms Byggnadsförening
  urn: null
  city: Sävsjöström
  county: Kronoberg
  country: Sverige
  latitude: 57.0037922651717
  longitude: 15.4037802938658

- location: Söderbärkeparken
  urn: null
  city: Söderbärke
  county: Dalarna
  country: Sverige
  latitude: 60.0717125763923
  longitude: 15.5570186490738

- location: Söderfors Folkets Hus
  urn: null
  city: Söderfors
  county: Uppsala
  country: Sverige
  latitude: 60.3813747
  longitude: 17.2444864

- location: Söderköpings Bio
  urn: null
  city: null
  county: null
  country: Sverige
  latitude: null
  longitude: null

- location: Söråkers Folkets Hus
  urn: null
  city: Söråker
  county: Västernorrland
  country: Sverige
  latitude: 62.5071413
  longitude: 17.507327

- location: Tidaholms Folkets Park
  urn: null
  city: Tidaholm
  county: Västra Götaland
  country: Sverige
  latitude: 58.1899203
  longitude: 13.9450004

- location: Tingsryd Folkpark
  urn: null
  city: Tingsryd
  county: Kronoberg
  country: Sverige
  latitude: 56.5279966
  longitude: 14.9546607

- location: Tobo Folkets Hus
  urn: null
  city: Tobo
  county: Uppsala
  country: Sverige
  latitude: 60.2613778
  longitude: 17.6578305

- location: Stjärnan Plus Torsby
  urn: null
  city: Torsby
  county: Värmland
  country: Sverige
  latitude: 60.1345193
  longitude: 13.0076591

- location: Folketshusföreningen Vingen
  urn: null
  city: Torslanda
  county: Västra Götaland
  country: Sverige
  latitude: 57.7101598
  longitude: 11.7743181

- location: Torsås Folkets Hus
  urn: null
  city: Torsås
  county: Kalmar
  country: Sverige
  latitude: 56.4116361
  longitude: 15.9973044

- location: Brännö Folkets Park
  urn: null
  city: Torup
  county: Halland
  country: Sverige
  latitude: 57.0077364584865
  longitude: 13.0979883670807

- location: Parkuddens Vänner
  urn: null
  city: Tranemo
  county: Västra Götaland
  country: Sverige
  latitude: 57.4852035
  longitude: 13.3421984

- location: Bio Tranan
  urn: null
  city: Tranemo
  county: Västra Götaland
  country: Sverige
  latitude: 57.4861088
  longitude: 13.3511704

- location: Tranås Folkets Hus
  urn: null
  city: Tranås
  county: Jönköping
  country: Sverige
  latitude: 58.0317028
  longitude: 14.9724274

- location: Trehörningsjö Medborgarhus
  urn: null
  city: Trehörningsjö
  county: Västernorrland
  country: Sverige
  latitude: 63.6932082
  longitude: 18.8590399

- location: Trollhättans Folkets Hus Kulturhuset
  urn: null
  city: Trollhättan
  county: Västra Götaland
  country: Sverige
  latitude: 58.2861139
  longitude: 12.291736

- location: Trosa Folkets Hus
  urn: null
  city: Trosa
  county: Södermanland
  country: Sverige
  latitude: 58.8982157
  longitude: 17.5400212

- location: Tumbascenen
  urn: null
  city: Tumba
  county: Stockholm
  country: Sverige
  latitude: 59.2018904
  longitude: 17.8362283

- location: Hågelbyparken
  urn: null
  city: Tumba
  county: Stockholm
  country: Sverige
  latitude: 59.2179027
  longitude: 17.8304369

- location: Tvååkers Medborgarhus
  urn: null
  city: Tvååker
  county: Halland
  country: Sverige
  latitude: 57.0423085
  longitude: 12.3970828

- location: Forellen biograf
  urn: null
  city: Tyresö
  county: Stockholm
  country: Sverige
  latitude: 59.2456228
  longitude: 18.2284791

- location: Tärnsjö Folkets Hus
  urn: null
  city: Tärnsjö
  county: Uppsala
  country: Sverige
  latitude: 60.1567689
  longitude: 16.9328427

- location: Herrestads Folkets Hus
  urn: null
  city: Uddevalla
  county: Västra Götaland
  country: Sverige
  latitude: 58.3640359
  longitude: 11.8076813

- location: Uddevalla Folkets Hus
  urn: null
  city: Uddevalla
  county: Västra Götaland
  country: Sverige
  latitude: 58.3466632
  longitude: 11.9310952

- location: KUD-Kultur och utbildning på distans
  urn: null
  city: Ullared
  county: Halland
  country: Sverige
  latitude: 57.1368941
  longitude: 12.7228725

- location: Ullatti Folkets Hus
  urn: null
  city: Ullatti
  county: Norrbotten
  country: Sverige
  latitude: 67.0124106
  longitude: 21.8187350000001

- location: Ulricehamns Folkets Hus
  urn: null
  city: Ulricehamn
  county: Västra Götaland
  country: Sverige
  latitude: 57.7913636
  longitude: 13.4151634

- location: Ersboda Folkets Hus
  urn: null
  city: Umeå
  county: Västerbotten
  country: Sverige
  latitude: 63.8578193
  longitude: 20.335657

- location: Umeå Folkets Hus
  urn: null
  city: Umeå
  county: Västerbotten
  country: Sverige
  latitude: 63.8262427
  longitude: 20.2668143999999

- location: Klemensnäs Folkets Hus
  urn: null
  city: Ursviken
  county: Västerbotten
  country: Sverige
  latitude: 64.7140211
  longitude: 21.1605429

- location: Utansjö Folkets Hus
  urn: null
  city: Utansjö
  county: Västernorrland
  country: Sverige
  latitude: 62.7765409
  longitude: 17.9126082

- location: Vadstena Folkets Park
  urn: null
  city: Vadstena
  county: Östergötland
  country: Sverige
  latitude: 58.4430737
  longitude: 14.9135537

- location: Vaggeryds Byggnadsföreningen
  urn: null
  city: Vaggeryd
  county: Jönköping
  country: Sverige
  latitude: 57.4960673
  longitude: 14.1418628

- location: Valdemarsviks Folkets Park
  urn: null
  city: Valdemarsvik
  county: Östergötland
  country: Sverige
  latitude: 58.2132122
  longitude: 16.5908615

- location: Vallentuna Folkets Hus
  urn: null
  city: Vallentuna
  county: Stockholm
  country: Sverige
  latitude: 59.5365494
  longitude: 18.0804206

- location: Varberg Folkets Hus
  urn: null
  city: Varberg
  county: Halland
  country: Sverige
  latitude: 57.1099867
  longitude: 12.2550435000001

- location: Vellinge Folketshusförening
  urn: null
  city: Vellinge
  county: Skåne
  country: Sverige
  latitude: 55.4701369
  longitude: 13.0243161

- location: Vetlanda Folkets Park
  urn: null
  city: Vetlanda
  county: Jönköping
  country: Sverige
  latitude: 57.4360591
  longitude: 15.0880271999999

- location: Vetlanda Folkets Hus
  urn: null
  city: Vetlanda
  county: Jönköping
  country: Sverige
  latitude: 57.4273984
  longitude: 15.0883933

- location: Vidsel Kulturhus
  urn: null
  city: Vidsel
  county: Norrbotten
  country: Sverige
  latitude: 65.8342688
  longitude: 20.5106829

- location: Kuddby Centrumlokal
  urn: null
  city: Vikbolandet
  county: Östergötland
  country: Sverige
  latitude: 58.5251742098123
  longitude: 16.4501291374344

- location: Viksjö Folkets Hus
  urn: null
  city: Viksjö
  county: Västernorrland
  country: Sverige
  latitude: 62.775873
  longitude: 17.4228814

- location: Vilhelmina Folkets Hus
  urn: null
  city: Vilhelmina
  county: Västerbotten
  country: Sverige
  latitude: 64.626352
  longitude: 16.6561098

- location: Dalasjö Folkets Hus
  urn: null
  city: Vilhelmina
  county: Västerbotten
  country: Sverige
  latitude: 64.6320546
  longitude: 16.6393957

- location: Vimmerby Folkets Park & Hus
  urn: null
  city: Vimmerby
  county: Kalmar
  country: Sverige
  latitude: 57.6643134
  longitude: 15.8777044

- location: Vingåkers Folkets Park
  urn: null
  city: Vingåker
  county: Södermanland
  country: Sverige
  latitude: 59.0332277
  longitude: 15.8589476

- location: Vintrosa Folkets Hus
  urn: null
  city: Vintrosa
  county: Örebro
  country: Sverige
  latitude: 59.2541098
  longitude: 14.9561188

- location: Virsbo Folkets Hus
  urn: null
  city: Virsbo
  county: Västmanland
  country: Sverige
  latitude: 59.8814626
  longitude: 16.057138

- location: Virserums Konsthall
  urn: null
  city: Virserum
  county: Kalmar
  country: Sverige
  latitude: 57.3171359589928
  longitude: 15.5921166603272

- location: Vittangi Folkets Hus
  urn: null
  city: Vittangi
  county: Norrbotten
  country: Sverige
  latitude: 67.6781161
  longitude: 21.6404861999999

- location: Vitå Folkets Hus
  urn: null
  city: Vitå
  county: Norrbotten
  country: Sverige
  latitude: 65.9266059
  longitude: 22.4315453

- location: Vivalla Folkets Hus
  urn: null
  city: Vivalla
  county: Örebro
  country: Sverige
  latitude: 59.2993809527952
  longitude: 15.1918342423584

- location: Ågården
  urn: null
  city: Vollsjö
  county: Skåne
  country: Sverige
  latitude: 55.7063796
  longitude: 13.7854611

- location: Vrena Folkets Hus
  urn: null
  city: Vrena
  county: Södermanland
  country: Sverige
  latitude: 58.8655054
  longitude: 16.7019438

- location: Vretstorps Folkets Hus och Park
  urn: null
  city: Vretstorp
  county: Örebro
  country: Sverige
  latitude: 59.0247612
  longitude: 14.8674608

- location: Vuollerims Folkets Hus
  urn: null
  city: Vuollerim
  county: Norrbotten
  country: Sverige
  latitude: 66.4305528
  longitude: 20.633693

- location: Vårgårda Folkets Park
  urn: null
  city: Vårgårda
  county: Västra Götaland
  country: Sverige
  latitude: 58.0324089
  longitude: 12.8103295

- location: Vällingby Folkets Hus
  urn: null
  city: Vällingby
  county: Stockholm
  country: Sverige
  latitude: 59.3623795892771
  longitude: 17.8715359304413

- location: Dalaborgsparken
  urn: null
  city: Vänersborg
  county: Västra Götaland
  country: Sverige
  latitude: 58.3822453
  longitude: 12.3049681

- location: Vänersborgs Folkets Hus
  urn: null
  city: Vänersborg
  county: Västra Götaland
  country: Sverige
  latitude: 58.3802095
  longitude: 12.3246114

- location: Vännäs Medborgarhus
  urn: null
  city: Vännäs
  county: Västerbotten
  country: Sverige
  latitude: 63.9083664
  longitude: 19.7514652

- location: Värnamo Folkets Park
  urn: null
  city: Värnamo
  county: Jönköping
  country: Sverige
  latitude: 57.1849447575174
  longitude: 14.0270207446887

- location: Ydre Kulturcentrum
  urn: null
  city: Ydre
  county: Östergötland
  country: Sverige
  latitude: 57.8248099
  longitude: 15.2876618

- location: Balkåkra Folkets Hus
  urn: null
  city: Ystad
  county: Skåne
  country: Sverige
  latitude: 55.4482854
  longitude: 13.7150985

- location: Surbrunnsparken
  urn: null
  city: Ystad
  county: Skåne
  country: Sverige
  latitude: 55.4361147
  longitude: 13.8254171

- location: Ytterhogdals Folkets Hus
  urn: null
  city: Ytterhogdal
  county: Jämtland
  country: Sverige
  latitude: 62.1734816
  longitude: 14.941926

- location: Åby Folkets Hus
  urn: null
  city: Åby
  county: Östergötland
  country: Sverige
  latitude: 58.6706418
  longitude: 16.1898831

- location: Nya Åhusparken
  urn: null
  city: Åhus
  county: Skåne
  country: Sverige
  latitude: 55.9313967
  longitude: 14.3026049

- location: Åmmebergs Folkets Hus
  urn: null
  city: Åmmeberg
  county: Örebro
  country: Sverige
  latitude: 58.8665338
  longitude: 15.0007862

- location: Åmotfors Folkets Hus
  urn: null
  city: Åmotfors
  county: Värmland
  country: Sverige
  latitude: 59.7617902
  longitude: 12.3622356999999

- location: Hammars Folkets Hus
  urn: null
  city: Åmotfors
  county: Värmland
  country: Sverige
  latitude: 59.8334651
  longitude: 12.3387564

- location: Åmotfors Folkets Park
  urn: null
  city: Åmotfors
  county: Värmland
  country: Sverige
  latitude: 59.7682009
  longitude: 12.3538126

- location: Åmsele Folkets Hus
  urn: null
  city: Åmsele
  county: Västerbotten
  country: Sverige
  latitude: 64.5325006
  longitude: 19.3501341

- location: Ånge Folkets Hus
  urn: null
  city: Ånge
  county: Västernorrland
  country: Sverige
  latitude: 62.5249367
  longitude: 15.6603693

- location: Tingshusstiftelsen i Ånäset
  urn: null
  city: Ånäset
  county: Västerbotten
  country: Sverige
  latitude: 64.2768118
  longitude: 21.0400271

- location: Årjängs Folkets Hus
  urn: null
  city: Årjäng
  county: Värmland
  country: Sverige
  latitude: 59.3850781
  longitude: 12.1209534

- location: Blomskogs Folkets Hus
  urn: null
  city: Årjäng
  county: Värmland
  country: Sverige
  latitude: 59.257934
  longitude: 12.0419

- location: Trankils Folkets Hus
  urn: null
  city: Årjäng
  county: Värmland
  country: Sverige
  latitude: 59.3190983
  longitude: 11.9019428

- location: Årsta Folkets Hus
  urn: null
  city: Årsta
  county: Stockholm
  country: Sverige
  latitude: 59.2973315
  longitude: 18.0498738

- location: Åseda Folkets Hus
  urn: null
  city: Åseda
  county: Kronoberg
  country: Sverige
  latitude: 57.1714672
  longitude: 15.3437103

- location: Åsensbruks Föreningshus
  urn: null
  city: Åsensbruk
  county: Västra Götaland
  country: Sverige
  latitude: 58.8072636
  longitude: 12.4191215

- location: Älmhults Folkets Hus
  urn: null
  city: Älmhult
  county: Kronoberg
  country: Sverige
  latitude: 56.5577467
  longitude: 14.1435365

- location: Marma Byggnadsförening
  urn: null
  city: Älvkarleby
  county: Uppsala
  country: Sverige
  latitude: 60.4897979
  longitude: 17.428504

- location: Älvsbyns Folkets Hus
  urn: null
  city: Älvsbyn
  county: Norrbotten
  country: Sverige
  latitude: 65.6743124
  longitude: 21.0032088

- location: Älvsjö Park Folkets Hus
  urn: null
  city: Älvsjö
  county: Stockholm
  country: Sverige
  latitude: 59.2832372
  longitude: 18.027198

- location: Ödeborgs Folkets Hus
  urn: null
  city: Ödeborg
  county: Västra Götaland
  country: Sverige
  latitude: 58.5434109
  longitude: 11.9805202

- location: Ödeshög Folkets Park
  urn: null
  city: Ödeshög
  county: Östergötland
  country: Sverige
  latitude: 58.2304695
  longitude: 14.6374022

- location: Saga Kulturhus
  urn: null
  city: Ödeshög
  county: Östergötland
  country: Sverige
  latitude: 58.2293585
  longitude: 14.6465282

- location: Sävedalens Folkets Hus
  urn: null
  city: Öjersjö
  county: Västra Götaland
  country: Sverige
  latitude: 57.7330931
  longitude: 12.0804396

- location: Folkets Park Örebro, Brunnsparken
  urn: null
  city: Örebro
  county: Örebro
  country: Sverige
  latitude: 59.2479594
  longitude: 15.1673917000001

- location: Gullängets Folkets Hus
  urn: null
  city: Örnsköldsvik
  county: Västernorrland
  country: Sverige
  latitude: 63.3143192
  longitude: 18.7040850999999

- location: Örvikens Folkets Hus
  urn: null
  city: Örviken
  county: Västerbotten
  country: Sverige
  latitude: 64.6706629
  longitude: 21.1870254

- location: Östansjö Folkets Hus
  urn: null
  city: Östansjö
  county: Örebro
  country: Sverige
  latitude: 59.042894
  longitude: 14.980294

- location: Östavalls Folkets Hus
  urn: null
  city: Östavall
  county: Västernorrland
  country: Sverige
  latitude: 62.4287359
  longitude: 15.4757368000001

- location: Träffpunkten Kölsillre
  urn: null
  city: Östavall
  county: Västernorrland
  country: Sverige
  latitude: 62.3980712
  longitude: 15.2084022

- location: Österbybruks Folkets Hus och Park
  urn: null
  city: Österbybruk
  county: Uppsala
  country: Sverige
  latitude: 60.198213
  longitude: 17.8816124

- location: Östersunds Folkets Hus
  urn: null
  city: Östersund
  county: Jämtland
  country: Sverige
  latitude: 63.1616727
  longitude: 14.6741073000001

- location: Östervåla Byggnadsförening
  urn: null
  city: Östervåla
  county: Uppsala
  country: Sverige
  latitude: 60.1807413
  longitude: 17.1795162999999

- location: Skogsvallen-Östervåla IF
  urn: null
  city: Östervåla
  county: Uppsala
  country: Sverige
  latitude: 60.1695226
  longitude: 17.1879299

- location: Överkalix Folkets Hus
  urn: null
  city: Överkalix
  county: Norrbotten
  country: Sverige
  latitude: 66.329488
  longitude: 22.839081

- location: Övertorneå Folkets Hus
  urn: null
  city: Övertorneå
  county: Norrbotten
  country: Sverige
  latitude: 66.3834794
  longitude: 23.6486331999999

- location: Överturingens Folkets Hus
  urn: null
  city: Överturingen
  county: Västernorrland
  country: Sverige
  latitude: 62.4509135
  longitude: 14.9170575000001
