meta:
  name: Granngården
  web: https://www.granngarden.se/
  wikipedia: https://sv.wikipedia.org/wiki/Granng%C3%A5rden_AB
  category: Djur och Fritid
  locations: 107

locations:
- location: Granngården Tanumshede
  city: Tanumshede
  latitude: 58.724438
  longitude: 11.328563

- location: Granngården Uddevalla
  city: Uddevalla
  latitude: 58.348937
  longitude: 11.826062

- location: Granngården Kungälv
  city: Kungälv
  latitude: 57.882562
  longitude: 11.983812

- location: Granngården Kungsbacka
  city: Kungsbacka
  latitude: 57.484313
  longitude: 12.080562

- location: Granngården Varberg
  city: Varberg
  latitude: 57.121688
  longitude: 12.283812

- location: Granngården Trollhättan
  city: Trollhättan
  latitude: 58.315812
  longitude: 12.311687

- location: Granngården Falkenberg
  city: Falkenberg
  latitude: 56.933813
  longitude: 12.515812

- location: Granngården Alingsås
  city: Alingsås
  latitude: 57.940687
  longitude: 12.557562

- location: Granngården Arvika
  city: Arvika
  latitude: 59.674187
  longitude: 12.592813

- location: Granngården Kinna
  city: Kinna
  latitude: 57.497813
  longitude: 12.679688

- location: Granngården Åmål
  city: Åmål
  latitude: 59.045313
  longitude: 12.681188

- location: Granngården Helsingborg
  city: Helsingborg
  latitude: 56.093187
  longitude: 12.765313

- location: Granngården Borås
  city: Borås
  latitude: 57.715688
  longitude: 12.885063

- location: Granngården Ängelholm
  city: Ängelholm
  latitude: 56.250062
  longitude: 12.894938

- location: Granngården Halmstad
  city: Halmstad
  latitude: 56.651187
  longitude: 12.895563

- location: Granngården Säffle
  city: Säffle
  latitude: 59.135937
  longitude: 12.924563

- location: Granngården Vara
  city: Vara
  latitude: 58.269188
  longitude: 12.961313

- location: Granngården Löddeköpinge
  city: Löddeköpinge
  latitude: 55.767937
  longitude: 12.995062

- location: Granngården Malmö
  city: Malmö
  latitude: 55.550062
  longitude: 12.998437

- location: Granngården Torsby
  city: Torsby
  latitude: 60.150688
  longitude: 13.009187

- location: Granngården Sunne
  city: Sunne
  latitude: 59.851687
  longitude: 13.160312

- location: Granngården Lidköping
  city: Lidköping
  latitude: 58.505562
  longitude: 13.164312

- location: Granngården Eslöv
  city: Eslöv
  latitude: 55.842687
  longitude: 13.310688

- location: Granngården Dalby
  city: Dalby
  latitude: 55.660438
  longitude: 13.344687

- location: Granngården Ulricehamn
  city: Ulricehamn
  latitude: 57.806438
  longitude: 13.410937

- location: Granngården Karlstad
  city: Karlstad
  latitude: 59.373812
  longitude: 13.444688

- location: Granngården Ekshärad
  city: Ekshärad
  latitude: 60.166187
  longitude: 13.499688

- location: Granngården Gislaved
  city: Gislaved
  latitude: 57.304812
  longitude: 13.545438

- location: Granngården Falköping
  city: Falköping
  latitude: 58.150937
  longitude: 13.562188

- location: Granngården Sjöbo
  city: Sjöbo
  latitude: 55.639063
  longitude: 13.684687

- location: Granngården Mariestad
  city: Mariestad
  latitude: 58.694812
  longitude: 13.817687

- location: Granngården Ystad
  city: Ystad
  latitude: 55.435938
  longitude: 13.836813

- location: Granngården Skövde
  city: Skövde
  latitude: 58.406188
  longitude: 13.866688

- location: Granngården Ljungby
  city: Ljungby
  latitude: 56.828688
  longitude: 13.936687

- location: Granngården Värnamo
  city: Värnamo
  latitude: 57.173687
  longitude: 14.062188

- location: Granngården Kristinehamn
  city: Kristinehamn
  latitude: 59.311688
  longitude: 14.099813

- location: Granngården Kristianstad
  city: Kristianstad
  latitude: 56.023812
  longitude: 14.115813

- location: Granngården Jönköping
  city: Jönköping
  latitude: 57.760312
  longitude: 14.169688

- location: Granngården Hjo
  city: Hjo
  latitude: 58.311437
  longitude: 14.288187

- location: Granngården DalaJärna
  city: DalaJärna
  latitude: 60.543937
  longitude: 14.306062

- location: Granngården Myrviken
  city: Myrviken
  latitude: 62.998312
  longitude: 14.340687

- location: Granngården Karlskoga
  city: Karlskoga
  latitude: 59.320187
  longitude: 14.464437

- location: Granngården Mora
  city: Mora
  latitude: 61.007687
  longitude: 14.597437

- location: Granngården Östersund
  city: Östersund
  latitude: 63.162063
  longitude: 14.653937

- location: Granngården Sävsjö
  city: Sävsjö
  latitude: 57.398562
  longitude: 14.663063

- location: Granngården Nässjö
  city: Nässjö
  latitude: 57.646812
  longitude: 14.693812

- location: Granngården Växjö
  city: Växjö
  latitude: 56.877938
  longitude: 14.766938

- location: Granngården Karlshamn
  city: Karlshamn
  latitude: 56.178062
  longitude: 14.848937

- location: Granngården Fjugesta
  city: Fjugesta
  latitude: 59.170187
  longitude: 14.881187

- location: Granngården Askersund
  city: Askersund
  latitude: 58.898562
  longitude: 14.896688

- location: Granngården Tranås
  city: Tranås
  latitude: 58.038187
  longitude: 14.967937

- location: Granngården Eksjö
  city: Eksjö
  latitude: 57.661812
  longitude: 14.995563

- location: Granngården Leksand
  city: Leksand
  latitude: 60.745438
  longitude: 15.003312

- location: Granngården Motala
  city: Motala
  latitude: 58.556313
  longitude: 15.061187

- location: Granngården Vetlanda
  city: Vetlanda
  latitude: 57.443687
  longitude: 15.065938

- location: Granngården Örebro
  city: Örebro
  latitude: 59.212688
  longitude: 15.138438

- location: Granngården Lindesberg
  city: Lindesberg
  latitude: 59.598687
  longitude: 15.197188

- location: Granngården Smedjebacken
  city: Smedjebacken
  latitude: 60.136312
  longitude: 15.398687

- location: Granngården Borlänge
  city: Borlänge
  latitude: 60.477812
  longitude: 15.407063

- location: Granngården Karlskrona
  city: Karlskrona
  latitude: 56.215812
  longitude: 15.637438

- location: Granngården Falun
  city: Falun
  latitude: 60.605812
  longitude: 15.663438

- location: Granngården Edsbyn
  city: Edsbyn
  latitude: 61.373062
  longitude: 15.823812

- location: Granngården Vimmerby
  city: Vimmerby
  latitude: 57.669313
  longitude: 15.844812

- location: Granngården Arboga
  city: Arboga
  latitude: 59.394937
  longitude: 15.850563

- location: Granngården Hedemora
  city: Hedemora
  latitude: 60.286938
  longitude: 15.990312

- location: Granngården Ljusdal
  city: Ljusdal
  latitude: 61.825938
  longitude: 16.091062

- location: Granngården Norrköping
  city: Norrköping
  latitude: 58.616062
  longitude: 16.174813

- location: Granngården Krylbo
  city: Krylbo
  latitude: 60.124063
  longitude: 16.217562

- location: Granngården Kalmar
  city: Kalmar
  latitude: 56.690938
  longitude: 16.319688

- location: Granngården Hammarstrand
  city: Hammarstrand
  latitude: 63.098062
  longitude: 16.356437

- location: Granngården Bollnäs
  city: Bollnäs
  latitude: 61.337063
  longitude: 16.398812

- location: Granngården Oskarshamn
  city: Oskarshamn
  latitude: 57.254937
  longitude: 16.460813

- location: Granngården Eskilstuna
  city: Eskilstuna
  latitude: 59.396812
  longitude: 16.470937

- location: Granngården Kungsgården
  city: Kungsgården
  latitude: 60.604563
  longitude: 16.586937

- location: Granngården Västervik
  city: Västervik
  latitude: 57.759687
  longitude: 16.610687

- location: Granngården Sala
  city: Sala
  latitude: 59.934188
  longitude: 16.620188

- location: Granngården Västerås
  city: Västerås
  latitude: 59.608187
  longitude: 16.623562

- location: Granngården Vilhelmina
  city: Vilhelmina
  latitude: 64.622687
  longitude: 16.655062

- location: Granngården Nyköping
  city: Nyköping
  latitude: 58.747687
  longitude: 16.973813

- location: Granngården Söderhamn
  city: Söderhamn
  latitude: 61.302688
  longitude: 17.034438

- location: Granngården Enköping
  city: Enköping
  latitude: 59.650437
  longitude: 17.091062

- location: Granngården Hudiksvall
  city: Hudiksvall
  latitude: 61.745937
  longitude: 17.112687

- location: Granngården Gävle
  city: Gävle
  latitude: 60.662312
  longitude: 17.177188

- location: Granngården Gnesta
  city: Gnesta
  latitude: 59.049563
  longitude: 17.303187

- location: Granngården Sollefteå
  city: Sollefteå
  latitude: 63.157937
  longitude: 17.320188

- location: Granngården Sundsvall
  city: Sundsvall
  latitude: 62.441562
  longitude: 17.327937

- location: Granngården Tierp
  city: Tierp
  latitude: 60.342062
  longitude: 17.524563

- location: Granngården Södertälje
  city: Södertälje
  latitude: 59.164313
  longitude: 17.642562

- location: Granngården Uppsala
  city: Uppsala
  latitude: 59.847062
  longitude: 17.682812

- location: Granngården Sorunda
  city: Sorunda
  latitude: 58.994187
  longitude: 17.797812

- location: Granngården Alunda
  city: Alunda
  latitude: 60.076313
  longitude: 18.090313

- location: Granngården Arninge
  city: Arninge
  latitude: 59.462937
  longitude: 18.130938

- location: Granngården Haninge
  city: Haninge
  latitude: 59.175937
  longitude: 18.144188

- location: Granngården Visby
  city: Visby
  latitude: 57.627562
  longitude: 18.277563

- location: Granngården Östhammar
  city: Östhammar
  latitude: 60.260813
  longitude: 18.361688

- location: Granngården Rimbo
  city: Rimbo
  latitude: 59.742062
  longitude: 18.373688

- location: Granngården Hemse
  city: Hemse
  latitude: 57.236937
  longitude: 18.382062

- location: Granngården Värmdö
  city: Värmdö
  latitude: 59.312438
  longitude: 18.422187

- location: Granngården Norrtälje
  city: Norrtälje
  latitude: 59.767562
  longitude: 18.689437

- location: Granngården Lycksele
  city: Lycksele
  latitude: 64.585062
  longitude: 18.698437

- location: Granngården Örnsköldsvik
  city: Örnsköldsvik
  latitude: 63.308312
  longitude: 18.750563

- location: Granngården Umeå
  city: Umeå
  latitude: 63.836188
  longitude: 20.244813

- location: Granngården Skellefteå
  city: Skellefteå
  latitude: 64.757813
  longitude: 20.921687

- location: Granngården Piteå
  city: Piteå
  latitude: 65.318313
  longitude: 21.445313

- location: Granngården Boden
  city: Boden
  latitude: 65.819688
  longitude: 21.707937

- location: Granngården Luleå
  city: Luleå
  latitude: 65.618188
  longitude: 22.051313

- location: Granngården Kalix
  city: Kalix
  latitude: 65.863062
  longitude: 23.140437
