meta:
  name: Handelsbanken
  web: https://www.handelsbanken.se/
  wikipedia: https://sv.wikipedia.org/wiki/Svenska_Handelsbanken
  category: Bank och Valuta
  locations: 204

locations:
- location: Handelsbanken Göteborg Torslanda
  city: Torslanda
  urn: urn:handelsbanken:branch:id:6238
  country: Sverige
  latitude: 57.709946
  longitude: 11.774278

- location: Handelsbanken Stenungsund
  city: Stenungsund
  urn: urn:handelsbanken:branch:id:6683
  country: Sverige
  latitude: 58.063122
  longitude: 11.815489

- location: Handelsbanken Göteborg Volvo PVB
  city: Göteborg
  urn: urn:handelsbanken:branch:id:6239
  country: Sverige
  latitude: 57.727715
  longitude: 11.8612

- location: Handelsbanken Älvsborg
  city: Västra Frölunda
  urn: urn:handelsbanken:branch:id:6247
  country: Sverige
  latitude: 57.671969
  longitude: 11.880107

- location: Handelsbanken Göteborg Frölunda
  city: Västra Frölunda
  urn: urn:handelsbanken:branch:id:6686
  country: Sverige
  latitude: 57.647541
  longitude: 11.913734

- location: Handelsbanken Eriksberg Lindholmen
  city: Göteborg
  urn: urn:handelsbanken:branch:id:6692
  country: Sverige
  latitude: 57.70908
  longitude: 11.920406

- location: Handelsbanken Uddevalla
  city: Uddevalla
  urn: urn:handelsbanken:branch:id:6846
  country: Sverige
  latitude: 58.349395
  longitude: 11.934593

- location: Handelsbanken Göteborg Första Långgatan
  city: Göteborg
  urn: urn:handelsbanken:branch:id:6682
  country: Sverige
  latitude: 57.699494
  longitude: 11.94674

- location: Handelsbanken Göteborg Sisjön
  city: Askim
  urn: urn:handelsbanken:branch:id:6232
  country: Sverige
  latitude: 57.640733
  longitude: 11.947385

- location: Handelsbanken Kungälv
  city: Kungälv
  urn: urn:handelsbanken:branch:id:6856
  country: Sverige
  latitude: 57.874572
  longitude: 11.966813

- location: Handelsbanken Göteborg City
  city: Göteborg
  urn: urn:handelsbanken:branch:id:6691
  country: Sverige
  latitude: 57.705868
  longitude: 11.968027

- location: Handelsbanken Göteborg Avenyn
  city: Göteborg
  urn: urn:handelsbanken:branch:id:6694
  country: Sverige
  latitude: 57.699092
  longitude: 11.977466

- location: Handelsbanken Mölndal
  city: Mölndal
  urn: urn:handelsbanken:branch:id:6690
  country: Sverige
  latitude: 57.652739
  longitude: 11.987291

- location: Handelsbanken Göteborg Almedal
  city: Göteborg
  urn: urn:handelsbanken:branch:id:6226
  country: Sverige
  latitude: 57.683031
  longitude: 12.003033

- location: Handelsbanken Göteborg Örgryte
  city: Göteborg
  urn: urn:handelsbanken:branch:id:6228
  country: Sverige
  latitude: 57.704811
  longitude: 12.007259

- location: Handelsbanken Kungsbacka
  city: Kungsbacka
  urn: urn:handelsbanken:branch:id:6233
  country: Sverige
  latitude: 57.489323
  longitude: 12.073285

- location: Handelsbanken Partille
  city: Sävedalen
  urn: urn:handelsbanken:branch:id:6229
  country: Sverige
  latitude: 57.733226
  longitude: 12.076476

- location: Handelsbanken Mölnlycke
  city: Mölnlycke
  urn: urn:handelsbanken:branch:id:6237
  country: Sverige
  latitude: 57.658816
  longitude: 12.116975

- location: Handelsbanken Varberg
  city: Varberg
  urn: urn:handelsbanken:branch:id:6231
  country: Sverige
  latitude: 57.105775
  longitude: 12.248986

- location: Handelsbanken Lerum
  city: Lerum
  urn: urn:handelsbanken:branch:id:6244
  country: Sverige
  latitude: 57.770016
  longitude: 12.271159

- location: Handelsbanken Trollhättan
  city: Trollhättan
  urn: urn:handelsbanken:branch:id:6845
  country: Sverige
  latitude: 58.284301
  longitude: 12.288798

- location: Handelsbanken Vänersborg
  city: Vänersborg
  urn: urn:handelsbanken:branch:id:6831
  country: Sverige
  latitude: 58.378609
  longitude: 12.322048

- location: Handelsbanken Falkenberg
  city: Falkenberg
  urn: urn:handelsbanken:branch:id:6234
  country: Sverige
  latitude: 56.903445
  longitude: 12.484103

- location: Handelsbanken Alingsås
  city: Alingsås
  urn: urn:handelsbanken:branch:id:6832
  country: Sverige
  latitude: 57.930405
  longitude: 12.535346

- location: Handelsbanken Höganäs
  city: Höganäs
  urn: urn:handelsbanken:branch:id:6790
  country: Sverige
  latitude: 56.199381
  longitude: 12.555198

- location: Handelsbanken Bollebygd
  city: Bollebygd
  urn: urn:handelsbanken:branch:id:6664
  country: Sverige
  latitude: 57.667886
  longitude: 12.568381

- location: Handelsbanken Helsingborg Stortorget
  city: Helsingborg
  urn: urn:handelsbanken:branch:id:6751
  country: Sverige
  latitude: 56.046662
  longitude: 12.693716

- location: Handelsbanken Åmål
  city: Åmål
  urn: urn:handelsbanken:branch:id:6851
  country: Sverige
  latitude: 59.05111
  longitude: 12.705918

- location: Handelsbanken Landskrona
  city: Landskrona
  urn: urn:handelsbanken:branch:id:6757
  country: Sverige
  latitude: 55.870827
  longitude: 12.829909

- location: Handelsbanken Skanör
  city: Skanör
  urn: urn:handelsbanken:branch:id:6786
  country: Sverige
  latitude: 55.412513
  longitude: 12.843938

- location: Handelsbanken Båstad
  city: Båstad
  urn: urn:handelsbanken:branch:id:6730
  country: Sverige
  latitude: 56.426769
  longitude: 12.849241

- location: Handelsbanken Ängelholm
  city: Ängelholm
  urn: urn:handelsbanken:branch:id:6875
  country: Sverige
  latitude: 56.243004
  longitude: 12.862462

- location: Handelsbanken Halmstad
  city: Halmstad
  urn: urn:handelsbanken:branch:id:6748
  country: Sverige
  latitude: 56.674207
  longitude: 12.866071

- location: Handelsbanken Malmö Limhamn
  city: Limhamn
  urn: urn:handelsbanken:branch:id:6758
  country: Sverige
  latitude: 55.582439
  longitude: 12.932149

- location: Handelsbanken Borås City
  city: Borås
  urn: urn:handelsbanken:branch:id:6651
  country: Sverige
  latitude: 57.716887
  longitude: 12.935116

- location: Handelsbanken Vara
  city: Vara
  urn: urn:handelsbanken:branch:id:6848
  country: Sverige
  latitude: 58.261891
  longitude: 12.951492

- location: Handelsbanken Höllviken
  city: Höllviken
  urn: urn:handelsbanken:branch:id:6726
  country: Sverige
  latitude: 55.421242
  longitude: 12.956693

- location: Handelsbanken Malmö Fridhem
  city: Malmö
  urn: urn:handelsbanken:branch:id:6773
  country: Sverige
  latitude: 55.593989
  longitude: 12.965205

- location: Handelsbanken Malmö City
  city: Malmö
  urn: urn:handelsbanken:branch:id:6761
  country: Sverige
  latitude: 55.610179
  longitude: 13.00106

- location: Handelsbanken Malmö Stortorget
  city: Malmö
  urn: urn:handelsbanken:branch:id:6770
  country: Sverige
  latitude: 55.605583
  longitude: 13.001493

- location: Handelsbanken Malmö Fosie
  city: Malmö
  urn: urn:handelsbanken:branch:id:6833
  country: Sverige
  latitude: 55.569698
  longitude: 13.053022

- location: Handelsbanken Malmö Öster
  city: Malmö
  urn: urn:handelsbanken:branch:id:6779
  country: Sverige
  latitude: 55.595785
  longitude: 13.065526

- location: Handelsbanken Lomma
  city: Lomma
  urn: urn:handelsbanken:branch:id:6760
  country: Sverige
  latitude: 55.673247
  longitude: 13.068803

- location: Handelsbanken Åre
  city: Åre
  urn: urn:handelsbanken:branch:id:6381
  country: Sverige
  latitude: 63.39875
  longitude: 13.076631

- location: Handelsbanken Kävlinge
  city: Kävlinge
  urn: urn:handelsbanken:branch:id:6827
  country: Sverige
  latitude: 55.791341
  longitude: 13.109436

- location: Handelsbanken Sunne
  city: Sunne
  urn: urn:handelsbanken:branch:id:6803
  country: Sverige
  latitude: 59.837607
  longitude: 13.147067

- location: Handelsbanken Trelleborg
  city: Trelleborg
  urn: urn:handelsbanken:branch:id:6821
  country: Sverige
  latitude: 55.372996
  longitude: 13.153945

- location: Handelsbanken Lidköping
  city: Lidköping
  urn: urn:handelsbanken:branch:id:6655
  country: Sverige
  latitude: 58.503268
  longitude: 13.157018

- location: Handelsbanken Lund City
  city: Lund
  urn: urn:handelsbanken:branch:id:6759
  country: Sverige
  latitude: 55.701078
  longitude: 13.192543

- location: Handelsbanken Staffanstorp
  city: Staffanstorp
  urn: urn:handelsbanken:branch:id:6816
  country: Sverige
  latitude: 55.644007
  longitude: 13.208758

- location: Handelsbanken Lund Ideon
  city: Lund
  urn: urn:handelsbanken:branch:id:6752
  country: Sverige
  latitude: 55.716874
  longitude: 13.216252

- location: Handelsbanken Eslöv
  city: Eslöv
  urn: urn:handelsbanken:branch:id:6753
  country: Sverige
  latitude: 55.839867
  longitude: 13.303315

- location: Handelsbanken Lima
  city: Lima
  urn: urn:handelsbanken:branch:id:6480
  country: Sverige
  latitude: 60.93459
  longitude: 13.360464

- location: Handelsbanken Ulricehamn
  city: Ulricehamn
  urn: urn:handelsbanken:branch:id:6663
  country: Sverige
  latitude: 57.793374
  longitude: 13.412459

- location: Handelsbanken Karlstad
  city: Karlstad
  urn: urn:handelsbanken:branch:id:6801
  country: Sverige
  latitude: 59.380319
  longitude: 13.501195

- location: Handelsbanken Gislaved
  city: Gislaved
  urn: urn:handelsbanken:branch:id:6720
  country: Sverige
  latitude: 57.301718
  longitude: 13.544124

- location: Handelsbanken Falköping
  city: Falköping
  urn: urn:handelsbanken:branch:id:6672
  country: Sverige
  latitude: 58.160732
  longitude: 13.554705

- location: Handelsbanken Sjöbo
  city: Sjöbo
  urn: urn:handelsbanken:branch:id:6815
  country: Sverige
  latitude: 55.631593
  longitude: 13.704392

- location: Handelsbanken Hässleholm
  city: Hässleholm
  urn: urn:handelsbanken:branch:id:6754
  country: Sverige
  latitude: 56.157941
  longitude: 13.760911

- location: Handelsbanken Mariestad
  city: Mariestad
  urn: urn:handelsbanken:branch:id:6673
  country: Sverige
  latitude: 58.709161
  longitude: 13.820894

- location: Handelsbanken Ystad
  city: Ystad
  urn: urn:handelsbanken:branch:id:6765
  country: Sverige
  latitude: 55.429031
  longitude: 13.82119

- location: Handelsbanken Skövde
  city: Skövde
  urn: urn:handelsbanken:branch:id:6667
  country: Sverige
  latitude: 58.390592
  longitude: 13.846408

- location: Handelsbanken Ljungby
  city: Ljungby
  urn: urn:handelsbanken:branch:id:6806
  country: Sverige
  latitude: 56.833583
  longitude: 13.941426

- location: Handelsbanken Värnamo
  city: Värnamo
  urn: urn:handelsbanken:branch:id:6700
  country: Sverige
  latitude: 57.185397
  longitude: 14.038067

- location: Handelsbanken Älmhult
  city: Älmhult
  urn: urn:handelsbanken:branch:id:6767
  country: Sverige
  latitude: 56.552277
  longitude: 14.140974

- location: Handelsbanken Kristianstad Åhus
  city: Kristianstad
  urn: urn:handelsbanken:branch:id:6756
  country: Sverige
  latitude: 56.031515
  longitude: 14.15703

- location: Handelsbanken Jönköping
  city: Jönköping
  urn: urn:handelsbanken:branch:id:6641
  country: Sverige
  latitude: 57.780298
  longitude: 14.178677

- location: Handelsbanken Vansbro
  city: Vansbro
  urn: urn:handelsbanken:branch:id:6473
  country: Sverige
  latitude: 60.510445
  longitude: 14.226533

- location: Handelsbanken Simrishamn
  city: Simrishamn
  urn: urn:handelsbanken:branch:id:6787
  country: Sverige
  latitude: 55.556822
  longitude: 14.350173

- location: Handelsbanken Sveg
  city: Sveg
  urn: urn:handelsbanken:branch:id:6378
  country: Sverige
  latitude: 62.033644
  longitude: 14.358336

- location: Handelsbanken Krokom
  city: Krokom
  urn: urn:handelsbanken:branch:id:6370
  country: Sverige
  latitude: 63.327008
  longitude: 14.447571

- location: Handelsbanken Karlskoga
  city: Karlskoga
  urn: urn:handelsbanken:branch:id:6581
  country: Sverige
  latitude: 59.326277
  longitude: 14.522762

- location: Handelsbanken Mora
  city: Mora
  urn: urn:handelsbanken:branch:id:6467
  country: Sverige
  latitude: 61.004707
  longitude: 14.536359

- location: Handelsbanken Östersund
  city: Östersund
  urn: urn:handelsbanken:branch:id:6361
  country: Sverige
  latitude: 63.178901
  longitude: 14.636925

- location: Handelsbanken Nässjö
  city: Nässjö
  urn: urn:handelsbanken:branch:id:6647
  country: Sverige
  latitude: 57.653267
  longitude: 14.698245

- location: Handelsbanken Växjö
  city: Växjö
  urn: urn:handelsbanken:branch:id:6879
  country: Sverige
  latitude: 56.879799
  longitude: 14.80092

- location: Handelsbanken Karlshamn
  city: Karlshamn
  urn: urn:handelsbanken:branch:id:6742
  country: Sverige
  latitude: 56.1704
  longitude: 14.861695

- location: Handelsbanken Tranås
  city: Tranås
  urn: urn:handelsbanken:branch:id:6648
  country: Sverige
  latitude: 58.03508
  longitude: 14.976682

- location: Handelsbanken Leksand
  city: Leksand
  urn: urn:handelsbanken:branch:id:6463
  country: Sverige
  latitude: 60.732324
  longitude: 14.996473

- location: Handelsbanken Motala
  city: Motala
  urn: urn:handelsbanken:branch:id:6574
  country: Sverige
  latitude: 58.537522
  longitude: 15.037075

- location: Handelsbanken Vetlanda
  city: Vetlanda
  urn: urn:handelsbanken:branch:id:6650
  country: Sverige
  latitude: 57.425876
  longitude: 15.086112

- location: Handelsbanken Mjölby
  city: Mjölby
  urn: urn:handelsbanken:branch:id:6721
  country: Sverige
  latitude: 58.326771
  longitude: 15.126897

- location: Handelsbanken Kumla
  city: Kumla
  urn: urn:handelsbanken:branch:id:6582
  country: Sverige
  latitude: 59.127825
  longitude: 15.142909

- location: Handelsbanken Ludvika
  city: Ludvika
  urn: urn:handelsbanken:branch:id:6465
  country: Sverige
  latitude: 60.150418
  longitude: 15.18569

- location: Handelsbanken Örebro Drottningparken
  city: Örebro
  urn: urn:handelsbanken:branch:id:6578
  country: Sverige
  latitude: 59.265616
  longitude: 15.201042

- location: Handelsbanken Örebro Ekersgatan
  city: Örebro
  urn: urn:handelsbanken:branch:id:6580
  country: Sverige
  latitude: 59.276148
  longitude: 15.205708

- location: Handelsbanken Örebro Stortorget
  city: Örebro
  urn: urn:handelsbanken:branch:id:6561
  country: Sverige
  latitude: 59.271975
  longitude: 15.21382

- location: Handelsbanken Lindesberg
  city: Lindesberg
  urn: urn:handelsbanken:branch:id:6573
  country: Sverige
  latitude: 59.59262
  longitude: 15.225181

- location: Handelsbanken Borlänge
  city: Borlänge
  urn: urn:handelsbanken:branch:id:6455
  country: Sverige
  latitude: 60.485536
  longitude: 15.432552

- location: Handelsbanken Strömsund
  city: Strömsund
  urn: urn:handelsbanken:branch:id:6377
  country: Sverige
  latitude: 63.851951
  longitude: 15.558569

- location: Handelsbanken Karlskrona
  city: Karlskrona
  urn: urn:handelsbanken:branch:id:6741
  country: Sverige
  latitude: 56.167384
  longitude: 15.590951

- location: Handelsbanken Linköping
  city: Linköping
  urn: urn:handelsbanken:branch:id:6600
  country: Sverige
  latitude: 58.412318
  longitude: 15.626743

- location: Handelsbanken Falun
  city: Falun
  urn: urn:handelsbanken:branch:id:6451
  country: Sverige
  latitude: 60.606898
  longitude: 15.631068

- location: Handelsbanken Ånge
  city: Ånge
  urn: urn:handelsbanken:branch:id:6348
  country: Sverige
  latitude: 62.524215
  longitude: 15.658639

- location: Handelsbanken Fagersta
  city: Fagersta
  urn: urn:handelsbanken:branch:id:6533
  country: Sverige
  latitude: 60.00431
  longitude: 15.792565

- location: Handelsbanken Edsbyn
  city: Edsbyn
  urn: urn:handelsbanken:branch:id:6409
  country: Sverige
  latitude: 61.375158
  longitude: 15.818794

- location: Handelsbanken Arboga
  city: Arboga
  urn: urn:handelsbanken:branch:id:6532
  country: Sverige
  latitude: 59.395107
  longitude: 15.840742

- location: Handelsbanken Vimmerby
  city: Vimmerby
  urn: urn:handelsbanken:branch:id:6711
  country: Sverige
  latitude: 57.66567
  longitude: 15.856077

- location: Handelsbanken Hedemora
  city: Hedemora
  urn: urn:handelsbanken:branch:id:6460
  country: Sverige
  latitude: 60.277837
  longitude: 15.985676

- location: Handelsbanken Köping
  city: Köping
  urn: urn:handelsbanken:branch:id:6537
  country: Sverige
  latitude: 59.513347
  longitude: 15.997346

- location: Handelsbanken Ljusdal
  city: Ljusdal
  urn: urn:handelsbanken:branch:id:6419
  country: Sverige
  latitude: 61.828083
  longitude: 16.095403

- location: Handelsbanken Norrköping
  city: Norrköping
  urn: urn:handelsbanken:branch:id:6591
  country: Sverige
  latitude: 58.592591
  longitude: 16.185933

- location: Handelsbanken Katrineholm
  city: Katrineholm
  urn: urn:handelsbanken:branch:id:6604
  country: Sverige
  latitude: 58.995832
  longitude: 16.207432

- location: Handelsbanken Kalmar
  city: Kalmar
  urn: urn:handelsbanken:branch:id:6701
  country: Sverige
  latitude: 56.663325
  longitude: 16.363414

- location: Handelsbanken Bollnäs
  city: Bollnäs
  urn: urn:handelsbanken:branch:id:6407
  country: Sverige
  latitude: 61.347642
  longitude: 16.393891

- location: Handelsbanken Oskarshamn
  city: Oskarshamn
  urn: urn:handelsbanken:branch:id:6708
  country: Sverige
  latitude: 57.265897
  longitude: 16.446992

- location: Handelsbanken Eskilstuna
  city: Eskilstuna
  urn: urn:handelsbanken:branch:id:6602
  country: Sverige
  latitude: 59.370911
  longitude: 16.512774

- location: Handelsbanken Västerås Köpingsvägen
  city: Västerås
  urn: urn:handelsbanken:branch:id:6543
  country: Sverige
  latitude: 59.602767
  longitude: 16.523893

- location: Handelsbanken Västerås City
  city: Västerås
  urn: urn:handelsbanken:branch:id:6531
  country: Sverige
  latitude: 59.610811
  longitude: 16.547554

- location: Handelsbanken Västerås Öster Mälarstrand
  city: Västerås
  urn: urn:handelsbanken:branch:id:6546
  country: Sverige
  latitude: 59.601313
  longitude: 16.575472

- location: Handelsbanken Sala Heby
  city: Sala
  urn: urn:handelsbanken:branch:id:6539
  country: Sverige
  latitude: 59.920688
  longitude: 16.605633

- location: Handelsbanken Västervik
  city: Västervik
  urn: urn:handelsbanken:branch:id:6714
  country: Sverige
  latitude: 57.758261
  longitude: 16.637962

- location: Handelsbanken Vilhelmina
  city: Vilhelmina
  urn: urn:handelsbanken:branch:id:6268
  country: Sverige
  latitude: 64.624884
  longitude: 16.654444

- location: Handelsbanken Öland
  city: Borgholm
  urn: urn:handelsbanken:branch:id:6702
  country: Sverige
  latitude: 56.879435
  longitude: 16.657156

- location: Handelsbanken Sandviken
  city: Sandviken
  urn: urn:handelsbanken:branch:id:6423
  country: Sverige
  latitude: 60.621088
  longitude: 16.775474

- location: Handelsbanken Nyköping
  city: Nyköping
  urn: urn:handelsbanken:branch:id:6601
  country: Sverige
  latitude: 58.752403
  longitude: 17.00571

- location: Handelsbanken Strängnäs
  city: Strängnäs
  urn: urn:handelsbanken:branch:id:6611
  country: Sverige
  latitude: 59.376798
  longitude: 17.026834

- location: Handelsbanken Söderhamn
  city: Söderhamn
  urn: urn:handelsbanken:branch:id:6426
  country: Sverige
  latitude: 61.302798
  longitude: 17.056212

- location: Handelsbanken Enköping
  city: Enköping
  urn: urn:handelsbanken:branch:id:6503
  country: Sverige
  latitude: 59.635629
  longitude: 17.079648

- location: Handelsbanken Hudiksvall
  city: Hudiksvall
  urn: urn:handelsbanken:branch:id:6415
  country: Sverige
  latitude: 61.727604
  longitude: 17.105546

- location: Handelsbanken Gävle City
  city: Gävle
  urn: urn:handelsbanken:branch:id:6401
  country: Sverige
  latitude: 60.675197
  longitude: 17.142753

- location: Handelsbanken Sollefteå
  city: Sollefteå
  urn: urn:handelsbanken:branch:id:6315
  country: Sverige
  latitude: 63.16703
  longitude: 17.27042

- location: Handelsbanken Sundsvall
  city: Sundsvall
  urn: urn:handelsbanken:branch:id:6341
  country: Sverige
  latitude: 62.387561
  longitude: 17.31439

- location: Handelsbanken Tierp
  city: Tierp
  urn: urn:handelsbanken:branch:id:6510
  country: Sverige
  latitude: 60.343681
  longitude: 17.516247

- location: Handelsbanken Bålsta
  city: Bålsta
  urn: urn:handelsbanken:branch:id:6911
  country: Sverige
  latitude: 59.566261
  longitude: 17.531177

- location: Handelsbanken Uppsala Luthagen
  city: Uppsala
  urn: urn:handelsbanken:branch:id:6513
  country: Sverige
  latitude: 59.862763
  longitude: 17.613269

- location: Handelsbanken Södertälje
  city: Södertälje
  urn: urn:handelsbanken:branch:id:6606
  country: Sverige
  latitude: 59.201431
  longitude: 17.62406

- location: Handelsbanken Uppsala Rosendal
  city: Uppsala
  urn: urn:handelsbanken:branch:id:6515
  country: Sverige
  latitude: 59.831904
  longitude: 17.632479

- location: Handelsbanken Uppsala City
  city: Uppsala
  urn: urn:handelsbanken:branch:id:6501
  country: Sverige
  latitude: 59.859762
  longitude: 17.639696

- location: Handelsbanken Uppsala Boländerna
  city: Uppsala
  urn: urn:handelsbanken:branch:id:6514
  country: Sverige
  latitude: 59.855527
  longitude: 17.664834

- location: Handelsbanken Sigtuna
  city: Sigtuna
  urn: urn:handelsbanken:branch:id:6141
  country: Sverige
  latitude: 59.61688
  longitude: 17.722065

- location: Handelsbanken Kungsängen
  city: Kungsängen
  urn: urn:handelsbanken:branch:id:6903
  country: Sverige
  latitude: 59.479314
  longitude: 17.749775

- location: Handelsbanken Kramfors
  city: Kramfors
  urn: urn:handelsbanken:branch:id:6308
  country: Sverige
  latitude: 62.930768
  longitude: 17.776772

- location: Handelsbanken Knivsta
  city: Knivsta
  urn: urn:handelsbanken:branch:id:6516
  country: Sverige
  latitude: 59.725943
  longitude: 17.78947

- location: Handelsbanken Ekerö
  city: Ekerö
  urn: urn:handelsbanken:branch:id:6927
  country: Sverige
  latitude: 59.289819
  longitude: 17.811585

- location: Handelsbanken Jakobsberg
  city: Järfälla
  urn: urn:handelsbanken:branch:id:6184
  country: Sverige
  latitude: 59.424393
  longitude: 17.835397

- location: Handelsbanken Vällingby
  city: Vällingby
  urn: urn:handelsbanken:branch:id:6164
  country: Sverige
  latitude: 59.362327
  longitude: 17.871976

- location: Handelsbanken Tullinge
  city: Tullinge
  urn: urn:handelsbanken:branch:id:6901
  country: Sverige
  latitude: 59.206142
  longitude: 17.90319

- location: Handelsbanken Upplands Väsby
  city: Upplands Väsby
  urn: urn:handelsbanken:branch:id:6160
  country: Sverige
  latitude: 59.518512
  longitude: 17.911934

- location: Handelsbanken Brommaplan
  city: Bromma
  urn: urn:handelsbanken:branch:id:6170
  country: Sverige
  latitude: 59.339542
  longitude: 17.938191

- location: Handelsbanken Härnösand
  city: Härnösand
  urn: urn:handelsbanken:branch:id:6301
  country: Sverige
  latitude: 62.633121
  longitude: 17.938881

- location: Handelsbanken Kista
  city: Kista
  urn: urn:handelsbanken:branch:id:6921
  country: Sverige
  latitude: 59.401474
  longitude: 17.946777

- location: Handelsbanken Nynäshamn
  city: Nynäshamn
  urn: urn:handelsbanken:branch:id:6196
  country: Sverige
  latitude: 58.903658
  longitude: 17.947828

- location: Handelsbanken Sollentuna Centrum
  city: Sollentuna
  urn: urn:handelsbanken:branch:id:6180
  country: Sverige
  latitude: 59.426862
  longitude: 17.952433

- location: Handelsbanken Sundbyberg
  city: Sundbyberg
  urn: urn:handelsbanken:branch:id:6153
  country: Sverige
  latitude: 59.36127
  longitude: 17.966122

- location: Handelsbanken Hägersten
  city: Hägersten
  urn: urn:handelsbanken:branch:id:6162
  country: Sverige
  latitude: 59.293252
  longitude: 17.967163

- location: Handelsbanken Alviks Torg
  city: Bromma
  urn: urn:handelsbanken:branch:id:6154
  country: Sverige
  latitude: 59.332651
  longitude: 17.982426

- location: Handelsbanken Huddinge Centrum
  city: Huddinge
  urn: urn:handelsbanken:branch:id:6182
  country: Sverige
  latitude: 59.236428
  longitude: 17.983018

- location: Handelsbanken Solna
  city: Solna
  urn: urn:handelsbanken:branch:id:6186
  country: Sverige
  latitude: 59.362187
  longitude: 17.998134

- location: Handelsbanken Arenastaden
  city: Solna
  urn: urn:handelsbanken:branch:id:6121
  country: Sverige
  latitude: 59.369692
  longitude: 18.001822

- location: Handelsbanken Stockholm Hornsberg
  city: Stockholm
  urn: urn:handelsbanken:branch:id:6129
  country: Sverige
  latitude: 59.339329
  longitude: 18.005111

- location: Handelsbanken Älvsjö
  city: Älvsjö
  urn: urn:handelsbanken:branch:id:6909
  country: Sverige
  latitude: 59.279373
  longitude: 18.008864

- location: Handelsbanken Stockholm Arbetargatan
  city: Stockholm
  urn: urn:handelsbanken:branch:id:6117
  country: Sverige
  latitude: 59.33532
  longitude: 18.028903

- location: Handelsbanken Marievik
  city: Stockholm
  urn: urn:handelsbanken:branch:id:6155
  country: Sverige
  latitude: 59.309966
  longitude: 18.028913

- location: Handelsbanken Mörby Centrum
  city: Danderyd
  urn: urn:handelsbanken:branch:id:6920
  country: Sverige
  latitude: 59.397217
  longitude: 18.036568

- location: Handelsbanken Stockholm S:t Eriksplan
  city: Stockholm
  urn: urn:handelsbanken:branch:id:6109
  country: Sverige
  latitude: 59.339529
  longitude: 18.036599

- location: Handelsbanken Stockholm Vanadisplan
  city: Stockholm
  urn: urn:handelsbanken:branch:id:6115
  country: Sverige
  latitude: 59.345299
  longitude: 18.039115

- location: Handelsbanken Stockholm Högalid
  city: Stockholm
  urn: urn:handelsbanken:branch:id:6118
  country: Sverige
  latitude: 59.316371
  longitude: 18.041097

- location: Handelsbanken Stockholm Kungsholmstorg
  city: Stockholm
  urn: urn:handelsbanken:branch:id:6106
  country: Sverige
  latitude: 59.329009
  longitude: 18.0425

- location: Handelsbanken Stockholm Norrtullsgatan
  city: Stockholm
  urn: urn:handelsbanken:branch:id:6133
  country: Sverige
  latitude: 59.343366
  longitude: 18.050712

- location: Handelsbanken Stockholm Vasagatan
  city: Stockholm
  urn: urn:handelsbanken:branch:id:6102
  country: Sverige
  latitude: 59.332808
  longitude: 18.057402

- location: Handelsbanken Täby Centrum
  city: Täby
  urn: urn:handelsbanken:branch:id:6179
  country: Sverige
  latitude: 59.443626
  longitude: 18.067722

- location: Handelsbanken Stockholm Götgatsbacken
  city: Stockholm
  urn: urn:handelsbanken:branch:id:6101
  country: Sverige
  latitude: 59.319275
  longitude: 18.070875

- location: Handelsbanken Stockholm Stureplan
  city: Stockholm
  urn: urn:handelsbanken:branch:id:6111
  country: Sverige
  latitude: 59.335662
  longitude: 18.07234

- location: Handelsbanken Stockholm Kungsträdgården
  city: Stockholm
  urn: urn:handelsbanken:branch:id:6001
  country: Sverige
  latitude: 59.330154
  longitude: 18.073335

- location: Handelsbanken Stockholm Norrmalmstorg
  city: Stockholm
  urn: urn:handelsbanken:branch:id:6123
  country: Sverige
  latitude: 59.333749
  longitude: 18.073823

- location: Handelsbanken Stockholm Humlegården
  city: Stockholm
  urn: urn:handelsbanken:branch:id:6103
  country: Sverige
  latitude: 59.340233
  longitude: 18.076361

- location: Handelsbanken Stockholm Skanstull
  city: Stockholm
  urn: urn:handelsbanken:branch:id:6126
  country: Sverige
  latitude: 59.308523
  longitude: 18.076485

- location: Handelsbanken Vallentuna
  city: Vallentuna
  urn: urn:handelsbanken:branch:id:6915
  country: Sverige
  latitude: 59.534451
  longitude: 18.076843

- location: Handelsbanken Stockholm Strandvägen
  city: Stockholm
  urn: urn:handelsbanken:branch:id:6124
  country: Sverige
  latitude: 59.332391
  longitude: 18.079017

- location: Handelsbanken Stockholm Östermalmstorg
  city: Stockholm
  urn: urn:handelsbanken:branch:id:6110
  country: Sverige
  latitude: 59.336409
  longitude: 18.079175

- location: Handelsbanken Globen
  city: Johanneshov
  urn: urn:handelsbanken:branch:id:6156
  country: Sverige
  latitude: 59.294517
  longitude: 18.079907

- location: Handelsbanken Djursholm
  city: Djursholm
  urn: urn:handelsbanken:branch:id:6151
  country: Sverige
  latitude: 59.397532
  longitude: 18.089289

- location: Handelsbanken Stockholm Karlaplan
  city: Stockholm
  urn: urn:handelsbanken:branch:id:6112
  country: Sverige
  latitude: 59.336966
  longitude: 18.089908

- location: Handelsbanken Farsta Centrum
  city: Farsta
  urn: urn:handelsbanken:branch:id:6174
  country: Sverige
  latitude: 59.241931
  longitude: 18.093643

- location: Handelsbanken Hammarby Sjöstad
  city: Stockholm
  urn: urn:handelsbanken:branch:id:6116
  country: Sverige
  latitude: 59.304444
  longitude: 18.093849

- location: Handelsbanken Stockholm Gärdet
  city: Stockholm
  urn: urn:handelsbanken:branch:id:6140
  country: Sverige
  latitude: 59.348463
  longitude: 18.1011

- location: Handelsbanken Lidingö
  city: Lidingö
  urn: urn:handelsbanken:branch:id:6152
  country: Sverige
  latitude: 59.365709
  longitude: 18.135475

- location: Handelsbanken Haninge
  city: Handen
  urn: urn:handelsbanken:branch:id:6181
  country: Sverige
  latitude: 59.166099
  longitude: 18.135502

- location: Handelsbanken Nacka Forum
  city: Nacka
  urn: urn:handelsbanken:branch:id:6165
  country: Sverige
  latitude: 59.309077
  longitude: 18.166145

- location: Handelsbanken Tyresö
  city: Tyresö
  urn: urn:handelsbanken:branch:id:6189
  country: Sverige
  latitude: 59.246732
  longitude: 18.219712

- location: Handelsbanken Saltsjö-Boo
  city: Saltsjö-Boo
  urn: urn:handelsbanken:branch:id:6194
  country: Sverige
  latitude: 59.326664
  longitude: 18.256853

- location: Handelsbanken Åkersberga
  city: Åkersberga
  urn: urn:handelsbanken:branch:id:6195
  country: Sverige
  latitude: 59.479685
  longitude: 18.298733

- location: Handelsbanken Gotland
  city: Visby
  urn: urn:handelsbanken:branch:id:6631
  country: Sverige
  latitude: 57.637799
  longitude: 18.299412

- location: Handelsbanken Östhammar
  city: Östhammar
  urn: urn:handelsbanken:branch:id:6512
  country: Sverige
  latitude: 60.258884
  longitude: 18.373247

- location: Handelsbanken Värmdö
  city: Gustavsberg
  urn: urn:handelsbanken:branch:id:6193
  country: Sverige
  latitude: 59.326688
  longitude: 18.392898

- location: Handelsbanken Hallstavik
  city: Hallstavik
  urn: urn:handelsbanken:branch:id:6505
  country: Sverige
  latitude: 60.049547
  longitude: 18.597103

- location: Handelsbanken Lycksele
  city: Lycksele
  urn: urn:handelsbanken:branch:id:6259
  country: Sverige
  latitude: 64.594997
  longitude: 18.677269

- location: Handelsbanken Norrtälje
  city: Norrtälje
  urn: urn:handelsbanken:branch:id:6507
  country: Sverige
  latitude: 59.757153
  longitude: 18.702736

- location: Handelsbanken Örnsköldsvik
  city: Örnsköldsvik
  urn: urn:handelsbanken:branch:id:6318
  country: Sverige
  latitude: 63.289291
  longitude: 18.716434

- location: Handelsbanken Norsjö - Malå
  city: Norsjö
  urn: urn:handelsbanken:branch:id:6262
  country: Sverige
  latitude: 64.912503
  longitude: 19.480426

- location: Handelsbanken Nordmaling
  city: Nordmaling
  urn: urn:handelsbanken:branch:id:6261
  country: Sverige
  latitude: 63.569051
  longitude: 19.498612

- location: Handelsbanken Vännäs
  city: Vännäs
  urn: urn:handelsbanken:branch:id:6270
  country: Sverige
  latitude: 63.905718
  longitude: 19.753563

- location: Handelsbanken Umeå Teg
  city: Umeå
  urn: urn:handelsbanken:branch:id:6274
  country: Sverige
  latitude: 63.820505
  longitude: 20.253554

- location: Handelsbanken Umeå City
  city: Umeå
  urn: urn:handelsbanken:branch:id:6251
  country: Sverige
  latitude: 63.824469
  longitude: 20.263512

- location: Handelsbanken Kiruna
  city: Kiruna
  urn: urn:handelsbanken:branch:id:6208
  country: Sverige
  latitude: 67.848251
  longitude: 20.303032

- location: Handelsbanken Gällivare
  city: Gällivare
  urn: urn:handelsbanken:branch:id:6204
  country: Sverige
  latitude: 67.134418
  longitude: 20.659209

- location: Handelsbanken Skellefteå
  city: Skellefteå
  urn: urn:handelsbanken:branch:id:6265
  country: Sverige
  latitude: 64.749108
  longitude: 20.950003

- location: Handelsbanken Älvsbyn
  city: Älvsbyn
  urn: urn:handelsbanken:branch:id:6212
  country: Sverige
  latitude: 65.673633
  longitude: 21.008456

- location: Handelsbanken Piteå
  city: Piteå
  urn: urn:handelsbanken:branch:id:6210
  country: Sverige
  latitude: 65.317724
  longitude: 21.480856

- location: Handelsbanken Boden
  city: Boden
  urn: urn:handelsbanken:branch:id:6203
  country: Sverige
  latitude: 65.825196
  longitude: 21.688402

- location: Handelsbanken Luleå Storgatan
  city: Luleå
  urn: urn:handelsbanken:branch:id:6201
  country: Sverige
  latitude: 65.584108
  longitude: 22.149986

- location: Handelsbanken Kalix
  city: Kalix
  urn: urn:handelsbanken:branch:id:6207
  country: Sverige
  latitude: 65.85512
  longitude: 23.142469

- location: Handelsbanken Pajala
  city: Pajala
  urn: urn:handelsbanken:branch:id:6216
  country: Sverige
  latitude: 67.213449
  longitude: 23.367491
