meta:
  name: ICA
  web: https://www.ica.se/
  wikipedia: https://sv.wikipedia.org/wiki/Ica
  category: Dagligvarukedjor
  locations: 1288

locations:
- location: ICA Nära Affärn Sydkoster
  urn: urn:ica:store:id:1796
  city: Strömstad
  latitude: 58.88533
  longitude: 11.02929

- location: ICA Supermarket Strömstad
  urn: urn:ica:store:id:1791
  city: Strömstad
  latitude: 58.93924
  longitude: 11.17116

- location: ICA Kvantum Strömstad
  urn: urn:ica:store:id:14812
  city: Strömstad
  latitude: 58.93619
  longitude: 11.1949

- location: ICA Nära Ankaret, Smögen
  urn: urn:ica:store:id:1654
  city: Sotenäs
  latitude: 58.362
  longitude: 11.23309

- location: ICA Supermarket Skeppet
  urn: urn:ica:store:id:1655
  city: Sotenäs
  latitude: 58.36011
  longitude: 11.2481

- location: ICA Nära Grebbestad
  urn: urn:ica:store:id:1667
  city: Tanum
  latitude: 58.68599
  longitude: 11.2584

- location: ICA Supermarket Skutan
  urn: urn:ica:store:id:1674
  city: Tanum
  latitude: 58.55554
  longitude: 11.27301

- location: ICA Supermarket Hedemyrs
  urn: urn:ica:store:id:1670
  city: Tanum
  latitude: 58.72651
  longitude: 11.31983

- location: ICA Nära Bovall
  urn: urn:ica:store:id:1656
  city: Sotenäs
  latitude: 58.47406
  longitude: 11.32433

- location: ICA Nära Grundsund
  urn: urn:ica:store:id:1773
  city: Lysekil
  latitude: 58.21363
  longitude: 11.42092

- location: ICA Supermarket Lysekil
  urn: urn:ica:store:id:1776
  city: Lysekil
  latitude: 58.27662
  longitude: 11.44285

- location: ICA Nära Brastad
  urn: urn:ica:store:id:1774
  city: Lysekil
  latitude: 58.38331
  longitude: 11.48387

- location: ICA Nära Arwidssons
  urn: urn:ica:store:id:1657
  city: Munkedal
  latitude: 58.58036
  longitude: 11.54083

- location: ICA Supermarket Nordeviks
  urn: urn:ica:store:id:1638
  city: Tjörn
  latitude: 57.9861
  longitude: 11.54804

- location: Östads Livs
  urn: urn:ica:store:id:1676
  city: Tanum
  latitude: 58.77305
  longitude: 11.55843

- location: ICA Nära Dingle
  urn: urn:ica:store:id:1659
  city: Munkedal
  latitude: 58.5278
  longitude: 11.57768

- location: ICA Nära Rorsman
  urn: urn:ica:store:id:1637
  city: Tjörn
  latitude: 57.94201
  longitude: 11.60144

- location: ICA Nära Dyröboden
  urn: urn:ica:store:id:1634
  city: Tjörn
  latitude: 57.92673
  longitude: 11.61147

- location: Rörö Strandkassa
  urn: urn:ica:store:id:1624
  city: Öckerö
  latitude: 57.77417
  longitude: 11.61729

- location: ICA Supermarket Hönö
  urn: urn:ica:store:id:1621
  city: Öckerö
  latitude: 57.69597
  longitude: 11.64336

- location: ICA Nära Alexius Livs
  urn: urn:ica:store:id:1618
  city: Öckerö
  latitude: 57.71407
  longitude: 11.65079

- location: ICA Supermarket Runes
  urn: urn:ica:store:id:1640
  city: Tjörn
  latitude: 58.02652
  longitude: 11.65909

- location: ICA Nära Björkö
  urn: urn:ica:store:id:1620
  city: Öckerö
  latitude: 57.73369
  longitude: 11.67477

- location: ICA Nära Munkedalshallen
  urn: urn:ica:store:id:1664
  city: Munkedal
  latitude: 58.46607
  longitude: 11.67496

- location: ICA Supermarket Pärlan
  urn: urn:ica:store:id:1650
  city: Orust
  latitude: 58.23807
  longitude: 11.67787

- location: ICA Supermarket Varekilsboden
  urn: urn:ica:store:id:1653
  city: Orust
  latitude: 58.12602
  longitude: 11.71249

- location: ICA Nära Höviksnäs
  urn: urn:ica:store:id:16028
  city: Tjörn
  latitude: 58.0381
  longitude: 11.7341

- location: ICA Supermarket Almö Livs
  urn: urn:ica:store:id:1632
  city: Tjörn
  latitude: 58.06293
  longitude: 11.74793

- location: ICA Tången
  urn: urn:ica:store:id:1680
  city: Göteborg
  latitude: 57.61932
  longitude: 11.76927

- location: Maxi ICA Stormarknad Torslanda
  urn: urn:ica:store:id:11601
  city: Göteborg
  latitude: 57.71022
  longitude: 11.77712

- location: Yngves Livs
  urn: urn:ica:store:id:10514
  city: Göteborg
  latitude: 57.59931
  longitude: 11.79487

- location: Maxi, Uddevalla
  urn: urn:ica:store:id:1599
  city: Uddevalla
  latitude: 58.35321
  longitude: 11.81021

- location: ICA Supermarket Töcksfors
  urn: urn:ica:store:id:15908
  city: Årjäng
  latitude: 59.50908
  longitude: 11.81838

- location: ICA Kvantum Stenungsund
  urn: urn:ica:store:id:12109
  city: Stenungsund
  latitude: 58.07546
  longitude: 11.8259

- location: Stillingsöns Handel
  urn: urn:ica:store:id:1652
  city: Orust
  latitude: 58.19336
  longitude: 11.82879

- location: ICA Nära Jörlanda
  urn: urn:ica:store:id:1628
  city: Stenungsund
  latitude: 57.98451
  longitude: 11.83093

- location: ICA Nära Kode
  urn: urn:ica:store:id:1765
  city: Kungälv
  latitude: 57.9394
  longitude: 11.84098

- location: ICA Supermarket Stenungsund
  urn: urn:ica:store:id:1630
  city: Stenungsund
  latitude: 58.06493
  longitude: 11.84642

- location: ICA Nära Fiskebäck
  urn: urn:ica:store:id:1682
  city: Göteborg
  latitude: 57.65592
  longitude: 11.87649

- location: ICA Nära Nya Varvet
  urn: urn:ica:store:id:13715
  city: Göteborg
  latitude: 57.67923
  longitude: 11.89016

- location: ICA Supermarket Länsmanstorget
  urn: urn:ica:store:id:1683
  city: Göteborg
  latitude: 57.73353
  longitude: 11.89312

- location: ICA Supermarket Åkered
  urn: urn:ica:store:id:1755
  city: Göteborg
  latitude: 57.63368
  longitude: 11.8977

- location: ICA Supermarket Frölunda
  urn: urn:ica:store:id:1728
  city: Göteborg
  latitude: 57.6508
  longitude: 11.89784

- location: ICA Supermarket Ljungskile
  urn: urn:ica:store:id:15886
  city: Uddevalla
  latitude: 58.22594
  longitude: 11.91858

- location: ICA Kvantum Frölunda
  urn: urn:ica:store:id:3553
  city: Göteborg
  latitude: 57.64947
  longitude: 11.92019

- location: ICA Nära Effkå
  urn: urn:ica:store:id:1689
  city: Göteborg
  latitude: 57.68519
  longitude: 11.92477

- location: ICA Kvantum Uddevalla
  urn: urn:ica:store:id:1784
  city: Uddevalla
  latitude: 58.34368
  longitude: 11.92582

- location: ICA Supermarket Tuve
  urn: urn:ica:store:id:1752
  city: Göteborg
  latitude: 57.75475
  longitude: 11.92592

- location: ICA Supermarket Majorna
  urn: urn:ica:store:id:1715
  city: Göteborg
  latitude: 57.69724
  longitude: 11.92714

- location: ICA Supermarket Högsbo
  urn: urn:ica:store:id:1701
  city: Göteborg
  latitude: 57.67117
  longitude: 11.92731

- location: ICA Kvantum Sannegården
  urn: urn:ica:store:id:13582
  city: Göteborg
  latitude: 57.70838
  longitude: 11.92852

- location: ICA Nära Toppen, Göteborg
  urn: urn:ica:store:id:1712
  city: Göteborg
  latitude: 57.67961
  longitude: 11.93193

- location: ICA Supermarket Spara
  urn: urn:ica:store:id:1787
  city: Uddevalla
  latitude: 58.35568
  longitude: 11.93388

- location: ICA Nära Dalaberg
  urn: urn:ica:store:id:1780
  city: Uddevalla
  latitude: 58.37197
  longitude: 11.93522

- location: ICA Nära Högsbo
  urn: urn:ica:store:id:1697
  city: Göteborg
  latitude: 57.67357
  longitude: 11.93541

- location: Maxi ICA Stormarknad Högsbo
  urn: urn:ica:store:id:12237
  city: Göteborg
  latitude: 57.65071
  longitude: 11.94889

- location: ICA Nära Kvillebäcken
  urn: urn:ica:store:id:16029
  city: Göteborg
  latitude: 57.72091
  longitude: 11.94956

- location: ICA Kvantum Hovås
  urn: urn:ica:store:id:12951
  city: Göteborg
  latitude: 57.59838
  longitude: 11.95351

- location: ICA Supermarket Rosenlund
  urn: urn:ica:store:id:14849
  city: Göteborg
  latitude: 57.701
  longitude: 11.9586

- location: ICA Nära Haga
  urn: urn:ica:store:id:1696
  city: Göteborg
  latitude: 57.69731
  longitude: 11.95906

- location: ICA Supermarket Brunnsbo
  urn: urn:ica:store:id:11979
  city: Göteborg
  latitude: 57.72818
  longitude: 11.97071

- location: Maxi ICA Stormarknad Kungälv
  urn: urn:ica:store:id:1769
  city: Kungälv
  latitude: 57.87427
  longitude: 11.97355

- location: ICA Nära Heden
  urn: urn:ica:store:id:1726
  city: Göteborg
  latitude: 57.70201
  longitude: 11.98227

- location: ICA Supermarket Kärra
  urn: urn:ica:store:id:1695
  city: Göteborg
  latitude: 57.79453
  longitude: 11.98715

- location: ICA Nära Skafferiet
  urn: urn:ica:store:id:2999
  city: Kungälv
  latitude: 57.8764
  longitude: 11.98727

- location: ICA Focus
  urn: urn:ica:store:id:1735
  city: Göteborg
  latitude: 57.69819
  longitude: 11.99314

- location: ICA Nära Almedal
  urn: urn:ica:store:id:14809
  city: Göteborg
  latitude: 57.68907
  longitude: 11.99439

- location: ICA Supermarket Vallda
  urn: urn:ica:store:id:1883
  city: Kungsbacka
  latitude: 57.47302
  longitude: 11.99462

- location: ICA Supermarket Färgelanda
  urn: urn:ica:store:id:1800
  city: Färgelanda
  latitude: 58.56838
  longitude: 11.99724

- location: ICA Supermarket Olskroken
  urn: urn:ica:store:id:1730
  city: Göteborg
  latitude: 57.71475
  longitude: 11.99965

- location: ICA Nära Lunden
  urn: urn:ica:store:id:1720
  city: Göteborg
  latitude: 57.70897
  longitude: 12.00338

- location: Maxi ICA Stormarknad Göteborg
  urn: urn:ica:store:id:8926
  city: Göteborg
  latitude: 57.67888
  longitude: 12.00557

- location: ICA Supermarket Hjällbo
  urn: urn:ica:store:id:1681
  city: Göteborg
  latitude: 57.76879
  longitude: 12.02019

- location: ICA Kvantum Munkebäck
  urn: urn:ica:store:id:11467
  city: Göteborg
  latitude: 57.72332
  longitude: 12.0231

- location: ICA Supermarket Gårdsten
  urn: urn:ica:store:id:15134
  city: Göteborg
  latitude: 57.804
  longitude: 12.03194

- location: ICA Nära Rävekärr
  urn: urn:ica:store:id:1761
  city: Mölndal
  latitude: 57.64563
  longitude: 12.0323

- location: ICA Nära Träffen, Göteborg
  urn: urn:ica:store:id:1750
  city: Göteborg
  latitude: 57.71697
  longitude: 12.03307

- location: ICA Nära Ovrells
  urn: urn:ica:store:id:1739
  city: Göteborg
  latitude: 57.75742
  longitude: 12.03641

- location: ICA Nära Utby
  urn: urn:ica:store:id:1749
  city: Göteborg
  latitude: 57.73532
  longitude: 12.04564

- location: ICA Kvantum Ale
  urn: urn:ica:store:id:9414
  city: Ale
  latitude: 57.89372
  longitude: 12.04573

- location: ICA Nära Stabbetorget
  urn: urn:ica:store:id:1727
  city: Göteborg
  latitude: 57.71473
  longitude: 12.04694

- location: Maxi ICA Stormarknad Angered
  urn: urn:ica:store:id:1734
  city: Göteborg
  latitude: 57.79695
  longitude: 12.05085

- location: ICA Supermarket Prima
  urn: urn:ica:store:id:1615
  city: Partille
  latitude: 57.73146
  longitude: 12.07023

- location: ICA Supermarket Bergsjön
  urn: urn:ica:store:id:11251
  city: Göteborg
  latitude: 57.7566
  longitude: 12.0715

- location: ICA Kvantum Kungsbacka
  urn: urn:ica:store:id:1880
  city: Kungsbacka
  latitude: 57.49328
  longitude: 12.07184

- location: ICA Supermarket Vallhamra
  urn: urn:ica:store:id:14828
  city: Partille
  latitude: 57.7206
  longitude: 12.072

- location: Maxi ICA Stormarknad Kungsbacka
  urn: urn:ica:store:id:12952
  city: Kungsbacka
  latitude: 57.5153
  longitude: 12.07488

- location: ICA Supermarket Lindome
  urn: urn:ica:store:id:1757
  city: Mölndal
  latitude: 57.57791
  longitude: 12.08796

- location: ICA Nära Gunnilse
  urn: urn:ica:store:id:1705
  city: Göteborg
  latitude: 57.78915
  longitude: 12.09695

- location: Maxi ICA Stormarknad Partille
  urn: urn:ica:store:id:9713
  city: Partille
  latitude: 57.73713
  longitude: 12.10524

- location: Optimisten Lanthandel
  urn: urn:ica:store:id:9733
  city: Bengtsfors
  latitude: 59.18515
  longitude: 12.11288

- location: ICA Supermarket Älvängen
  urn: urn:ica:store:id:1806
  city: Ale
  latitude: 57.95775
  longitude: 12.12007

- location: ICA Nära Djupedalsäng
  urn: urn:ica:store:id:1605
  city: Härryda
  latitude: 57.64853
  longitude: 12.1217

- location: ICA Supermarket Åsa
  urn: urn:ica:store:id:1887
  city: Kungsbacka
  latitude: 57.3509
  longitude: 12.12367

- location: ICA Nära Bua
  urn: urn:ica:store:id:1876
  city: Varberg
  latitude: 57.2365
  longitude: 12.12477

- location: ICA Supermarket Boström
  urn: urn:ica:store:id:1815
  city: Lilla Edet
  latitude: 58.13618
  longitude: 12.12719

- location: ICA Supermarket Årjäng
  urn: urn:ica:store:id:846
  city: Årjäng
  latitude: 59.39277
  longitude: 12.13231

- location: ICA Nära Mölnlycke
  urn: urn:ica:store:id:3578
  city: Härryda
  latitude: 57.65384
  longitude: 12.13864

- location: ICA Nära Matkassen, Lödöse
  urn: urn:ica:store:id:1817
  city: Lilla Edet
  latitude: 58.0297
  longitude: 12.15632

- location: Svenssons Livs, Alvhem
  urn: urn:ica:store:id:1805
  city: Ale
  latitude: 58.00448
  longitude: 12.15796

- location: ICA Nära Zachrisson
  urn: urn:ica:store:id:1877
  city: Varberg
  latitude: 57.24535
  longitude: 12.18571

- location: ICA Kvantum Landvetter
  urn: urn:ica:store:id:1610
  city: Härryda
  latitude: 57.68623
  longitude: 12.21061

- location: ICA Supermarket Bengtsfors
  urn: urn:ica:store:id:791
  city: Bengtsfors
  latitude: 59.02937
  longitude: 12.22367

- location: ICA Kvantum Lerum
  urn: urn:ica:store:id:1811
  city: Lerum
  latitude: 57.7511
  longitude: 12.24526

- location: ICA Nära Billingsfors
  urn: urn:ica:store:id:9940
  city: Bengtsfors
  latitude: 58.98362
  longitude: 12.24838

- location: ICA Kvantum Varberg
  urn: urn:ica:store:id:1869
  city: Varberg
  latitude: 57.10512
  longitude: 12.25374

- location: ICA Hajen Lågpris
  urn: urn:ica:store:id:9259
  city: Varberg
  latitude: 57.11681
  longitude: 12.25826

- location: ICA Supermarket Servett, Lerum
  urn: urn:ica:store:id:1813
  city: Lerum
  latitude: 57.75907
  longitude: 12.26014

- location: Matboden, Varberg
  urn: urn:ica:store:id:1871
  city: Varberg
  latitude: 57.12612
  longitude: 12.2681

- location: NG:s Snabbköp
  urn: urn:ica:store:id:1872
  city: Varberg
  latitude: 57.10857
  longitude: 12.26937

- location: ICA Nära Ankaret
  urn: urn:ica:store:id:1857
  city: Varberg
  latitude: 57.05705
  longitude: 12.27257

- location: ICA Nära Hallsås
  urn: urn:ica:store:id:1809
  city: Lerum
  latitude: 57.77505
  longitude: 12.27521

- location: ICA Supermarket Sylte
  urn: urn:ica:store:id:1835
  city: Sylte
  latitude: 58.25405
  longitude: 12.27824

- location: ICA Supermarket Matmor
  urn: urn:ica:store:id:1831
  city: Trollhättan
  latitude: 58.28499
  longitude: 12.29117

- location: Maxi ICA Stormarknad Trollhättan
  urn: urn:ica:store:id:1595
  city: Trollhättan
  latitude: 58.3137
  longitude: 12.30474

- location: ICA Sillerud
  urn: urn:ica:store:id:847
  city: Årjäng
  latitude: 59.31388
  longitude: 12.30641

- location: ICA Kvantum Jätten
  urn: urn:ica:store:id:1828
  city: Trollhättan
  latitude: 58.28384
  longitude: 12.31354

- location: ICA Supermarket Derome
  urn: urn:ica:store:id:1600
  city: Varberg
  latitude: 57.23456
  longitude: 12.31698

- location: ICA Kvantum Vänersborg
  urn: urn:ica:store:id:1819
  city: Vänersborg
  latitude: 58.38093
  longitude: 12.31701

- location: ICA Nära Cypressen
  urn: urn:ica:store:id:800
  city: Vänersborg
  latitude: 58.5633
  longitude: 12.35084

- location: ICA Supermarket Floda
  urn: urn:ica:store:id:1807
  city: Lerum
  latitude: 57.80834
  longitude: 12.36219

- location: ICA Nära Hunnestad
  urn: urn:ica:store:id:1861
  city: Varberg
  latitude: 57.10162
  longitude: 12.36493

- location: ICA Supermarket Älgen
  urn: urn:ica:store:id:1820
  city: Vänersborg
  latitude: 58.35378
  longitude: 12.39099

- location: ICA Supermarket Tvååker
  urn: urn:ica:store:id:1858
  city: Varberg
  latitude: 57.04292
  longitude: 12.39811

- location: Sulvikingen
  urn: urn:ica:store:id:903
  city: Arvika
  latitude: 59.68168
  longitude: 12.40757

- location: Kryddlunds Lanthandel
  urn: urn:ica:store:id:1829
  city: Trollhättan
  latitude: 58.24662
  longitude: 12.41844

- location: ICA Nära Stigmyhrs
  urn: urn:ica:store:id:557
  city: Härjedalen
  latitude: 62.63531
  longitude: 12.44673

- location: ICA Nära Hindås
  urn: urn:ica:store:id:1607
  city: Härryda
  latitude: 57.70469
  longitude: 12.44795

- location: ICA Supermarket Kronan
  urn: urn:ica:store:id:796
  city: Mellerud
  latitude: 58.69991
  longitude: 12.45064

- location: ICA Nära Rolfstorp
  urn: urn:ica:store:id:1873
  city: Varberg
  latitude: 57.14587
  longitude: 12.45098

- location: ICA Nära Horred
  urn: urn:ica:store:id:1905
  city: Mark
  latitude: 57.35228
  longitude: 12.47331

- location: ICA Kvantum Falkenberg
  urn: urn:ica:store:id:11358
  city: Falkenberg
  latitude: 56.90392
  longitude: 12.48271

- location: ICA Supermarket Skrea Strand
  urn: urn:ica:store:id:1842
  city: Falkenberg
  latitude: 56.88682
  longitude: 12.51111

- location: Grinstads Lanthandel
  urn: urn:ica:store:id:797
  city: Mellerud
  latitude: 58.62123
  longitude: 12.512

- location: ICA Supermarket Alingsås
  urn: urn:ica:store:id:1838
  city: Alingsås
  latitude: 57.93956
  longitude: 12.51976

- location: ICA Supermarket Sollebrunn
  urn: urn:ica:store:id:1839
  city: Alingsås
  latitude: 58.12151
  longitude: 12.52874

- location: ICA Nära Åkanten
  urn: urn:ica:store:id:14847
  city: Alingsås
  latitude: 57.92758
  longitude: 12.53431

- location: ICA Nära Skeppet, Nyhamnsläge
  urn: urn:ica:store:id:2930
  city: Höganäs
  latitude: 56.23674
  longitude: 12.53803

- location: ICA Nära Hyssna
  urn: urn:ica:store:id:1908
  city: Mark
  latitude: 57.5557
  longitude: 12.53821

- location: ICA Supermarket Funäsdalen
  urn: urn:ica:store:id:553
  city: Härjedalen
  latitude: 62.54634
  longitude: 12.54337

- location: Maxi ICA Stormarknad Alingsås
  urn: urn:ica:store:id:1841
  city: Alingsås
  latitude: 57.92477
  longitude: 12.54567

- location: ICA Nära Glava
  urn: urn:ica:store:id:905
  city: Arvika
  latitude: 59.55289
  longitude: 12.56491

- location: ICA Kvantum Höganäs
  urn: urn:ica:store:id:13763
  city: Höganäs
  latitude: 56.1905
  longitude: 12.566

- location: ICA Nära Bollebygd
  urn: urn:ica:store:id:12648
  city: Bollebygd
  latitude: 57.66938
  longitude: 12.56907

- location: ICA Nära U P Hallen, Viken
  urn: urn:ica:store:id:2928
  city: Höganäs
  latitude: 56.15226
  longitude: 12.57083

- location: ICA Nära Skutan, Brunnby
  urn: urn:ica:store:id:2931
  city: Höganäs
  latitude: 56.26174
  longitude: 12.57178

- location: ICA Kvantum Arvika
  urn: urn:ica:store:id:8932
  city: Arvika
  latitude: 59.65652
  longitude: 12.58634

- location: ICA Nära Thybergs
  urn: urn:ica:store:id:907
  city: Arvika
  latitude: 59.79694
  longitude: 12.60742

- location: Bograngens Lanthandel
  urn: urn:ica:store:id:828
  city: Torsby
  latitude: 60.70106
  longitude: 12.61715

- location: ICA Nära Torekov
  urn: urn:ica:store:id:13585
  city: Båstad
  latitude: 56.42274
  longitude: 12.62916

- location: ICA Nära Vessige
  urn: urn:ica:store:id:1854
  city: Falkenberg
  latitude: 56.97806
  longitude: 12.65078

- location: ICA Nära Hillerström
  urn: urn:ica:store:id:916
  city: Säffle
  latitude: 59.27126
  longitude: 12.66365

- location: ICA Kvantum MM - Skene
  urn: urn:ica:store:id:9592
  city: Mark
  latitude: 57.4975
  longitude: 12.66946

- location: ICA Nära Jonstorp
  urn: urn:ica:store:id:13555
  city: Höganäs
  latitude: 56.22729
  longitude: 12.67489

- location: ICA Supermarket Grästorp
  urn: urn:ica:store:id:1985
  city: Grästorp
  latitude: 58.33399
  longitude: 12.68075

- location: ICA Nära Hamilton, Helsingborg
  urn: urn:ica:store:id:2894
  city: Helsingborg
  latitude: 56.05746
  longitude: 12.68346

- location: ICA Nära Borgen, Helsingborg
  urn: urn:ica:store:id:2891
  city: Helsingborg
  latitude: 56.0568
  longitude: 12.69016

- location: ICA Nära City
  urn: urn:ica:store:id:2899
  city: Helsingborg
  latitude: 56.04894
  longitude: 12.69086

- location: Oj! Helsingborg
  urn: urn:ica:store:id:2903
  city: Helsingborg
  latitude: 56.03907
  longitude: 12.70098

- location: ICA Nära Kurir Livs
  urn: urn:ica:store:id:2897
  city: Helsingborg
  latitude: 56.06534
  longitude: 12.7012

- location: ICA Supermarket Lejonet
  urn: urn:ica:store:id:801
  city: Åmål
  latitude: 59.05177
  longitude: 12.70173

- location: ICA Supermarket Mariastaden
  urn: urn:ica:store:id:15862
  city: Helsingborg
  latitude: 56.08196
  longitude: 12.70377

- location: ICA Supermarket Ullared
  urn: urn:ica:store:id:10889
  city: Falkenberg
  latitude: 57.13678
  longitude: 12.71721

- location: ICA Supermarket Idrebua
  urn: urn:ica:store:id:627
  city: Älvdalen
  latitude: 61.8604
  longitude: 12.71767

- location: ICA Nära Björnen
  urn: urn:ica:store:id:2888
  city: Helsingborg
  latitude: 56.04711
  longitude: 12.71829

- location: ICA Supermarket Nossebro
  urn: urn:ica:store:id:1988
  city: Essunga
  latitude: 58.18872
  longitude: 12.71943

- location: Maxi ICA Stormarknad Helsingborg
  urn: urn:ica:store:id:9700
  city: Helsingborg
  latitude: 56.06498
  longitude: 12.71972

- location: Älekulla Livs
  urn: urn:ica:store:id:1916
  city: Mark
  latitude: 57.34543
  longitude: 12.7261

- location: ICA Nära Drottninghög
  urn: urn:ica:store:id:2921
  city: Helsingborg
  latitude: 56.06264
  longitude: 12.7294

- location: ICA Nära Frösakull
  urn: urn:ica:store:id:11590
  city: Halmstad
  latitude: 56.67153
  longitude: 12.73551

- location: ICA Nära Kometen, Helsingborg
  urn: urn:ica:store:id:2919
  city: Helsingborg
  latitude: 56.06793
  longitude: 12.73725

- location: Maxi ICA Stormarknad Råå
  urn: urn:ica:store:id:12880
  city: Helsingborg
  latitude: 56.00171
  longitude: 12.74356

- location: ICA Nära Hedared
  urn: urn:ica:store:id:1953
  city: Borås
  latitude: 57.80827
  longitude: 12.75336

- location: ICA Supermarket Gustavslund
  urn: urn:ica:store:id:15863
  city: Helsingborg
  latitude: 56.03755
  longitude: 12.75456

- location: ICA Nära Östmarks Handel
  urn: urn:ica:store:id:14766
  city: Torsby
  latitude: 60.28233
  longitude: 12.75648

- location: ICA Nära Vågen
  urn: urn:ica:store:id:2859
  city: Ängelholm
  latitude: 56.3158
  longitude: 12.77101

- location: ICA Nära Grevie
  urn: urn:ica:store:id:12455
  city: Båstad
  latitude: 56.38848
  longitude: 12.77195

- location: Vikinghallen
  urn: urn:ica:store:id:914
  city: Säffle
  latitude: 59.28305
  longitude: 12.77497

- location: ICA Nära Fritsla
  urn: urn:ica:store:id:1912
  city: Mark
  latitude: 57.55628
  longitude: 12.78355

- location: ICA Nära Ljungdalen
  urn: urn:ica:store:id:533
  city: Berg
  latitude: 62.85107
  longitude: 12.78733

- location: ICA Supermarket Köpet
  urn: urn:ica:store:id:1958
  city: Borås
  latitude: 57.70935
  longitude: 12.79249

- location: ICA Nära Möllan, Gantofta
  urn: urn:ica:store:id:2917
  city: Helsingborg
  latitude: 55.98811
  longitude: 12.80253

- location: ICA Supermarket Söndrum
  urn: urn:ica:store:id:2309
  city: Halmstad
  latitude: 56.66085
  longitude: 12.80477

- location: ICA Nära Ankaret, Borstahusen
  urn: urn:ica:store:id:2874
  city: Landskrona
  latitude: 55.89666
  longitude: 12.8056

- location: Maxi ICA Stormarknad Flygstaden
  urn: urn:ica:store:id:11066
  city: Halmstad
  latitude: 56.68101
  longitude: 12.80754

- location: Matmagasinet, Vårgårda
  urn: urn:ica:store:id:1981
  city: Vårgårda
  latitude: 58.03583
  longitude: 12.8086

- location: ICA Nära Förslöv
  urn: urn:ica:store:id:2840
  city: Båstad
  latitude: 56.34984
  longitude: 12.81405

- location: ICA Nära Edane
  urn: urn:ica:store:id:909
  city: Arvika
  latitude: 59.63313
  longitude: 12.81487

- location: ICA Nära Handlarn, Påarp
  urn: urn:ica:store:id:2913
  city: Helsingborg
  latitude: 56.02963
  longitude: 12.81541

- location: ICA Rörbäcksnäs
  urn: urn:ica:store:id:591
  city: Malung-Sälen
  latitude: 61.1292
  longitude: 12.81581

- location: ICA Nära Idre Fjäll
  urn: urn:ica:store:id:626
  city: Älvdalen
  latitude: 61.89178
  longitude: 12.81882

- location: Lundby livs
  urn: urn:ica:store:id:908
  city: Arvika
  latitude: 59.75147
  longitude: 12.82137

- location: ICA Nära J-ge:s Livs
  urn: urn:ica:store:id:2877
  city: Landskrona
  latitude: 55.87729
  longitude: 12.8271

- location: ICA Nära Centrumhallen
  urn: urn:ica:store:id:2319
  city: Halmstad
  latitude: 56.78192
  longitude: 12.83375

- location: ICA Nära Torgboden, Falsterbo
  urn: urn:ica:store:id:2679
  city: Vellinge
  latitude: 55.39103
  longitude: 12.83431

- location: ICA Nära Gamlegården, Båstad
  urn: urn:ica:store:id:2838
  city: Båstad
  latitude: 56.43186
  longitude: 12.83815

- location: ICA Nära Källans Livs
  urn: urn:ica:store:id:2861
  city: Ängelholm
  latitude: 56.27462
  longitude: 12.8399

- location: ICA Supermarket Skanör
  urn: urn:ica:store:id:2678
  city: Vellinge
  latitude: 55.41225
  longitude: 12.84394

- location: ICA Nära Kullahallen
  urn: urn:ica:store:id:2849
  city: Ängelholm
  latitude: 56.2322
  longitude: 12.84647

- location: ICA Stöten
  urn: urn:ica:store:id:597
  city: Malung-Sälen
  latitude: 61.26507
  longitude: 12.84836

- location: ICA Supermarket Båstad
  urn: urn:ica:store:id:3502
  city: Båstad
  latitude: 56.42703
  longitude: 12.849

- location: ICA Kvantum Landskrona
  urn: urn:ica:store:id:9808
  city: Landskrona
  latitude: 55.88074
  longitude: 12.85473

- location: Maxi ICA Stormarknad Hyllinge
  urn: urn:ica:store:id:11340
  city: Åstorp
  latitude: 56.09941
  longitude: 12.85712

- location: ICA Nära Gabrielssons
  urn: urn:ica:store:id:1888
  city: Vårgårda
  latitude: 57.92733
  longitude: 12.86065

- location: ICA Supermarket Ängelholm
  urn: urn:ica:store:id:2848
  city: Ängelholm
  latitude: 56.24507
  longitude: 12.86269

- location: ICA Nära Träffen Livs
  urn: urn:ica:store:id:2852
  city: Ängelholm
  latitude: 56.23934
  longitude: 12.86838

- location: ICA Nära Träffen, Mörarp
  urn: urn:ica:store:id:2914
  city: Helsingborg
  latitude: 56.0597
  longitude: 12.87795

- location: Maxi ICA Stormarknad Högskolan
  urn: urn:ica:store:id:2308
  city: Halmstad
  latitude: 56.66517
  longitude: 12.87844

- location: ICA Nära Monicanders
  urn: urn:ica:store:id:1925
  city: Svenljunga
  latitude: 57.31338
  longitude: 12.87876

- location: ICA Kvantum Säffle
  urn: urn:ica:store:id:15139
  city: Säffle
  latitude: 59.12791
  longitude: 12.88614

- location: Maxi ICA Stormarknad Ängelholm
  urn: urn:ica:store:id:2853
  city: Ängelholm
  latitude: 56.25159
  longitude: 12.89146

- location: ICA Supermarket Vallås
  urn: urn:ica:store:id:2311
  city: Halmstad
  latitude: 56.67724
  longitude: 12.91

- location: ICA Supermarket Byttorp
  urn: urn:ica:store:id:1933
  city: Borås
  latitude: 57.72053
  longitude: 12.91064

- location: ICA Nära Rottnahallen
  urn: urn:ica:store:id:862
  city: Sunne
  latitude: 59.94341
  longitude: 12.91236

- location: ICA Nära Duved
  urn: urn:ica:store:id:514
  city: Åre
  latitude: 63.39241
  longitude: 12.91435

- location: ICA Nära Häljarpshallen
  urn: urn:ica:store:id:2885
  city: Landskrona
  latitude: 55.85353
  longitude: 12.917

- location: ICA Supermarket Hjärnarp
  urn: urn:ica:store:id:2862
  city: Ängelholm
  latitude: 56.31521
  longitude: 12.91795

- location: ICA Supermarket Bunkeflostrand
  urn: urn:ica:store:id:2768
  city: Malmö
  latitude: 55.55449
  longitude: 12.91883

- location: ICA Nära Ljungskogens Livs
  urn: urn:ica:store:id:2682
  city: Vellinge
  latitude: 55.40579
  longitude: 12.92079

- location: Karl-Åkes Storköp
  urn: urn:ica:store:id:2007
  city: Vara
  latitude: 58.32544
  longitude: 12.92168

- location: ICA Supermarket Bjuv
  urn: urn:ica:store:id:2870
  city: Bjuv
  latitude: 56.08231
  longitude: 12.92184

- location: ICA Nära Limhamn
  urn: urn:ica:store:id:14856
  city: Malmö
  latitude: 55.58196
  longitude: 12.92204

- location: ICA Nära Svens Livs, Skummesl
  urn: urn:ica:store:id:2328
  city: Laholm
  latitude: 56.46077
  longitude: 12.92275

- location: ICA Nära Säffle
  urn: urn:ica:store:id:15803
  city: Säffle
  latitude: 59.13279
  longitude: 12.93299

- location: ICA Kvantum Malmborgs Limhamn
  urn: urn:ica:store:id:2737
  city: Malmö
  latitude: 55.58169
  longitude: 12.93548

- location: ICA Supermarket Knalleland
  urn: urn:ica:store:id:3988
  city: Borås
  latitude: 57.73278
  longitude: 12.93866

- location: ICA City Knalleland
  urn: urn:ica:store:id:1942
  city: Borås
  latitude: 57.72917
  longitude: 12.93987

- location: ICA Nära Asmundtorp
  urn: urn:ica:store:id:2886
  city: Landskrona
  latitude: 55.87913
  longitude: 12.94074

- location: ICA City Centrum
  urn: urn:ica:store:id:1934
  city: Borås
  latitude: 57.72258
  longitude: 12.94129

- location: Oj, Åstorp
  urn: urn:ica:store:id:2836
  city: Åstorp
  latitude: 56.13665
  longitude: 12.94176

- location: Maxi ICA Stormarknad Borås
  urn: urn:ica:store:id:12962
  city: Borås
  latitude: 57.71061
  longitude: 12.94381

- location: ICA Kvantum Vara
  urn: urn:ica:store:id:13674
  city: Vara
  latitude: 58.26272
  longitude: 12.95225

- location: Maxi ICA Stormarknad Mellbystrand
  urn: urn:ica:store:id:2323
  city: Laholm
  latitude: 56.50585
  longitude: 12.95268

- location: ICA Toppen, Höllviken
  urn: urn:ica:store:id:2941
  city: Vellinge
  latitude: 55.42577
  longitude: 12.96506

- location: ICA Kvantum Malmborgs Erikslust
  urn: urn:ica:store:id:2724
  city: Malmö
  latitude: 55.59539
  longitude: 12.9677

- location: ICA Nära Pilen
  urn: urn:ica:store:id:1963
  city: Borås
  latitude: 57.70687
  longitude: 12.96948

- location: ICA Supermarket Munka Ljungby
  urn: urn:ica:store:id:2854
  city: Ängelholm
  latitude: 56.25811
  longitude: 12.97206

- location: ICA Nära Billesholm
  urn: urn:ica:store:id:15091
  city: Bjuv
  latitude: 56.05479
  longitude: 12.97314

- location: ICA Nära Oskarström
  urn: urn:ica:store:id:13297
  city: Halmstad
  latitude: 56.80216
  longitude: 12.97511

- location: ICA Supermarket Bellevuegården
  urn: urn:ica:store:id:2763
  city: Malmö
  latitude: 55.58039
  longitude: 12.97574

- location: ICA Kvantum Emporia
  urn: urn:ica:store:id:13771
  city: Malmö
  latitude: 55.56686
  longitude: 12.97839

- location: ICA Nära Ribersborg
  urn: urn:ica:store:id:16175
  city: Malmö
  latitude: 55.60262
  longitude: 12.98002

- location: ICA Supermarket Hulta Torg
  urn: urn:ica:store:id:1950
  city: Borås
  latitude: 57.72117
  longitude: 12.98035

- location: ICA Supermarket Rönneholm
  urn: urn:ica:store:id:2723
  city: Malmö
  latitude: 55.59513
  longitude: 12.98115

- location: Maxi ICA Stormarknad Västra Hamnen
  urn: urn:ica:store:id:11981
  city: Malmö
  latitude: 55.6115
  longitude: 12.98202

- location: ICA Nära Stadionköp, Malmö
  urn: urn:ica:store:id:2717
  city: Malmö
  latitude: 55.58668
  longitude: 12.98263

- location: ICA Nära Lindeborg
  urn: urn:ica:store:id:2740
  city: Malmö
  latitude: 55.56216
  longitude: 12.98984

- location: Maxi ICA Stormarknad Löddeköpinge
  urn: urn:ica:store:id:10521
  city: Kävlinge
  latitude: 55.76981
  longitude: 12.99077

- location: ICA Supermarket Toria
  urn: urn:ica:store:id:8921
  city: Torsby
  latitude: 60.13082
  longitude: 12.99399

- location: ICA Nära BK-Hallen
  urn: urn:ica:store:id:12308
  city: Vara
  latitude: 58.17081
  longitude: 12.99694

- location: ICA Nära Tandådalen
  urn: urn:ica:store:id:596
  city: Malung-Sälen
  latitude: 61.17543
  longitude: 12.99824

- location: ICA Nära Träffen, Tygelsjö
  urn: urn:ica:store:id:2769
  city: Malmö
  latitude: 55.51699
  longitude: 13.00131

- location: ICA Kvantum Malmborgs Mobilia
  urn: urn:ica:store:id:2765
  city: Malmö
  latitude: 55.57999
  longitude: 13.00253

- location: ICA Supermarket Hansa
  urn: urn:ica:store:id:16018
  city: Malmö
  latitude: 55.60334
  longitude: 13.00362

- location: ICA City Brämhult
  urn: urn:ica:store:id:1940
  city: Borås
  latitude: 57.72875
  longitude: 13.00469

- location: ICA Supermarket Söder
  urn: urn:ica:store:id:2734
  city: Malmö
  latitude: 55.59241
  longitude: 13.00511

- location: ICA Supermarket Löddeköpinge
  urn: urn:ica:store:id:2691
  city: Kävlinge
  latitude: 55.75829
  longitude: 13.00629

- location: ICA Kvantum Malmborgs Caroli
  urn: urn:ica:store:id:2720
  city: Malmö
  latitude: 55.60695
  longitude: 13.00828

- location: Frykenhallen
  urn: urn:ica:store:id:819
  city: Torsby
  latitude: 60.13529
  longitude: 13.00864

- location: ICA Supermarket Möllevången
  urn: urn:ica:store:id:2736
  city: Malmö
  latitude: 55.59001
  longitude: 13.01047

- location: ICA City Fristad
  urn: urn:ica:store:id:1952
  city: Borås
  latitude: 57.82548
  longitude: 13.01243

- location: ICA Supermarket Hermodsdal
  urn: urn:ica:store:id:2742
  city: Malmö
  latitude: 55.56645
  longitude: 13.0194

- location: ICA Kvantum Vellinge
  urn: urn:ica:store:id:2677
  city: Vellinge
  latitude: 55.47023
  longitude: 13.02148

- location: ICA Supermarket Värnhem
  urn: urn:ica:store:id:15976
  city: Malmö
  latitude: 55.60638
  longitude: 13.02205

- location: ICA Nära Hjärtat
  urn: urn:ica:store:id:1949
  city: Borås
  latitude: 57.69799
  longitude: 13.02603

- location: ICA Supermarket Bjärred
  urn: urn:ica:store:id:2697
  city: Lomma
  latitude: 55.72253
  longitude: 13.02685

- location: ICA Supermarket Herrljunga
  urn: urn:ica:store:id:1982
  city: Herrljunga
  latitude: 58.07829
  longitude: 13.02687

- location: ICA Nära Amiralsgatan, Malmö
  urn: urn:ica:store:id:2758
  city: Malmö
  latitude: 55.59056
  longitude: 13.02805

- location: Maxi ICA Stormarknad Malmö
  urn: urn:ica:store:id:2748
  city: Malmö
  latitude: 55.57171
  longitude: 13.04056

- location: Likenäs Allköp
  urn: urn:ica:store:id:827
  city: Torsby
  latitude: 60.61533
  longitude: 13.04108

- location: ICA Supermarket Torghallen, Laholm
  urn: urn:ica:store:id:2320
  city: Laholm
  latitude: 56.51331
  longitude: 13.04371

- location: ICA Nära Ottsjö-Bua
  urn: urn:ica:store:id:520
  city: Åre
  latitude: 63.21535
  longitude: 13.05019

- location: ICA Nära Ljung
  urn: urn:ica:store:id:1932
  city: Herrljunga
  latitude: 57.9862
  longitude: 13.05512

- location: ICA Nära Almgården, Malmö
  urn: urn:ica:store:id:7312
  city: Malmö
  latitude: 55.5789
  longitude: 13.06177

- location: ICA Nära Mårtenssons, Lomma
  urn: urn:ica:store:id:2694
  city: Lomma
  latitude: 55.66969
  longitude: 13.0674

- location: ICA Nära Eriks
  urn: urn:ica:store:id:2833
  city: Klippan
  latitude: 56.19033
  longitude: 13.06877

- location: ICA Supermarket Åre
  urn: urn:ica:store:id:12563
  city: Åre
  latitude: 63.39891
  longitude: 13.07623

- location: ICA Nära Wictors i Veinge
  urn: urn:ica:store:id:2335
  city: Laholm
  latitude: 56.55258
  longitude: 13.07638

- location: ICA Supermarket Lomma
  urn: urn:ica:store:id:10205
  city: Lomma
  latitude: 55.66863
  longitude: 13.0886

- location: ICA Nära Teckomatorp
  urn: urn:ica:store:id:2868
  city: Svalöv
  latitude: 55.86665
  longitude: 13.09075

- location: Maxi ICA Stormarknad Toftanäs
  urn: urn:ica:store:id:12312
  city: Malmö
  latitude: 55.59799
  longitude: 13.09589

- location: ICA Nära Oxie
  urn: urn:ica:store:id:2752
  city: Malmö
  latitude: 55.54973
  longitude: 13.09645

- location: ICA Supermarket Orrby
  urn: urn:ica:store:id:843
  city: Grums
  latitude: 59.34677
  longitude: 13.10044

- location: ICA Nära Målet, Kinnared
  urn: urn:ica:store:id:2301
  city: Hylte
  latitude: 57.02718
  longitude: 13.10049

- location: ICA Nära Dalköp
  urn: urn:ica:store:id:1943
  city: Borås
  latitude: 57.71984
  longitude: 13.10276

- location: ICA Supermarket Kävlinge
  urn: urn:ica:store:id:11924
  city: Kävlinge
  latitude: 55.78926
  longitude: 13.10283

- location: ICA Supermarket Klingan
  urn: urn:ica:store:id:842
  city: Grums
  latitude: 59.3514
  longitude: 13.10907

- location: ICA Supermarket Svalöv
  urn: urn:ica:store:id:2863
  city: Svalöv
  latitude: 55.91384
  longitude: 13.10909

- location: ICA Kvantum Svenljunga
  urn: urn:ica:store:id:1919
  city: Svenljunga
  latitude: 57.49575
  longitude: 13.11026

- location: ICA Nära Åkarp
  urn: urn:ica:store:id:2675
  city: Burlöv
  latitude: 55.6535
  longitude: 13.11122

- location: ICA Nära Våxbohallen, Våxtorp
  urn: urn:ica:store:id:2326
  city: Laholm
  latitude: 56.41672
  longitude: 13.11843

- location: ICA Nära Ysbyhallen
  urn: urn:ica:store:id:2333
  city: Laholm
  latitude: 56.49292
  longitude: 13.12057

- location: Maxi ICA Stormarknad Trelleborg
  urn: urn:ica:store:id:2807
  city: Trelleborg
  latitude: 55.37323
  longitude: 13.12534

- location: ICA Nära Klippan
  urn: urn:ica:store:id:12724
  city: Klippan
  latitude: 56.13527
  longitude: 13.1312

- location: Nya ICA Toppen
  urn: urn:ica:store:id:598
  city: Malung-Sälen
  latitude: 61.15969
  longitude: 13.13615

- location: ICA Nära Björnänge
  urn: urn:ica:store:id:517
  city: Åre
  latitude: 63.38298
  longitude: 13.13639

- location: ICA Nära Klockan
  urn: urn:ica:store:id:2050
  city: Lidköping
  latitude: 58.5017
  longitude: 13.1437

- location: ICA Supermarket BBB Sunne
  urn: urn:ica:store:id:857
  city: Sunne
  latitude: 59.83766
  longitude: 13.14481

- location: ICA Kvantum Hjertberg
  urn: urn:ica:store:id:2044
  city: Lidköping
  latitude: 58.50972
  longitude: 13.14509

- location: ICA Nära Mathuset, Marieholm
  urn: urn:ica:store:id:2937
  city: Eslöv
  latitude: 55.86406
  longitude: 13.1569

- location: ICA Supermarket Trelleborg
  urn: urn:ica:store:id:2809
  city: Trelleborg
  latitude: 55.37443
  longitude: 13.15763

- location: ICA Kvantum Klippan
  urn: urn:ica:store:id:2830
  city: Klippan
  latitude: 56.13355
  longitude: 13.15922

- location: ICA Kvantum Mobilia Lund
  urn: urn:ica:store:id:9262
  city: Lund
  latitude: 55.71793
  longitude: 13.16542

- location: ICA Supermarket Margretelund
  urn: urn:ica:store:id:2046
  city: Lidköping
  latitude: 58.49601
  longitude: 13.1692

- location: ICA Nära Jägaren, Lund
  urn: urn:ica:store:id:2775
  city: Lund
  latitude: 55.72799
  longitude: 13.17527

- location: ICA Nära Bara
  urn: urn:ica:store:id:15977
  city: Svedala
  latitude: 55.57863
  longitude: 13.17565

- location: ICA Nära Sahlins
  urn: urn:ica:store:id:12110
  city: Vara
  latitude: 58.29914
  longitude: 13.18537

- location: ICA Kvantum Malmborgs Clemenstorget
  urn: urn:ica:store:id:2771
  city: Lund
  latitude: 55.70649
  longitude: 13.18801

- location: ICA Nära Söderlivs, Lund
  urn: urn:ica:store:id:2774
  city: Lund
  latitude: 55.69795
  longitude: 13.19035

- location: ICA Nära Satelliten
  urn: urn:ica:store:id:2773
  city: Lund
  latitude: 55.69595
  longitude: 13.20295

- location: ICA Nära Lindvallen
  urn: urn:ica:store:id:11436
  city: Malung-Sälen
  latitude: 61.15593
  longitude: 13.20443

- location: ICA Supermarket Staffanstorp
  urn: urn:ica:store:id:2670
  city: Staffanstorp
  latitude: 55.64193
  longitude: 13.20455

- location: ICA Supermarket Fäladstorget
  urn: urn:ica:store:id:2781
  city: Lund
  latitude: 55.72373
  longitude: 13.20502

- location: ICA Kvantum Malmborgs Tuna
  urn: urn:ica:store:id:2780
  city: Lund
  latitude: 55.70961
  longitude: 13.21653

- location: ICA Nära Tornet
  urn: urn:ica:store:id:2784
  city: Lund
  latitude: 55.71428
  longitude: 13.23043

- location: ICA Nära Kall
  urn: urn:ica:store:id:519
  city: Åre
  latitude: 63.47262
  longitude: 13.23335

- location: ICA Kvantum Karlssons
  urn: urn:ica:store:id:14703
  city: Svedala
  latitude: 55.50931
  longitude: 13.23808

- location: ICA Supermarket Hyltebruk
  urn: urn:ica:store:id:10825
  city: Hylte
  latitude: 56.99819
  longitude: 13.2382

- location: ICA Supermarket Linero Torg
  urn: urn:ica:store:id:15172
  city: Lund
  latitude: 55.69464
  longitude: 13.24227

- location: ICA Nära Länghem
  urn: urn:ica:store:id:1892
  city: Tranemo
  latitude: 57.59997
  longitude: 13.24325

- location: ICA Nära Strandbergs Undersåker
  urn: urn:ica:store:id:521
  city: Åre
  latitude: 63.31612
  longitude: 13.24726

- location: ICA Nära Lofsdalen
  urn: urn:ica:store:id:544
  city: Härjedalen
  latitude: 62.11346
  longitude: 13.26518

- location: Gunnarssons
  urn: urn:ica:store:id:2043
  city: Lidköping
  latitude: 58.45275
  longitude: 13.26802

- location: ICA Nära Sälen
  urn: urn:ica:store:id:595
  city: Malung-Sälen
  latitude: 61.15494
  longitude: 13.26841

- location: ICA Supermarket Örkelljunga
  urn: urn:ica:store:id:14842
  city: Örkelljunga
  latitude: 56.28177
  longitude: 13.27935

- location: ICA Nära Danielssons, Burseryd
  urn: urn:ica:store:id:2348
  city: Gislaved
  latitude: 57.20084
  longitude: 13.28391

- location: ICA Nära Röstånga
  urn: urn:ica:store:id:9945
  city: Svalöv
  latitude: 55.99963
  longitude: 13.28856

- location: ICA Nära Tvärred
  urn: urn:ica:store:id:1973
  city: Ulricehamn
  latitude: 57.69786
  longitude: 13.30027

- location: ICA Kvantum Eslöv
  urn: urn:ica:store:id:9707
  city: Eslöv
  latitude: 55.83719
  longitude: 13.30701

- location: ICA Nära Hishult
  urn: urn:ica:store:id:3574
  city: Laholm
  latitude: 56.42687
  longitude: 13.30735

- location: ICA Supermarket Kil
  urn: urn:ica:store:id:806
  city: Kil
  latitude: 59.50413
  longitude: 13.31591

- location: ICA Nära Anderslöv
  urn: urn:ica:store:id:2819
  city: Trelleborg
  latitude: 55.44002
  longitude: 13.31872

- location: ICA Nära Floby
  urn: urn:ica:store:id:2091
  city: Falköping
  latitude: 58.13524
  longitude: 13.33633

- location: ICA Kvantum Södra Sandby
  urn: urn:ica:store:id:2786
  city: Lund
  latitude: 55.7174
  longitude: 13.34286

- location: ICA Kvantum Tranemo
  urn: urn:ica:store:id:12991
  city: Tranemo
  latitude: 57.48274
  longitude: 13.34969

- location: ICA Nära Mathyttan
  urn: urn:ica:store:id:1891
  city: Tranemo
  latitude: 57.53413
  longitude: 13.35637

- location: ICA Nära Perssons, Klagstorp
  urn: urn:ica:store:id:2815
  city: Trelleborg
  latitude: 55.39337
  longitude: 13.37294

- location: ICA Supermarket Perstorp
  urn: urn:ica:store:id:2829
  city: Perstorp
  latitude: 56.1391
  longitude: 13.39372

- location: ICA Nära Genarp
  urn: urn:ica:store:id:2789
  city: Lund
  latitude: 55.59926
  longitude: 13.4013

- location: ICA Supermarket Smålandsstenar
  urn: urn:ica:store:id:2343
  city: Gislaved
  latitude: 57.1553
  longitude: 13.40331

- location: ICA Kvantum Ulricehamn
  urn: urn:ica:store:id:1974
  city: Ulricehamn
  latitude: 57.79559
  longitude: 13.41233

- location: Maxi ICA Stormarknad Karlstad
  urn: urn:ica:store:id:11010
  city: Karlstad
  latitude: 59.37839
  longitude: 13.42495

- location: ICA Nära Timmele
  urn: urn:ica:store:id:1970
  city: Ulricehamn
  latitude: 57.85952
  longitude: 13.42921

- location: ICA Nära Gällstad
  urn: urn:ica:store:id:1972
  city: Ulricehamn
  latitude: 57.66524
  longitude: 13.43078

- location: ICA Kvantum Munken
  urn: urn:ica:store:id:2054
  city: Skara
  latitude: 58.38378
  longitude: 13.43721

- location: ICA Nära Lidhult
  urn: urn:ica:store:id:2298
  city: Ljungby
  latitude: 56.8268
  longitude: 13.44113

- location: ICA Supermarket Skåre
  urn: urn:ica:store:id:877
  city: Karlstad
  latitude: 59.43514
  longitude: 13.44212

- location: ICA Supermarket Järpen
  urn: urn:ica:store:id:2938
  city: Åre
  latitude: 63.34687
  longitude: 13.45616

- location: ICA Nära Kärnan
  urn: urn:ica:store:id:868
  city: Karlstad
  latitude: 59.38505
  longitude: 13.46407

- location: ICA Nära Opdahls
  urn: urn:ica:store:id:2826
  city: Örkelljunga
  latitude: 56.37344
  longitude: 13.46672

- location: ICA Supermarket Skoghall
  urn: urn:ica:store:id:2987
  city: Hammarö
  latitude: 59.32487
  longitude: 13.46739

- location: ICA Nära Deje
  urn: urn:ica:store:id:839
  city: Forshaga
  latitude: 59.60416
  longitude: 13.46756

- location: ICA Supermarket Spara Våxnäs
  urn: urn:ica:store:id:10519
  city: Karlstad
  latitude: 59.38495
  longitude: 13.4793

- location: ICA Supermarket Forshaga
  urn: urn:ica:store:id:837
  city: Forshaga
  latitude: 59.53249
  longitude: 13.4807

- location: ICA Supermarket Skurup
  urn: urn:ica:store:id:13403
  city: Skurup
  latitude: 55.49017
  longitude: 13.48703

- location: ICA Nära Viken
  urn: urn:ica:store:id:866
  city: Karlstad
  latitude: 59.37701
  longitude: 13.49046

- location: ICA Supermarket Indianen Ekshärad
  urn: urn:ica:store:id:894
  city: Hagfors
  latitude: 60.17334
  longitude: 13.49367

- location: ICA Kvantum Götene
  urn: urn:ica:store:id:2014
  city: Götene
  latitude: 58.52909
  longitude: 13.49381

- location: ICA Nära Veberöd
  urn: urn:ica:store:id:2790
  city: Lund
  latitude: 55.63573
  longitude: 13.49519

- location: ICA Kvantum Hammarö
  urn: urn:ica:store:id:16102
  city: Hammarö
  latitude: 59.3432
  longitude: 13.50466

- location: ICA Supermarket Hagahallen
  urn: urn:ica:store:id:865
  city: Karlstad
  latitude: 59.38178
  longitude: 13.513

- location: ICA Nära Löberöd
  urn: urn:ica:store:id:2793
  city: Eslöv
  latitude: 55.77534
  longitude: 13.51333

- location: ICA Supermarket Wallinders
  urn: urn:ica:store:id:871
  city: Karlstad
  latitude: 59.39282
  longitude: 13.5163

- location: ICA Supermarket Hede
  urn: urn:ica:store:id:551
  city: Härjedalen
  latitude: 62.41851
  longitude: 13.51708

- location: ICA Nära Dalstorp
  urn: urn:ica:store:id:1890
  city: Tranemo
  latitude: 57.60348
  longitude: 13.51759

- location: ICA Matfocus, Slutarp
  urn: urn:ica:store:id:2095
  city: Falköping
  latitude: 58.0857
  longitude: 13.52107

- location: ICA Nära Harlösa
  urn: urn:ica:store:id:2794
  city: Eslöv
  latitude: 55.71713
  longitude: 13.52524

- location: ICA Kvantum Gislaved
  urn: urn:ica:store:id:2346
  city: Gislaved
  latitude: 57.30388
  longitude: 13.54356

- location: ICA Supermarket Munkfors
  urn: urn:ica:store:id:836
  city: Munkfors
  latitude: 59.83479
  longitude: 13.54383

- location: ICA Supermarket Höör
  urn: urn:ica:store:id:9562
  city: Höör
  latitude: 55.93826
  longitude: 13.54874

- location: ICA Supermarket Falköping
  urn: urn:ica:store:id:2090
  city: Falköping
  latitude: 58.1745
  longitude: 13.5535

- location: Maxi ICA Stormarknad Falköping
  urn: urn:ica:store:id:3504
  city: Falköping
  latitude: 58.1542
  longitude: 13.56245

- location: Evaldssons
  urn: urn:ica:store:id:2089
  city: Falköping
  latitude: 58.02356
  longitude: 13.56732

- location: ICA Nära Tores Allköp, Skivarp
  urn: urn:ica:store:id:2703
  city: Skurup
  latitude: 55.42538
  longitude: 13.56777

- location: ICA Nära Axvall
  urn: urn:ica:store:id:2053
  city: Skara
  latitude: 58.38704
  longitude: 13.57439

- location: ICA Nära Mossbergs
  urn: urn:ica:store:id:874
  city: Karlstad
  latitude: 59.47446
  longitude: 13.57892

- location: ICA Kvantum Välsviken
  urn: urn:ica:store:id:13584
  city: Karlstad
  latitude: 59.39568
  longitude: 13.5799

- location: Åhströms livs
  urn: urn:ica:store:id:8936
  city: Hagfors
  latitude: 60.00091
  longitude: 13.59476

- location: ICA Kvantum Markaryd
  urn: urn:ica:store:id:2258
  city: Markaryd
  latitude: 56.44983
  longitude: 13.59796

- location: ICA Nära Matlusten
  urn: urn:ica:store:id:2545
  city: Hässleholm
  latitude: 56.15871
  longitude: 13.60053

- location: ICA Nära Ludvigsborg
  urn: urn:ica:store:id:2714
  city: Hörby
  latitude: 55.90308
  longitude: 13.60733

- location: ICA Nära Mörsil
  urn: urn:ica:store:id:515
  city: Åre
  latitude: 63.30975
  longitude: 13.61468

- location: ICA Supermarket Anderstorp
  urn: urn:ica:store:id:11363
  city: Gislaved
  latitude: 57.28243
  longitude: 13.63258

- location: ICA Kvantum Hörby
  urn: urn:ica:store:id:2712
  city: Hörby
  latitude: 55.8498
  longitude: 13.64867

- location: ICA Nära Vittsjö
  urn: urn:ica:store:id:10144
  city: Hässleholm
  latitude: 56.3468
  longitude: 13.66167

- location: ICA Nära Toppen
  urn: urn:ica:store:id:2543
  city: Hässleholm
  latitude: 56.0395
  longitude: 13.68108

- location: ICA Supermarket Sjöbo
  urn: urn:ica:store:id:2707
  city: Sjöbo
  latitude: 55.63451
  longitude: 13.68445

- location: ICA Supermarket Hagfors
  urn: urn:ica:store:id:893
  city: Hagfors
  latitude: 60.03411
  longitude: 13.69605

- location: ICA Kvantum Sjöbo
  urn: urn:ica:store:id:2708
  city: Sjöbo
  latitude: 55.63062
  longitude: 13.70837

- location: ICA Supermarket Olof Nils
  urn: urn:ica:store:id:2542
  city: Hässleholm
  latitude: 56.29162
  longitude: 13.71011

- location: ICA Supermarket Malung
  urn: urn:ica:store:id:589
  city: Malung-Sälen
  latitude: 60.68336
  longitude: 13.71203

- location: ICA Nära Strömsnäsbruk
  urn: urn:ica:store:id:2262
  city: Markaryd
  latitude: 56.54894
  longitude: 13.73134

- location: ICA Supermarket Gnosjö
  urn: urn:ica:store:id:2342
  city: Gnosjö
  latitude: 57.35646
  longitude: 13.73147

- location: ICA Nära Bredaryd
  urn: urn:ica:store:id:2387
  city: Värnamo
  latitude: 57.17536
  longitude: 13.73708

- location: ICA Nära Timmersdala
  urn: urn:ica:store:id:2070
  city: Skövde
  latitude: 58.52779
  longitude: 13.7566

- location: ICA Kvantum Hässleholm
  urn: urn:ica:store:id:2534
  city: Hässleholm
  latitude: 56.15483
  longitude: 13.75961

- location: Maxi ICA Stormarknad Hässleholm
  urn: urn:ica:store:id:3549
  city: Hässleholm
  latitude: 56.16393
  longitude: 13.78023

- location: ICA Nära Vollsjö
  urn: urn:ica:store:id:2711
  city: Sjöbo
  latitude: 55.70547
  longitude: 13.78808

- location: ICA Kvantum Ystad
  urn: urn:ica:store:id:14788
  city: Ystad
  latitude: 55.44442
  longitude: 13.80887

- location: ICA Nära Skultorp
  urn: urn:ica:store:id:2072
  city: Skövde
  latitude: 58.3423
  longitude: 13.82713

- location: ICA Kvantum Mariestad
  urn: urn:ica:store:id:2031
  city: Mariestad
  latitude: 58.71071
  longitude: 13.82784

- location: ICA Nära Ässet, Forsheda
  urn: urn:ica:store:id:2389
  city: Värnamo
  latitude: 57.16179
  longitude: 13.83018

- location: ICA Kvantum Skövde
  urn: urn:ica:store:id:2062
  city: Skövde
  latitude: 58.3948
  longitude: 13.83332

- location: ICA Supermarket Ystad
  urn: urn:ica:store:id:11242
  city: Ystad
  latitude: 55.43374
  longitude: 13.84383

- location: ICA Nära Norrmalm
  urn: urn:ica:store:id:2068
  city: Skövde
  latitude: 58.39679
  longitude: 13.84697

- location: Maxi ICA Stormarknad Skövde
  urn: urn:ica:store:id:9588
  city: Skövde
  latitude: 58.4056
  longitude: 13.85531

- location: ICA Nära Blomman
  urn: urn:ica:store:id:2061
  city: Skövde
  latitude: 58.47533
  longitude: 13.86396

- location: ICA Nära Vemdalen
  urn: urn:ica:store:id:550
  city: Härjedalen
  latitude: 62.44587
  longitude: 13.86583

- location: ICA Supermarket Mullsjö
  urn: urn:ica:store:id:2429
  city: Mullsjö
  latitude: 57.91539
  longitude: 13.87091

- location: ICA Nära Nyckeln, Hillerstorp
  urn: urn:ica:store:id:2340
  city: Gnosjö
  latitude: 57.31077
  longitude: 13.88699

- location: ICA Nära Hanssons i Lövestad
  urn: urn:ica:store:id:2710
  city: Sjöbo
  latitude: 55.65359
  longitude: 13.89103

- location: ICA Nära Ladan
  urn: urn:ica:store:id:486
  city: Krokom
  latitude: 63.49186
  longitude: 13.89706

- location: ICA Supermarket Vinslöv
  urn: urn:ica:store:id:2501
  city: Hässleholm
  latitude: 56.10199
  longitude: 13.91233

- location: ICA Nära Thages Livs, Ljungby
  urn: urn:ica:store:id:2289
  city: Ljungby
  latitude: 56.83561
  longitude: 13.92953

- location: ICA Nära Viltspecialisten Hästveda
  urn: urn:ica:store:id:2538
  city: Hässleholm
  latitude: 56.28646
  longitude: 13.9355

- location: ICA Nära Ge-Ma Livs
  urn: urn:ica:store:id:2804
  city: Ystad
  latitude: 55.45626
  longitude: 13.93773

- location: Maxi ICA Stormarknad Ljungby
  urn: urn:ica:store:id:3511
  city: Ljungby
  latitude: 56.83418
  longitude: 13.94338

- location: ICA Nära Björnrike
  urn: urn:ica:store:id:12773
  city: Härjedalen
  latitude: 62.41761
  longitude: 13.94417

- location: ICA Kvantum Tomelilla
  urn: urn:ica:store:id:2641
  city: Tomelilla
  latitude: 55.54638
  longitude: 13.9469

- location: ICA Kvantum Tidaholm
  urn: urn:ica:store:id:13421
  city: Tidaholm
  latitude: 58.17955
  longitude: 13.9507

- location: ICA Nära Vemdalsskalet
  urn: urn:ica:store:id:548
  city: Härjedalen
  latitude: 62.48487
  longitude: 13.97053

- location: ICA Supermarket Tollarp
  urn: urn:ica:store:id:2529
  city: Kristianstad
  latitude: 55.93284
  longitude: 13.97723

- location: ICA Nära Bergahallen, Lagan
  urn: urn:ica:store:id:2294
  city: Ljungby
  latitude: 56.91732
  longitude: 13.98746

- location: ICA Supermarket Osby
  urn: urn:ica:store:id:2509
  city: Osby
  latitude: 56.3807
  longitude: 13.99365

- location: ICA Nära Kometen
  urn: urn:ica:store:id:2510
  city: Osby
  latitude: 56.37697
  longitude: 14.0077

- location: ICA Nära Tidan
  urn: urn:ica:store:id:2063
  city: Skövde
  latitude: 58.57275
  longitude: 14.00796

- location: ICA Supermarket Värnamo
  urn: urn:ica:store:id:2382
  city: Värnamo
  latitude: 57.17596
  longitude: 14.0319

- location: ICA Supermarket Olssons
  urn: urn:ica:store:id:623
  city: Älvdalen
  latitude: 61.22968
  longitude: 14.0372

- location: Freijs Livsmedel
  urn: urn:ica:store:id:2029
  city: Mariestad
  latitude: 58.80291
  longitude: 14.05888

- location: ICA Kvantum Värnamo
  urn: urn:ica:store:id:9600
  city: Värnamo
  latitude: 57.17464
  longitude: 14.0615

- location: ICA Änge
  urn: urn:ica:store:id:484
  city: Krokom
  latitude: 63.457
  longitude: 14.06859

- location: ICA Nära Hövdingen
  urn: urn:ica:store:id:2502
  city: Östra Göinge
  latitude: 56.25429
  longitude: 14.07233

- location: ICA Supermarket Habo
  urn: urn:ica:store:id:2431
  city: Habo
  latitude: 57.90898
  longitude: 14.0747

- location: ICA Nära Färlöv
  urn: urn:ica:store:id:13333
  city: Kristianstad
  latitude: 56.07377
  longitude: 14.08502

- location: ICA Nära Karl Ors Bua
  urn: urn:ica:store:id:522
  city: Åre
  latitude: 63.17577
  longitude: 14.08927

- location: ICA Nära Lagahallen
  urn: urn:ica:store:id:2351
  city: Vaggeryd
  latitude: 57.43017
  longitude: 14.09124

- location: ICA Nära Trollet, Taberg
  urn: urn:ica:store:id:2371
  city: Jönköping
  latitude: 57.67724
  longitude: 14.0918

- location: ICA Nära Kristinehamn
  urn: urn:ica:store:id:884
  city: Kristinehamn
  latitude: 59.30011
  longitude: 14.09226

- location: ICA Supermarket Gullspång
  urn: urn:ica:store:id:1994
  city: Gullspång
  latitude: 58.98493
  longitude: 14.10436

- location: Blåsjöfjäll Livs
  urn: urn:ica:store:id:502
  city: Strömsund
  latitude: 64.83205
  longitude: 14.10755

- location: ICA Supermarket Brösarp
  urn: urn:ica:store:id:2648
  city: Tomelilla
  latitude: 55.72414
  longitude: 14.1079

- location: ICA Nära Hovslätt
  urn: urn:ica:store:id:2370
  city: Jönköping
  latitude: 57.73224
  longitude: 14.11962

- location: ICA Supermarket Töreboda
  urn: urn:ica:store:id:2023
  city: Töreboda
  latitude: 58.70702
  longitude: 14.12486

- location: ICA Supermarket Bankeryd
  urn: urn:ica:store:id:2361
  city: Jönköping
  latitude: 57.86203
  longitude: 14.12615

- location: Maxi ICA Stormarknad Kristinehamn
  urn: urn:ica:store:id:882
  city: Kristinehamn
  latitude: 59.31129
  longitude: 14.1279

- location: ICA Nära St Olof
  urn: urn:ica:store:id:14903
  city: Simrishamn
  latitude: 55.63588
  longitude: 14.12905

- location: ICA Nära Gräshagen
  urn: urn:ica:store:id:2358
  city: Jönköping
  latitude: 57.76352
  longitude: 14.13605

- location: ICA Nära Glimåkra
  urn: urn:ica:store:id:2506
  city: Östra Göinge
  latitude: 56.30569
  longitude: 14.13688

- location: Gränsbua
  urn: urn:ica:store:id:504
  city: Strömsund
  latitude: 64.4988
  longitude: 14.14387

- location: Maxi ICA Stormarknad Älmhult
  urn: urn:ica:store:id:2251
  city: Älmhult
  latitude: 56.55723
  longitude: 14.14838

- location: ICA Kvantum Kristianstad
  urn: urn:ica:store:id:11638
  city: Kristianstad
  latitude: 56.0434
  longitude: 14.14896

- location: ICA Supermarket Vaggeryd
  urn: urn:ica:store:id:2349
  city: Vaggeryd
  latitude: 57.49888
  longitude: 14.14898

- location: ICA Kvantum Filipstad
  urn: urn:ica:store:id:10891
  city: Filipstad
  latitude: 59.71143
  longitude: 14.15407

- location: ICA Supermarket Hammenhög
  urn: urn:ica:store:id:2662
  city: Simrishamn
  latitude: 55.50305
  longitude: 14.15445

- location: ICA Supermarket Klostergatan
  urn: urn:ica:store:id:2359
  city: Jönköping
  latitude: 57.77873
  longitude: 14.15675

- location: ICA Supermarket Tibro
  urn: urn:ica:store:id:10890
  city: Tibro
  latitude: 58.42477
  longitude: 14.16413

- location: ICA Nära Ryssby
  urn: urn:ica:store:id:2291
  city: Ljungby
  latitude: 56.86505
  longitude: 14.16482

- location: ICA Nära City Livs
  urn: urn:ica:store:id:2019
  city: Tibro
  latitude: 58.42206
  longitude: 14.16658

- location: ICA Nära Nybble
  urn: urn:ica:store:id:881
  city: Kristinehamn
  latitude: 59.10027
  longitude: 14.16701

- location: Maxi ICA Stormarknad Kristianstad
  urn: urn:ica:store:id:2513
  city: Kristianstad
  latitude: 56.02564
  longitude: 14.16947

- location: Maxi ICA Stormarknad Jönköping
  urn: urn:ica:store:id:9937
  city: Jönköping
  latitude: 57.77233
  longitude: 14.17557

- location: Olas Livs
  urn: urn:ica:store:id:888
  city: Filipstad
  latitude: 59.98064
  longitude: 14.17794

- location: ICA Nära Häggs Livs
  urn: urn:ica:store:id:2660
  city: Simrishamn
  latitude: 55.54686
  longitude: 14.18171

- location: ICA Supermarket Borrby
  urn: urn:ica:store:id:2657
  city: Simrishamn
  latitude: 55.45781
  longitude: 14.18227

- location: Nyvalls Livs
  urn: urn:ica:store:id:880
  city: Kristinehamn
  latitude: 59.15916
  longitude: 14.18459

- location: ICA Nära Flamman Öster
  urn: urn:ica:store:id:2369
  city: Jönköping
  latitude: 57.78117
  longitude: 14.18641

- location: ICA Klövsjö
  urn: urn:ica:store:id:537
  city: Berg
  latitude: 62.5265
  longitude: 14.19018

- location: ICA Supermarket Hova
  urn: urn:ica:store:id:1995
  city: Gullspång
  latitude: 58.8542
  longitude: 14.21499

- location: ICA Supermarket Kivik
  urn: urn:ica:store:id:2665
  city: Simrishamn
  latitude: 55.68527
  longitude: 14.22167

- location: ICA Supermarket Vansbro
  urn: urn:ica:store:id:10792
  city: Vansbro
  latitude: 60.509
  longitude: 14.23038

- location: ICA Nära Näldhallen
  urn: urn:ica:store:id:476
  city: Krokom
  latitude: 63.34696
  longitude: 14.24693

- location: ICA Nära Liatorp
  urn: urn:ica:store:id:2254
  city: Älmhult
  latitude: 56.66646
  longitude: 14.26961

- location: ICA Kvantum Huskvarna
  urn: urn:ica:store:id:16030
  city: Jönköping
  latitude: 57.79059
  longitude: 14.27068

- location: ICA Nära A-Livs
  urn: urn:ica:store:id:2527
  city: Kristianstad
  latitude: 56.04189
  longitude: 14.27984

- location: ICA Nära Storfors
  urn: urn:ica:store:id:833
  city: Storfors
  latitude: 59.53642
  longitude: 14.28051

- location: ICA Nära Arkelstorp
  urn: urn:ica:store:id:2533
  city: Kristianstad
  latitude: 56.17169
  longitude: 14.28329

- location: ICA Supermarket Hjo
  urn: urn:ica:store:id:2076
  city: Hjo
  latitude: 58.3044
  longitude: 14.29127

- location: ICA Kvantum Åhus
  urn: urn:ica:store:id:3580
  city: Kristianstad
  latitude: 55.92838
  longitude: 14.29434

- location: ICA Nära Rydaholm
  urn: urn:ica:store:id:2393
  city: Värnamo
  latitude: 56.98449
  longitude: 14.30885

- location: ICA Nära Kaxholmen
  urn: urn:ica:store:id:2363
  city: Jönköping
  latitude: 57.85373
  longitude: 14.30902

- location: ICA Nära Lönsboda
  urn: urn:ica:store:id:10143
  city: Osby
  latitude: 56.39812
  longitude: 14.3195

- location: ICA Nära Tenhult
  urn: urn:ica:store:id:2356
  city: Jönköping
  latitude: 57.70814
  longitude: 14.322

- location: ICA Nära Porten
  urn: urn:ica:store:id:529
  city: Berg
  latitude: 62.99864
  longitude: 14.34092

- location: ICA Supermarket Simrishamn
  urn: urn:ica:store:id:2650
  city: Simrishamn
  latitude: 55.5571
  longitude: 14.34635

- location: ICA Nära Åtorp
  urn: urn:ica:store:id:1051
  city: Degerfors
  latitude: 59.11686
  longitude: 14.36621

- location: ICA Supermarket Sveg
  urn: urn:ica:store:id:542
  city: Härjedalen
  latitude: 62.0329
  longitude: 14.36699

- location: Lanthandeln i Undenäs
  urn: urn:ica:store:id:1991
  city: Karlsborg
  latitude: 58.65579
  longitude: 14.39771

- location: ICA Nära Fredéns
  urn: urn:ica:store:id:1990
  city: Karlsborg
  latitude: 58.49551
  longitude: 14.413

- location: ICA Nära Lekeryd
  urn: urn:ica:store:id:2365
  city: Jönköping
  latitude: 57.77189
  longitude: 14.41673

- location: Kronhallen ICA Supermarket Degerfors
  urn: urn:ica:store:id:1049
  city: Degerfors
  latitude: 59.23577
  longitude: 14.43074

- location: ICA Supermarket Svenstavik
  urn: urn:ica:store:id:524
  city: Berg
  latitude: 62.76681
  longitude: 14.43202

- location: Carlssons livsmedel
  urn: urn:ica:store:id:1040
  city: Laxå
  latitude: 58.9266
  longitude: 14.43985

- location: ICA Nära Dackehallen
  urn: urn:ica:store:id:2247
  city: Alvesta
  latitude: 56.78717
  longitude: 14.44921

- location: ICA Supermarket Krokom
  urn: urn:ica:store:id:475
  city: Krokom
  latitude: 63.32669
  longitude: 14.45074

- location: ICA Nära Malmbäck
  urn: urn:ica:store:id:2378
  city: Nässjö
  latitude: 57.5763
  longitude: 14.46117

- location: ICA Nära Gränna
  urn: urn:ica:store:id:2368
  city: Jönköping
  latitude: 58.02447
  longitude: 14.46635

- location: Maxi ICA Stormarknad Bromölla
  urn: urn:ica:store:id:2508
  city: Bromölla
  latitude: 56.06693
  longitude: 14.47753

- location: Maxi ICA Stormarknad Karlskoga
  urn: urn:ica:store:id:3565
  city: Karlskoga
  latitude: 59.32834
  longitude: 14.5071

- location: ICA Nära Tommys Livs
  urn: urn:ica:store:id:2250
  city: Alvesta
  latitude: 56.646
  longitude: 14.50883

- location: ICA Supermarket Karlsborg
  urn: urn:ica:store:id:1993
  city: Karlsborg
  latitude: 58.52994
  longitude: 14.51136

- location: ICA Hallen, Hällefors
  urn: urn:ica:store:id:1053
  city: Hällefors
  latitude: 59.78371
  longitude: 14.52133

- location: ICA Nära Siljan
  urn: urn:ica:store:id:636
  city: Mora
  latitude: 60.9919
  longitude: 14.52145

- location: ICA Jouren, Hällefors
  urn: urn:ica:store:id:1054
  city: Hällefors
  latitude: 59.77653
  longitude: 14.52442

- location: ICA Nära Träffen, Jämshög
  urn: urn:ica:store:id:2436
  city: Olofström
  latitude: 56.24
  longitude: 14.53141

- location: ICA Supermarket Mora
  urn: urn:ica:store:id:635
  city: Mora
  latitude: 61.00508
  longitude: 14.53809

- location: Maxi ICA Stormarknad Olofström
  urn: urn:ica:store:id:2432
  city: Olofström
  latitude: 56.27497
  longitude: 14.54369

- location: ICA Nära Handelsboden,Grimslöv
  urn: urn:ica:store:id:2248
  city: Alvesta
  latitude: 56.73744
  longitude: 14.54452

- location: ICA Supermarket Alvesta
  urn: urn:ica:store:id:2244
  city: Alvesta
  latitude: 56.90051
  longitude: 14.55293

- location: Kronhallen ICA Supermarket Karlskoga
  urn: urn:ica:store:id:1116
  city: Karlskoga
  latitude: 59.32969
  longitude: 14.56353

- location: ICA Supermarket Vallhalla
  urn: urn:ica:store:id:574
  city: Östersund
  latitude: 63.16907
  longitude: 14.56626

- location: ICA Supermarket Grytan, Moheda
  urn: urn:ica:store:id:2246
  city: Alvesta
  latitude: 57.00234
  longitude: 14.57279

- location: ICA Nära Fåker
  urn: urn:ica:store:id:560
  city: Östersund
  latitude: 62.99123
  longitude: 14.57555

- location: ICA Supermarket Sölvesborg
  urn: urn:ica:store:id:2492
  city: Sölvesborg
  latitude: 56.05104
  longitude: 14.58288

- location: ICA Supermarket Lammhult
  urn: urn:ica:store:id:2283
  city: Växjö
  latitude: 57.1689
  longitude: 14.58668

- location: Maxi ICA Stormarknad Mora
  urn: urn:ica:store:id:13019
  city: Mora
  latitude: 61.00578
  longitude: 14.59665

- location: ICA Nära Frösön
  urn: urn:ica:store:id:572
  city: Östersund
  latitude: 63.17296
  longitude: 14.60046

- location: ICA Nära Ströbergs Lanth.Torne
  urn: urn:ica:store:id:2242
  city: Alvesta
  latitude: 56.69121
  longitude: 14.60432

- location: ICA Supermarket Laxå
  urn: urn:ica:store:id:1038
  city: Laxå
  latitude: 58.98595
  longitude: 14.62064

- location: ICA Supermarket Orsahallen
  urn: urn:ica:store:id:2977
  city: Orsa
  latitude: 61.11748
  longitude: 14.62746

- location: ICA Supermarket Traktören
  urn: urn:ica:store:id:571
  city: Östersund
  latitude: 63.17854
  longitude: 14.63816

- location: ICA Supermarket Matmästaren
  urn: urn:ica:store:id:566
  city: Östersund
  latitude: 63.17944
  longitude: 14.65

- location: Maxi ICA Stormarknad Östersund
  urn: urn:ica:store:id:13422
  city: Östersund
  latitude: 63.18942
  longitude: 14.65024

- location: ICA Supermarket Ödeshög
  urn: urn:ica:store:id:2101
  city: Ödeshög
  latitude: 58.22894
  longitude: 14.65273

- location: ICA Nära Blå Center
  urn: urn:ica:store:id:564
  city: Östersund
  latitude: 63.16988
  longitude: 14.66291

- location: ICA Nära Klingan
  urn: urn:ica:store:id:2396
  city: Sävsjö
  latitude: 57.40218
  longitude: 14.66478

- location: ICA Supermarket Odenhallen
  urn: urn:ica:store:id:561
  city: Östersund
  latitude: 63.15563
  longitude: 14.68444

- location: ICA Träffen, Mullhyttan
  urn: urn:ica:store:id:1089
  city: Lekeberg
  latitude: 59.15255
  longitude: 14.68703

- location: ICA Kvantum Östersund
  urn: urn:ica:store:id:14900
  city: Östersund
  latitude: 63.1722
  longitude: 14.6901

- location: ICA Nära Ryd
  urn: urn:ica:store:id:2234
  city: Tingsryd
  latitude: 56.46261
  longitude: 14.69576

- location: ICA Kvantum Nässjö
  urn: urn:ica:store:id:2374
  city: Nässjö
  latitude: 57.64941
  longitude: 14.70181

- location: ICA Nära Laxen
  urn: urn:ica:store:id:2490
  city: Karlshamn
  latitude: 56.19224
  longitude: 14.74658

- location: Maxi ICA Stormarknad Växjö
  urn: urn:ica:store:id:2272
  city: Växjö
  latitude: 56.8833
  longitude: 14.7658

- location: ICA Nära Dala Floda
  urn: urn:ica:store:id:608
  city: Gagnef
  latitude: 60.5056
  longitude: 14.79391

- location: ICA Supermarket Hovshaga
  urn: urn:ica:store:id:2268
  city: Växjö
  latitude: 56.90931
  longitude: 14.79609

- location: ICA Supermarket Dalbo
  urn: urn:ica:store:id:2266
  city: Växjö
  latitude: 56.89009
  longitude: 14.79761

- location: ICA Supermarket Cityhallen Växjö
  urn: urn:ica:store:id:2264
  city: Växjö
  latitude: 56.87793
  longitude: 14.80709

- location: ICA Supermarket Aneby
  urn: urn:ica:store:id:2339
  city: Aneby
  latitude: 57.8378
  longitude: 14.81067

- location: ICA Supermarket Teleborg
  urn: urn:ica:store:id:2274
  city: Växjö
  latitude: 56.85217
  longitude: 14.81744

- location: ICA Supermarket Brunflo
  urn: urn:ica:store:id:582
  city: Östersund
  latitude: 63.08093
  longitude: 14.82447

- location: ICA Kvantum Växjö
  urn: urn:ica:store:id:10907
  city: Växjö
  latitude: 56.90195
  longitude: 14.83039

- location: ICA Kvantum Karlshamn
  urn: urn:ica:store:id:13404
  city: Karlshamn
  latitude: 56.19467
  longitude: 14.84272

- location: ICA Nära Litshallen
  urn: urn:ica:store:id:13324
  city: Östersund
  latitude: 63.31735
  longitude: 14.84592

- location: ICA Nära Gripenberg
  urn: urn:ica:store:id:2209
  city: Tranås
  latitude: 57.99257
  longitude: 14.8532

- location: Sojas
  urn: urn:ica:store:id:1045
  city: Hallsberg
  latitude: 59.02207
  longitude: 14.86637

- location: ICA Nära Lekeberg
  urn: urn:ica:store:id:1079
  city: Lekeberg
  latitude: 59.17303
  longitude: 14.86914

- location: ICA Supermarket Rottne
  urn: urn:ica:store:id:2282
  city: Växjö
  latitude: 57.02352
  longitude: 14.89212

- location: Häggenås Livs
  urn: urn:ica:store:id:586
  city: Östersund
  latitude: 63.38899
  longitude: 14.89489

- location: ICA Nära Brobyhallen
  urn: urn:ica:store:id:12575
  city: Vetlanda
  latitude: 57.36956
  longitude: 14.90041

- location: ICA Torghallen, Askersund
  urn: urn:ica:store:id:1105
  city: Askersund
  latitude: 58.87958
  longitude: 14.90291

- location: ICA Jouren, Askersund
  urn: urn:ica:store:id:1104
  city: Askersund
  latitude: 58.88456
  longitude: 14.90597

- location: ICA Supermarket Ingelstad
  urn: urn:ica:store:id:2278
  city: Växjö
  latitude: 56.74587
  longitude: 14.91827

- location: ICA Nära Väckelsång
  urn: urn:ica:store:id:2239
  city: Tingsryd
  latitude: 56.63993
  longitude: 14.91923

- location: ICA Nära Marcus, Väderstad
  urn: urn:ica:store:id:10766
  city: Mjölby
  latitude: 58.31232
  longitude: 14.9238

- location: ICA Nära Ytterhogdal
  urn: urn:ica:store:id:558
  city: Härjedalen
  latitude: 62.17407
  longitude: 14.9422

- location: ICA Nära Puttes Lanthandel
  urn: urn:ica:store:id:2408
  city: Vetlanda
  latitude: 57.20414
  longitude: 14.95113

- location: ICA Nära Vintrosa
  urn: urn:ica:store:id:1077
  city: Örebro
  latitude: 59.25384
  longitude: 14.95634

- location: ICA Nära Mockfjärd
  urn: urn:ica:store:id:14942
  city: Gagnef
  latitude: 60.49751
  longitude: 14.96272

- location: ICA Supermarket Tingsryd
  urn: urn:ica:store:id:2230
  city: Tingsryd
  latitude: 56.52551
  longitude: 14.97268

- location: ICA Nära Axéns Lanthandel
  urn: urn:ica:store:id:1033
  city: Motala
  latitude: 58.62285
  longitude: 14.97397

- location: ICA Kvantum Tranås
  urn: urn:ica:store:id:2210
  city: Tranås
  latitude: 58.03369
  longitude: 14.97629

- location: ICA Supermarket Eksjö
  urn: urn:ica:store:id:2424
  city: Eksjö
  latitude: 57.66562
  longitude: 14.9763

- location: ICA Nära Grangärde
  urn: urn:ica:store:id:696
  city: Ludvika
  latitude: 60.26462
  longitude: 14.97966

- location: ICA Supermarket Kopparhallen
  urn: urn:ica:store:id:1059
  city: Ljusnarsberg
  latitude: 59.87519
  longitude: 14.99634

- location: ICA Supermarket Mårtas
  urn: urn:ica:store:id:610
  city: Leksand
  latitude: 60.73194
  longitude: 14.9966

- location: Gruvhallen Livs
  urn: urn:ica:store:id:688
  city: Ludvika
  latitude: 60.07756
  longitude: 15.00436

- location: Borgafjällens Lanthandel
  urn: urn:ica:store:id:271
  city: Dorotea
  latitude: 64.83686
  longitude: 15.01546

- location: ICA Supermarket Nora
  urn: urn:ica:store:id:14661
  city: Nora
  latitude: 59.51129
  longitude: 15.02236

- location: ICA Nära Soltunet
  urn: urn:ica:store:id:1121
  city: Nora
  latitude: 59.52723
  longitude: 15.02803

- location: Maxi ICA Stormarknad Motala
  urn: urn:ica:store:id:3550
  city: Motala
  latitude: 58.5568
  longitude: 15.03479

- location: Varuhuset Rönneshytta
  urn: urn:ica:store:id:1109
  city: Askersund
  latitude: 58.92361
  longitude: 15.04165

- location: ICA Nära Braås
  urn: urn:ica:store:id:2275
  city: Växjö
  latitude: 57.06079
  longitude: 15.05134

- location: ICA Nära Boxholm
  urn: urn:ica:store:id:2111
  city: Boxholm
  latitude: 58.19701
  longitude: 15.05428

- location: ICA Supermarket Charlottenborg
  urn: urn:ica:store:id:2187
  city: Motala
  latitude: 58.53909
  longitude: 15.06644

- location: ICA Nära Helges, Vetlanda
  urn: urn:ica:store:id:2402
  city: Vetlanda
  latitude: 57.42937
  longitude: 15.06804

- location: ICA Nära Gagnefhallen
  urn: urn:ica:store:id:603
  city: Gagnef
  latitude: 60.59816
  longitude: 15.08084

- location: ICA Nära Insjön
  urn: urn:ica:store:id:612
  city: Leksand
  latitude: 60.67661
  longitude: 15.09339

- location: Maxi ICA Stormarknad Vetlanda
  urn: urn:ica:store:id:8908
  city: Vetlanda
  latitude: 57.42631
  longitude: 15.09417

- location: ICA Supermarket Trivselköp
  urn: urn:ica:store:id:1128
  city: Lindesberg
  latitude: 59.69941
  longitude: 15.09785

- location: Fjällboden, Hemavan
  urn: urn:ica:store:id:253
  city: Storuman
  latitude: 65.799
  longitude: 15.10226

- location: ICA Supermarket Allé
  urn: urn:ica:store:id:1043
  city: Hallsberg
  latitude: 59.06543
  longitude: 15.109

- location: ICA Nära Bräkne-Hoby
  urn: urn:ica:store:id:8924
  city: Ronneby
  latitude: 56.22529
  longitude: 15.11593

- location: ICA Supermarket Fiolen
  urn: urn:ica:store:id:615
  city: Rättvik
  latitude: 60.88414
  longitude: 15.1186

- location: ICA Nära Korsberga
  urn: urn:ica:store:id:2409
  city: Vetlanda
  latitude: 57.30319
  longitude: 15.12542

- location: ICA Supermarket Mjölby
  urn: urn:ica:store:id:9580
  city: Mjölby
  latitude: 58.32381
  longitude: 15.12962

- location: ICA Supermarket Hovmantorp
  urn: urn:ica:store:id:2949
  city: Lessebo
  latitude: 56.78767
  longitude: 15.13163

- location: ICA Nära Näcken
  urn: urn:ica:store:id:619
  city: Rättvik
  latitude: 61.1698
  longitude: 15.13256

- location: ICA Supermarket Djurås
  urn: urn:ica:store:id:606
  city: Gagnef
  latitude: 60.56041
  longitude: 15.13489

- location: ICA Nära Profilen
  urn: urn:ica:store:id:1099
  city: Kumla
  latitude: 59.12668
  longitude: 15.13613

- location: Maxi ICA Stormarknad Kumla
  urn: urn:ica:store:id:1100
  city: Kumla
  latitude: 59.1269
  longitude: 15.14292

- location: ICA Nära Träffpunkten
  urn: urn:ica:store:id:2471
  city: Ronneby
  latitude: 56.34567
  longitude: 15.15063

- location: Bodsjö Diverse
  urn: urn:ica:store:id:473
  city: Bräcke
  latitude: 62.73062
  longitude: 15.15249

- location: ICA Nära Norrhult
  urn: urn:ica:store:id:2226
  city: Uppvidinge
  latitude: 57.12918
  longitude: 15.15509

- location: ICA Nickeln
  urn: urn:ica:store:id:8898
  city: Ljusdal
  latitude: 61.74513
  longitude: 15.15654

- location: ICA Supermarket Haga Centrum
  urn: urn:ica:store:id:1071
  city: Örebro
  latitude: 59.27515
  longitude: 15.16311

- location: ICA Supermarket Parken
  urn: urn:ica:store:id:1066
  city: Örebro
  latitude: 59.24738
  longitude: 15.16589

- location: Eko-hallen
  urn: urn:ica:store:id:1092
  city: Örebro
  latitude: 59.2929
  longitude: 15.16923

- location: ICA Supermarket MatMagasinet
  urn: urn:ica:store:id:8907
  city: Ludvika
  latitude: 60.13077
  longitude: 15.17423

- location: ICA Matmäster, Ludvika
  urn: urn:ica:store:id:690
  city: Ludvika
  latitude: 60.15082
  longitude: 15.20211

- location: Maxi ICA Stormarknad Örebro
  urn: urn:ica:store:id:1093
  city: Örebro
  latitude: 59.29768
  longitude: 15.20435

- location: ICA Supermarket Ekershallen
  urn: urn:ica:store:id:1061
  city: Örebro
  latitude: 59.27664
  longitude: 15.2053

- location: ICA Supermarket City, Örebro
  urn: urn:ica:store:id:1065
  city: Örebro
  latitude: 59.26902
  longitude: 15.20976

- location: ICA Supermarket Lindesberg
  urn: urn:ica:store:id:1123
  city: Lindesberg
  latitude: 59.5943
  longitude: 15.22207

- location: ICA Nära Oskarstorget
  urn: urn:ica:store:id:1063
  city: Örebro
  latitude: 59.26985
  longitude: 15.22511

- location: ICA Nära Längbrotorg
  urn: urn:ica:store:id:1068
  city: Örebro
  latitude: 59.28238
  longitude: 15.22658

- location: Maxi ICA Stormarknad Universitetet
  urn: urn:ica:store:id:15088
  city: Örebro
  latitude: 59.2519
  longitude: 15.2293

- location: ICA Nära Fornåsa
  urn: urn:ica:store:id:2194
  city: Motala
  latitude: 58.4786
  longitude: 15.23029

- location: ICA Nära Gällö
  urn: urn:ica:store:id:472
  city: Bräcke
  latitude: 62.91584
  longitude: 15.23458

- location: Östermalms livs
  urn: urn:ica:store:id:1125
  city: Lindesberg
  latitude: 59.60081
  longitude: 15.23742

- location: Sikås Livs
  urn: urn:ica:store:id:501
  city: Strömsund
  latitude: 63.62619
  longitude: 15.24237

- location: ICA Supermarket Lessebo
  urn: urn:ica:store:id:2229
  city: Lessebo
  latitude: 56.75069
  longitude: 15.27029

- location: Maxi ICA Stormarknad Ronneby
  urn: urn:ica:store:id:2467
  city: Ronneby
  latitude: 56.21462
  longitude: 15.27165

- location: ICA Supermarket Borensberg
  urn: urn:ica:store:id:15838
  city: Motala
  latitude: 58.56283
  longitude: 15.27786

- location: ICA Nära Lenhovda
  urn: urn:ica:store:id:10509
  city: Uppvidinge
  latitude: 56.9946
  longitude: 15.28862

- location: ICA Nära Pålsboda
  urn: urn:ica:store:id:1042
  city: Hallsberg
  latitude: 59.0642
  longitude: 15.33734

- location: ICA Nära Lundbergs
  urn: urn:ica:store:id:10811
  city: Eksjö
  latitude: 57.62893
  longitude: 15.34323

- location: ICA Nära Åseda
  urn: urn:ica:store:id:14791
  city: Uppvidinge
  latitude: 57.17224
  longitude: 15.34437

- location: ICA Nära Tjällmo handel
  urn: urn:ica:store:id:1036
  city: Motala
  latitude: 58.7134
  longitude: 15.35225

- location: ICA Nära Hammerdal
  urn: urn:ica:store:id:500
  city: Strömsund
  latitude: 63.58594
  longitude: 15.35361

- location: ICA Supermarket Näsbyhallen
  urn: urn:ica:store:id:1129
  city: Lindesberg
  latitude: 59.46675
  longitude: 15.36002

- location: ICA Nära Sellnäs
  urn: urn:ica:store:id:666
  city: Borlänge
  latitude: 60.40609
  longitude: 15.38251

- location: ICA Nära Glansen
  urn: urn:ica:store:id:1091
  city: Örebro
  latitude: 59.31746
  longitude: 15.39845

- location: ICA Supermarket Smedjebacken
  urn: urn:ica:store:id:629
  city: Smedjebacken
  latitude: 60.14118
  longitude: 15.41193

- location: ICA Nära Johannishus
  urn: urn:ica:store:id:2475
  city: Ronneby
  latitude: 56.22099
  longitude: 15.41227

- location: ICA Nära Trumpeten
  urn: urn:ica:store:id:661
  city: Borlänge
  latitude: 60.50272
  longitude: 15.41337

- location: ICA Supermarket Kvarnen, Borlänge
  urn: urn:ica:store:id:657
  city: Borlänge
  latitude: 60.51673
  longitude: 15.41482

- location: ICA Supermarket Kupolen
  urn: urn:ica:store:id:658
  city: Borlänge
  latitude: 60.48455
  longitude: 15.41788

- location: ICA Supermarket Bräcke
  urn: urn:ica:store:id:467
  city: Bräcke
  latitude: 62.74865
  longitude: 15.42166

- location: ICA Supermarket Vikingstad
  urn: urn:ica:store:id:2144
  city: Linköping
  latitude: 58.38242
  longitude: 15.43152

- location: Maxi ICA Stormarknad Borlänge
  urn: urn:ica:store:id:11509
  city: Borlänge
  latitude: 60.48246
  longitude: 15.44982

- location: ICA Nära Domnarvet
  urn: urn:ica:store:id:656
  city: Borlänge
  latitude: 60.50029
  longitude: 15.45782

- location: ICA Nära Stora Mellösa
  urn: urn:ica:store:id:1087
  city: Örebro
  latitude: 59.21188
  longitude: 15.50039

- location: ICA Nära Ljungsbro
  urn: urn:ica:store:id:2145
  city: Linköping
  latitude: 58.49295
  longitude: 15.50617

- location: ICA Supermarket Malmslätt
  urn: urn:ica:store:id:2138
  city: Linköping
  latitude: 58.4139
  longitude: 15.52031

- location: Odenhallen, Odensbacken
  urn: urn:ica:store:id:3516
  city: Örebro
  latitude: 59.15504
  longitude: 15.52713

- location: ICA Nära Vretahallen
  urn: urn:ica:store:id:2146
  city: Linköping
  latitude: 58.48778
  longitude: 15.53323

- location: ICA Nära Ornäs
  urn: urn:ica:store:id:669
  city: Borlänge
  latitude: 60.5071
  longitude: 15.53435

- location: ICA Nära Nättran
  urn: urn:ica:store:id:2455
  city: Karlskrona
  latitude: 56.19944
  longitude: 15.53585

- location: ICA Supermarket Emmaboda
  urn: urn:ica:store:id:2582
  city: Emmaboda
  latitude: 56.63006
  longitude: 15.53666

- location: ICA Nära Drottningskär
  urn: urn:ica:store:id:2439
  city: Karlskrona
  latitude: 56.11307
  longitude: 15.55793

- location: ICA Supermarket Simonsons
  urn: urn:ica:store:id:496
  city: Strömsund
  latitude: 63.85232
  longitude: 15.56015

- location: ICA Nära Solbacken
  urn: urn:ica:store:id:497
  city: Strömsund
  latitude: 63.85931
  longitude: 15.56672

- location: ICA Nära Lindås
  urn: urn:ica:store:id:2583
  city: Emmaboda
  latitude: 56.61686
  longitude: 15.56838

- location: ICA Nära Bärkehallen
  urn: urn:ica:store:id:630
  city: Smedjebacken
  latitude: 60.07369
  longitude: 15.57331

- location: ICA Nära Krysset, Virserum
  urn: urn:ica:store:id:2570
  city: Hultsfred
  latitude: 57.32042
  longitude: 15.57564

- location: ICA Nära Mathörnan, Mariannelund
  urn: urn:ica:store:id:9597
  city: Eksjö
  latitude: 57.6155
  longitude: 15.57735

- location: ICA Supermarket Cityhallen Karlskrona
  urn: urn:ica:store:id:2442
  city: Karlskrona
  latitude: 56.16119
  longitude: 15.5825

- location: ICA Nära Vissefjärda
  urn: urn:ica:store:id:2584
  city: Emmaboda
  latitude: 56.53531
  longitude: 15.58615

- location: ICA Nära Gustafs
  urn: urn:ica:store:id:674
  city: Säter
  latitude: 60.41414
  longitude: 15.59175

- location: Maxi ICA Stormarknad Linköping
  urn: urn:ica:store:id:8900
  city: Linköping
  latitude: 58.43435
  longitude: 15.59279

- location: ICA Supermarket Slätta
  urn: urn:ica:store:id:648
  city: Falun
  latitude: 60.62076
  longitude: 15.5975

- location: ICA Nära Stugun
  urn: urn:ica:store:id:465
  city: Ragunda
  latitude: 63.16548
  longitude: 15.59989

- location: ICA Nära Skolgatan, Linköping
  urn: urn:ica:store:id:2126
  city: Linköping
  latitude: 58.41329
  longitude: 15.60226

- location: ICA Nära Vasavägen, Linköping
  urn: urn:ica:store:id:2127
  city: Linköping
  latitude: 58.41507
  longitude: 15.60954

- location: ICA Nära Matbiten
  urn: urn:ica:store:id:2129
  city: Linköping
  latitude: 58.40637
  longitude: 15.61689

- location: ICA Supermarket Rödeby Allivs
  urn: urn:ica:store:id:2456
  city: Karlskrona
  latitude: 56.26253
  longitude: 15.61898

- location: ICA Supermarket Britsarvet
  urn: urn:ica:store:id:8916
  city: Falun
  latitude: 60.61978
  longitude: 15.62225

- location: ICA Supermarket Falan
  urn: urn:ica:store:id:645
  city: Falun
  latitude: 60.60615
  longitude: 15.62925

- location: ICA Supermarket Kisa
  urn: urn:ica:store:id:2104
  city: Kinda
  latitude: 57.98792
  longitude: 15.63212

- location: Maxi ICA Stormarknad Karlskrona
  urn: urn:ica:store:id:8917
  city: Karlskrona
  latitude: 56.19597
  longitude: 15.64119

- location: ICA Supermarket Tannefors
  urn: urn:ica:store:id:9701
  city: Linköping
  latitude: 58.40591
  longitude: 15.64202

- location: ICA Supermarket Berga Centrum, Lkg
  urn: urn:ica:store:id:2151
  city: Linköping
  latitude: 58.39233
  longitude: 15.64308

- location: ICA Nära Skillingen, Linköping
  urn: urn:ica:store:id:2153
  city: Linköping
  latitude: 58.38312
  longitude: 15.65259

- location: ICA Nära Lunden
  urn: urn:ica:store:id:2448
  city: Karlskrona
  latitude: 56.21363
  longitude: 15.65575

- location: ICA Nära Alsterhallen
  urn: urn:ica:store:id:2227
  city: Uppvidinge
  latitude: 56.97516
  longitude: 15.65613

- location: Maxi ICA Stormarknad Falun
  urn: urn:ica:store:id:12310
  city: Falun
  latitude: 60.60599
  longitude: 15.65852

- location: ICA Nära Sturköhallen
  urn: urn:ica:store:id:2459
  city: Karlskrona
  latitude: 56.11321
  longitude: 15.6604

- location: ICA Supermarket Johannelund
  urn: urn:ica:store:id:2154
  city: Linköping
  latitude: 58.39567
  longitude: 15.66146

- location: ICA Supermarket Ånge
  urn: urn:ica:store:id:468
  city: Ånge
  latitude: 62.52468
  longitude: 15.6739

- location: Lungers handel
  urn: urn:ica:store:id:1136
  city: Arboga
  latitude: 59.32103
  longitude: 15.67651

- location: ICA Signalen, Linköping
  urn: urn:ica:store:id:2137
  city: Linköping
  latitude: 58.38069
  longitude: 15.67974

- location: ICA Nära Kinda Motell
  urn: urn:ica:store:id:2110
  city: Kinda
  latitude: 58.13792
  longitude: 15.67984

- location: ICA Supermarket Rimforsa
  urn: urn:ica:store:id:2109
  city: Kinda
  latitude: 58.13659
  longitude: 15.68568

- location: ICA Nära Berghallen
  urn: urn:ica:store:id:953
  city: Skinnskatteberg
  latitude: 59.83201
  longitude: 15.69327

- location: ICA Nära Flamman, Linköping
  urn: urn:ica:store:id:2136
  city: Linköping
  latitude: 58.37473
  longitude: 15.70982

- location: ICA Nära Sturefors
  urn: urn:ica:store:id:2139
  city: Linköping
  latitude: 58.33392
  longitude: 15.72409

- location: ICA Nära Bestorp
  urn: urn:ica:store:id:2140
  city: Linköping
  latitude: 58.22996
  longitude: 15.73284

- location: ICA Nära Senoren
  urn: urn:ica:store:id:2458
  city: Karlskrona
  latitude: 56.12724
  longitude: 15.73932

- location: ICA Supermarket Säter
  urn: urn:ica:store:id:671
  city: Säter
  latitude: 60.34718
  longitude: 15.75071

- location: ICA Nära Cityhallen, Finspång
  urn: urn:ica:store:id:2118
  city: Finspång
  latitude: 58.70758
  longitude: 15.77505

- location: ICA Supermarket Himnahallen
  urn: urn:ica:store:id:2125
  city: Linköping
  latitude: 58.42971
  longitude: 15.77973

- location: ICA Supermarket Fagersta
  urn: urn:ica:store:id:1011
  city: Fagersta
  latitude: 60.00408
  longitude: 15.79139

- location: ICA Nära Södra Vi
  urn: urn:ica:store:id:2625
  city: Vimmerby
  latitude: 57.73961
  longitude: 15.79614

- location: ICA Supermarket Hårstorp, Finspång
  urn: urn:ica:store:id:10223
  city: Finspång
  latitude: 58.70271
  longitude: 15.81114

- location: ICA Supermarket Fontänen
  urn: urn:ica:store:id:1012
  city: Fagersta
  latitude: 59.98939
  longitude: 15.8157

- location: ICA Supermarket Edsbyn
  urn: urn:ica:store:id:698
  city: Ovanåker
  latitude: 61.3763
  longitude: 15.81731

- location: ICA Nära Vilstahallen
  urn: urn:ica:store:id:1025
  city: Arboga
  latitude: 59.39384
  longitude: 15.83215

- location: ICA Nära Rotebergs handel
  urn: urn:ica:store:id:701
  city: Ovanåker
  latitude: 61.39573
  longitude: 15.83226

- location: ICA Nära Vahlströms Horn
  urn: urn:ica:store:id:2105
  city: Kinda
  latitude: 57.90353
  longitude: 15.83472

- location: ICA Nära Torhallen
  urn: urn:ica:store:id:2464
  city: Karlskrona
  latitude: 56.09494
  longitude: 15.83694

- location: ICA Supermarket Jämjö
  urn: urn:ica:store:id:2450
  city: Karlskrona
  latitude: 56.19136
  longitude: 15.83975

- location: ICA Supermarket Arboga
  urn: urn:ica:store:id:13629
  city: Arboga
  latitude: 59.39548
  longitude: 15.83976

- location: ICA Supermarket Asplunds
  urn: urn:ica:store:id:1022
  city: Arboga
  latitude: 59.38524
  longitude: 15.84202

- location: ICA Nära Storebro
  urn: urn:ica:store:id:2620
  city: Vimmerby
  latitude: 57.5854
  longitude: 15.8442

- location: ICA Supermarket Kolsva handel
  urn: urn:ica:store:id:1017
  city: Köping
  latitude: 59.59811
  longitude: 15.84562

- location: ICA Supermarket Färila
  urn: urn:ica:store:id:387
  city: Ljusdal
  latitude: 61.79972
  longitude: 15.84613

- location: ICA Kvantum Vimmerby
  urn: urn:ica:store:id:2621
  city: Vimmerby
  latitude: 57.66867
  longitude: 15.85146

- location: ICA Nära Hultsfred
  urn: urn:ica:store:id:9582
  city: Hultsfred
  latitude: 57.49753
  longitude: 15.85358

- location: ICA Supermarket Vimmerby
  urn: urn:ica:store:id:10516
  city: Vimmerby
  latitude: 57.66409
  longitude: 15.85504

- location: ICA Nära Sundbergs, Mörlunda
  urn: urn:ica:store:id:2573
  city: Hultsfred
  latitude: 57.32164
  longitude: 15.86628

- location: ICA Supermarket Cityhallen
  urn: urn:ica:store:id:1026
  city: Vingåker
  latitude: 59.04339
  longitude: 15.87345

- location: ICA Kvantum Nybro
  urn: urn:ica:store:id:9715
  city: Nybro
  latitude: 56.7425
  longitude: 15.90244

- location: ICA Träffen, Kyrktåsjö
  urn: urn:ica:store:id:492
  city: Strömsund
  latitude: 64.22354
  longitude: 15.90343

- location: ICA Supermarket Svärdsjö
  urn: urn:ica:store:id:653
  city: Falun
  latitude: 60.73949
  longitude: 15.90375

- location: ICA Supermarket Skärblacka
  urn: urn:ica:store:id:2176
  city: Norrköping
  latitude: 58.5778
  longitude: 15.92253

- location: ICA Nära Påryd
  urn: urn:ica:store:id:2598
  city: Kalmar
  latitude: 56.56753
  longitude: 15.9241

- location: ICA Supermarket Norberg
  urn: urn:ica:store:id:968
  city: Norberg
  latitude: 60.06389
  longitude: 15.92452

- location: ICA Nära Viksjöfors handel
  urn: urn:ica:store:id:702
  city: Ovanåker
  latitude: 61.33743
  longitude: 15.95183

- location: ICA Supermarket Köping
  urn: urn:ica:store:id:1016
  city: Köping
  latitude: 59.51164
  longitude: 15.96908

- location: Maxi ICA Stormarknad Köping
  urn: urn:ica:store:id:1014
  city: Köping
  latitude: 59.52022
  longitude: 15.97329

- location: ICA Nära Brasken
  urn: urn:ica:store:id:14944
  city: Norrköping
  latitude: 58.50721
  longitude: 15.97631

- location: ICA Supermarket Hedemora
  urn: urn:ica:store:id:9897
  city: Hedemora
  latitude: 60.282
  longitude: 15.99417

- location: ICA Supermarket Åtvidaberg
  urn: urn:ica:store:id:2113
  city: Åtvidaberg
  latitude: 58.20085
  longitude: 15.99867

- location: ICA Supermarket Torsås
  urn: urn:ica:store:id:2553
  city: Torsås
  latitude: 56.41216
  longitude: 16.00159

- location: ICA Nära Frödinge
  urn: urn:ica:store:id:2623
  city: Vimmerby
  latitude: 57.69699
  longitude: 16.00409

- location: ICA Nära Ormsjödalen
  urn: urn:ica:store:id:9255
  city: Dorotea
  latitude: 64.41493
  longitude: 16.0179

- location: ICA Nära Rosendal
  urn: urn:ica:store:id:16183
  city: Uppsala
  latitude: 66.36167
  longitude: 16.02564

- location: ICA Nära Matmästarn, Högsby
  urn: urn:ica:store:id:2548
  city: Högsby
  latitude: 57.16644
  longitude: 16.0258

- location: ICA Supermarket Mathyttan
  urn: urn:ica:store:id:3570
  city: Hedemora
  latitude: 60.45014
  longitude: 16.03647

- location: ICA Nära Virsbo
  urn: urn:ica:store:id:956
  city: Surahammar
  latitude: 59.87524
  longitude: 16.05209

- location: ICA Nära Julitahallen
  urn: urn:ica:store:id:1030
  city: Katrineholm
  latitude: 59.14596
  longitude: 16.06313

- location: ICA Supermarket Alfta
  urn: urn:ica:store:id:704
  city: Ovanåker
  latitude: 61.34537
  longitude: 16.06441

- location: ICA Nära Möre Livs, Söderåkra
  urn: urn:ica:store:id:2554
  city: Torsås
  latitude: 56.44445
  longitude: 16.07167

- location: Kälarne Livs
  urn: urn:ica:store:id:470
  city: Bräcke
  latitude: 62.98189
  longitude: 16.08553

- location: Torghallen, Kungsör
  urn: urn:ica:store:id:964
  city: Kungsör
  latitude: 59.41942
  longitude: 16.1027

- location: ICA Supermarket Matpunkten
  urn: urn:ica:store:id:9418
  city: Ljusdal
  latitude: 61.82399
  longitude: 16.1081

- location: ICA Supermarket Åsen Ljusdal
  urn: urn:ica:store:id:383
  city: Ljusdal
  latitude: 61.82946
  longitude: 16.11396

- location: ICA Nära Stora Sundby
  urn: urn:ica:store:id:937
  city: Eskilstuna
  latitude: 59.27834
  longitude: 16.11882

- location: ICA Nära Trekanten
  urn: urn:ica:store:id:12846
  city: Kalmar
  latitude: 56.68813
  longitude: 16.13226

- location: ICA Kvantum Klockaretorpet
  urn: urn:ica:store:id:14717
  city: Norrköping
  latitude: 58.5821
  longitude: 16.14144

- location: ICA Supermarket Eneby
  urn: urn:ica:store:id:2168
  city: Norrköping
  latitude: 58.60358
  longitude: 16.14527

- location: Maxi ICA Stormarknad Norrköping
  urn: urn:ica:store:id:8927
  city: Norrköping
  latitude: 58.61821
  longitude: 16.15591

- location: ICA Nära Allans Livs
  urn: urn:ica:store:id:2587
  city: Kalmar
  latitude: 56.59464
  longitude: 16.15633

- location: ICA Nära Kneippen
  urn: urn:ica:store:id:2170
  city: Norrköping
  latitude: 58.58485
  longitude: 16.15986

- location: ICA Supermarket Järvsö
  urn: urn:ica:store:id:711
  city: Ljusdal
  latitude: 61.71534
  longitude: 16.16853

- location: ICA Supermarket Vilbergen
  urn: urn:ica:store:id:2171
  city: Norrköping
  latitude: 58.57116
  longitude: 16.17006

- location: ICA Nära Torpeden
  urn: urn:ica:store:id:409
  city: Ånge
  latitude: 62.49803
  longitude: 16.17373

- location: ICA Supermarket Stinsen
  urn: urn:ica:store:id:2591
  city: Kalmar
  latitude: 56.63515
  longitude: 16.17419

- location: ICA Kvantum Avesta
  urn: urn:ica:store:id:13713
  city: Avesta
  latitude: 60.1455
  longitude: 16.17492

- location: ICA Nära Strömmen, Norrköping
  urn: urn:ica:store:id:2167
  city: Norrköping
  latitude: 58.59089
  longitude: 16.17878

- location: ICA Supermarket Speceritjänst
  urn: urn:ica:store:id:1416
  city: Katrineholm
  latitude: 58.98855
  longitude: 16.18019

- location: ICA Supermarket Spiralen
  urn: urn:ica:store:id:2163
  city: Norrköping
  latitude: 58.58613
  longitude: 16.19047

- location: ICA Nära Ljura, Norrköping
  urn: urn:ica:store:id:2158
  city: Norrköping
  latitude: 58.58105
  longitude: 16.19667

- location: ICA Nära Hoting
  urn: urn:ica:store:id:510
  city: Strömsund
  latitude: 64.10703
  longitude: 16.20117

- location: ICA Kvantum Mirum Galleria, Norrköping
  urn: urn:ica:store:id:10204
  city: Norrköping
  latitude: 58.57256
  longitude: 16.20851

- location: ICA Nära Linnévägen Katrineholm
  urn: urn:ica:store:id:12985
  city: Katrineholm
  latitude: 58.99073
  longitude: 16.21097

- location: Maxi ICA Stormarknad Katrineholm
  urn: urn:ica:store:id:10735
  city: Katrineholm
  latitude: 59.00227
  longitude: 16.22557

- location: ICA Supermarket Matkassen
  urn: urn:ica:store:id:966
  city: Hallstahammar
  latitude: 59.615
  longitude: 16.22618

- location: ICA Supermarket Smedby, Norrköping
  urn: urn:ica:store:id:2173
  city: Norrköping
  latitude: 58.57073
  longitude: 16.22955

- location: ICA Supermarket Smedby, Kalmar
  urn: urn:ica:store:id:2592
  city: Kalmar
  latitude: 56.67665
  longitude: 16.24094

- location: ICA Nära Rinkabyholm
  urn: urn:ica:store:id:2594
  city: Kalmar
  latitude: 56.65234
  longitude: 16.25639

- location: ICA Nära Fliseryd
  urn: urn:ica:store:id:2577
  city: Mönsterås
  latitude: 57.1254
  longitude: 16.25919

- location: ICA Supermarket Hofors
  urn: urn:ica:store:id:750
  city: Hofors
  latitude: 60.54608
  longitude: 16.28432

- location: ICA Nära Lindsdal
  urn: urn:ica:store:id:2593
  city: Kalmar
  latitude: 56.73205
  longitude: 16.29257

- location: ICA Supermarket Lindsdal
  urn: urn:ica:store:id:2596
  city: Kalmar
  latitude: 56.73616
  longitude: 16.29476

- location: ICA Nära Fors
  urn: urn:ica:store:id:687
  city: Avesta
  latitude: 60.20409
  longitude: 16.30693

- location: ICA Nära Bron
  urn: urn:ica:store:id:932
  city: Eskilstuna
  latitude: 59.45095
  longitude: 16.32107

- location: ICA Supermarket Söderköping
  urn: urn:ica:store:id:13755
  city: Söderköping
  latitude: 58.47558
  longitude: 16.33128

- location: ICA Nära Rossön
  urn: urn:ica:store:id:508
  city: Strömsund
  latitude: 63.92226
  longitude: 16.33231

- location: Maxi ICA Stormarknad Kalmar
  urn: urn:ica:store:id:2597
  city: Kalmar
  latitude: 56.6697
  longitude: 16.33891

- location: ICA Supermarket Berga Centrum
  urn: urn:ica:store:id:2599
  city: Kalmar
  latitude: 56.69143
  longitude: 16.33936

- location: ICA Supermarket Södercentrum
  urn: urn:ica:store:id:2601
  city: Kalmar
  latitude: 56.66034
  longitude: 16.3397

- location: ICA Köplusten, Salbohed
  urn: urn:ica:store:id:1002
  city: Sala
  latitude: 59.91194
  longitude: 16.34721

- location: ICA Nära Rockneby
  urn: urn:ica:store:id:2600
  city: Kalmar
  latitude: 56.80304
  longitude: 16.35232

- location: ICA Supermarket Hammarn
  urn: urn:ica:store:id:459
  city: Ragunda
  latitude: 63.10847
  longitude: 16.35476

- location: ICA Nära Ukna Diversehandel
  urn: urn:ica:store:id:2220
  city: Västervik
  latitude: 58.0799
  longitude: 16.3552

- location: ICA Nära Delfinen
  urn: urn:ica:store:id:2179
  city: Norrköping
  latitude: 58.6667
  longitude: 16.36761

- location: ICA Nära Sjöberga Lanthandel
  urn: urn:ica:store:id:2117
  city: Åtvidaberg
  latitude: 58.19491
  longitude: 16.36769

- location: ICA Supermarket Arbrå
  urn: urn:ica:store:id:734
  city: Bollnäs
  latitude: 61.47508
  longitude: 16.37783

- location: ICA Nära Ålem
  urn: urn:ica:store:id:2580
  city: Mönsterås
  latitude: 56.95232
  longitude: 16.38147

- location: ICA Nära Skansen
  urn: urn:ica:store:id:14643
  city: Mörbylånga
  latitude: 56.52593
  longitude: 16.38435

- location: ICA Kvantum Bollnäs
  urn: urn:ica:store:id:9279
  city: Bollnäs
  latitude: 61.35384
  longitude: 16.38677

- location: ICA Supermarket Gamleby
  urn: urn:ica:store:id:2222
  city: Västervik
  latitude: 57.89725
  longitude: 16.40005

- location: ICA Supermarket Horndal
  urn: urn:ica:store:id:683
  city: Avesta
  latitude: 60.29015
  longitude: 16.40226

- location: ICA Nära Grönhögen
  urn: urn:ica:store:id:2560
  city: Mörbylånga
  latitude: 56.26577
  longitude: 16.40374

- location: ICA  Nära Backe
  urn: urn:ica:store:id:506
  city: Strömsund
  latitude: 63.81017
  longitude: 16.41138

- location: ICA Nära Dorohallen
  urn: urn:ica:store:id:272
  city: Dorotea
  latitude: 64.26187
  longitude: 16.41643

- location: ICA Nära Södra Möckleby
  urn: urn:ica:store:id:2559
  city: Mörbylånga
  latitude: 56.35534
  longitude: 16.4215

- location: ICA Nära Träffen
  urn: urn:ica:store:id:730
  city: Bollnäs
  latitude: 61.36096
  longitude: 16.4233

- location: ICA Supermarket Skultuna
  urn: urn:ica:store:id:991
  city: Västerås
  latitude: 59.72013
  longitude: 16.42771

- location: Maxi ICA Stormarknad Oskarshamn
  urn: urn:ica:store:id:9263
  city: Oskarshamn
  latitude: 57.26484
  longitude: 16.43045

- location: ICA Supermarket Algots Mönsterås
  urn: urn:ica:store:id:15007
  city: Mönsterås
  latitude: 57.02797
  longitude: 16.43997

- location: ICA Nära Södertorn
  urn: urn:ica:store:id:2611
  city: Oskarshamn
  latitude: 57.25556
  longitude: 16.44591

- location: Maxi ICA Stormarknad Erikslund
  urn: urn:ica:store:id:12304
  city: Västerås
  latitude: 59.61631
  longitude: 16.46445

- location: ICA Nära KåBe Hallen
  urn: urn:ica:store:id:2614
  city: Oskarshamn
  latitude: 57.2501
  longitude: 16.46663

- location: ICA Kvantum Färjestaden
  urn: urn:ica:store:id:2563
  city: Mörbylånga
  latitude: 56.65185
  longitude: 16.46996

- location: ICA Supermarket Bäckby
  urn: urn:ica:store:id:974
  city: Västerås
  latitude: 59.59937
  longitude: 16.47325

- location: ICA Tor Center
  urn: urn:ica:store:id:753
  city: Hofors
  latitude: 60.51236
  longitude: 16.47373

- location: ICA Supermarket Stenby
  urn: urn:ica:store:id:941
  city: Eskilstuna
  latitude: 59.35687
  longitude: 16.47473

- location: ICA Nära Ramsele
  urn: urn:ica:store:id:190
  city: Sollefteå
  latitude: 63.53493
  longitude: 16.47482

- location: ICA Supermarket Slagsta
  urn: urn:ica:store:id:938
  city: Eskilstuna
  latitude: 59.39328
  longitude: 16.49046

- location: ICA Nära Råby
  urn: urn:ica:store:id:10830
  city: Västerås
  latitude: 59.60988
  longitude: 16.4942

- location: ICA Nära Birgersson, Gusum
  urn: urn:ica:store:id:2121
  city: Valdemarsvik
  latitude: 58.26944
  longitude: 16.49767

- location: ICA Nära Fröslunda
  urn: urn:ica:store:id:935
  city: Eskilstuna
  latitude: 59.35532
  longitude: 16.49889

- location: ICA Nära Vallby
  urn: urn:ica:store:id:988
  city: Västerås
  latitude: 59.62251
  longitude: 16.50378

- location: ICA Supermarket Nyfors
  urn: urn:ica:store:id:942
  city: Eskilstuna
  latitude: 59.36846
  longitude: 16.5038

- location: ICA Supermarket Gillbergaplan
  urn: urn:ica:store:id:9610
  city: Eskilstuna
  latitude: 59.36198
  longitude: 16.50815

- location: ICA Supermarket Almérs
  urn: urn:ica:store:id:2562
  city: Mörbylånga
  latitude: 56.64973
  longitude: 16.51307

- location: ICA Nära Pettersberg
  urn: urn:ica:store:id:986
  city: Västerås
  latitude: 59.61707
  longitude: 16.51464

- location: ICA Supermarket Sjöhagen
  urn: urn:ica:store:id:983
  city: Västerås
  latitude: 59.59948
  longitude: 16.51641

- location: ICA Nära Safiren
  urn: urn:ica:store:id:950
  city: Eskilstuna
  latitude: 59.37262
  longitude: 16.52129

- location: ICA Nära Storvik
  urn: urn:ica:store:id:13262
  city: Sandviken
  latitude: 60.5832
  longitude: 16.5312

- location: Maxi ICA Stormarknad Eskilstuna
  urn: urn:ica:store:id:12688
  city: Eskilstuna
  latitude: 59.38887
  longitude: 16.53405

- location: ICA Nära Wiks
  urn: urn:ica:store:id:276
  city: Dorotea
  latitude: 64.2217
  longitude: 16.54422

- location: ICA Nära Edsele
  urn: urn:ica:store:id:188
  city: Sollefteå
  latitude: 63.40183
  longitude: 16.5445

- location: ICA Supermarket Grytan
  urn: urn:ica:store:id:10515
  city: Västerås
  latitude: 59.63698
  longitude: 16.54516

- location: ICA Steens
  urn: urn:ica:store:id:997
  city: Västerås
  latitude: 59.6249
  longitude: 16.54776

- location: ICA Nära Friggesund
  urn: urn:ica:store:id:14720
  city: Hudiksvall
  latitude: 61.89704
  longitude: 16.54897

- location: ICA Supermarket Skrapan
  urn: urn:ica:store:id:981
  city: Västerås
  latitude: 59.60923
  longitude: 16.54919

