meta:
  name: Jula
  web: https://www.jula.se/
  wikipedia: https://sv.wikipedia.org/wiki/Jula_(f%C3%B6retag)
  category: Järnfackhandelskedjor
  locations: 65

locations:
- location: Jula Tanum Shoppingcenter
  city: Tanumshede
  country: Sverige
  latitude: 58.721841
  longitude: 11.346302

- location: Jula Östra Torp
  city: Uddevalla
  country: Sverige
  latitude: 58.355563
  longitude: 11.821056

- location: Jula Töcksfors Shoppingcenter
  city: Töcksfors
  country: Sverige
  latitude: 59.506417
  longitude: 11.845191

- location: Jula Rollsbo
  city: Kungälv
  country: Sverige
  latitude: 57.880119
  longitude: 11.944635

- location: Jula Sisjön
  city: Göteborg
  country: Sverige
  latitude: 57.641889
  longitude: 11.949674

- location: Jula Backaplan
  city: Göteborg
  country: Sverige
  latitude: 57.726071
  longitude: 11.953769

- location: Jula Kållered
  city: Göteborg
  country: Sverige
  latitude: 57.601099
  longitude: 12.049212

- location: Jula iHede Handelscentrum
  city: Kungsbacka
  country: Sverige
  latitude: 57.511896
  longitude: 12.079328

- location: Jula Partille
  city: Göteborg
  country: Sverige
  latitude: 57.739371
  longitude: 12.131471

- location: Jula Jula i Lugnetrondellen
  city: Varberg
  country: Sverige
  latitude: 57.122178
  longitude: 12.269182

- location: Jula Charlottenbergs Shoppingcenter Nord
  city: Charlottenberg
  country: Sverige
  latitude: 59.885037
  longitude: 12.286672

- location: Jula Överby Köpcenter
  city: Trollhättan
  country: Sverige
  latitude: 58.314124
  longitude: 12.3057

- location: Jula Väla
  city: Helsingborg
  country: Sverige
  latitude: 56.092098
  longitude: 12.749806

- location: Jula Familia Hyllinge Storcentrum
  city: Hyllinge
  country: Sverige
  latitude: 56.098761
  longitude: 12.860861

- location: Jula Lundaskog
  city: Borås
  country: Sverige
  latitude: 57.713807
  longitude: 12.866077

- location: Jula Stenalyckan
  city: Halmstad
  country: Sverige
  latitude: 56.660387
  longitude: 12.908698

- location: Jula Galleria Center Syd
  city: Löddeköpinge
  country: Sverige
  latitude: 55.769413
  longitude: 12.988824

- location: Jula Svågertorp Handelsområde
  city: Malmö
  country: Sverige
  latitude: 55.550563
  longitude: 12.998439

- location: Jula Stora Bernstorp
  city: Malmö
  country: Sverige
  latitude: 55.613535
  longitude: 13.101861

- location: Jula Handelsplatsen Nova
  city: Lund
  country: Sverige
  latitude: 55.714918
  longitude: 13.153718

- location: Jula Flygstaden
  city: Eslöv
  country: Sverige
  latitude: 55.844042
  longitude: 13.327082

- location: Jula Julahuset
  city: Skara
  country: Sverige
  latitude: 58.391722
  longitude: 13.459664

- location: Jula &#197;lleberg Center
  city: Falköping
  country: Sverige
  latitude: 58.146614
  longitude: 13.561155

- location: Jula Välsviken
  city: Karlstad
  country: Sverige
  latitude: 59.395474
  longitude: 13.579447

- location: Jula Österås Centrum
  city: Hässleholm
  country: Sverige
  latitude: 56.149383
  longitude: 13.781667

- location: Jula Stallsiken
  city: Skövde
  country: Sverige
  latitude: 58.408923
  longitude: 13.879898

- location: Jula Härlöv
  city: Kristianstad
  country: Sverige
  latitude: 56.021095
  longitude: 14.114104

- location: Jula A6-center
  city: Jönköping
  country: Sverige
  latitude: 57.769625
  longitude: 14.202625

- location: Jula Norets handelsområde
  city: Mora
  country: Sverige
  latitude: 61.005357
  longitude: 14.602716

- location: Jula Lillänge Handelsområde
  city: Östersund
  country: Sverige
  latitude: 63.17318
  longitude: 14.691318

- location: Jula Handelsplats I11
  city: Växjö
  country: Sverige
  latitude: 56.876481
  longitude: 14.771427

- location: Jula Motala
  city: Motala
  country: Sverige
  latitude: 58.556654
  longitude: 15.036474

- location: Jula Marieberg Centrum
  city: Örebro
  country: Sverige
  latitude: 59.216828
  longitude: 15.139284

- location: Jula Norra Backa
  city: Borlänge
  country: Sverige
  latitude: 60.479998
  longitude: 15.419987

- location: Jula Tornby
  city: Linköping
  country: Sverige
  latitude: 58.435036
  longitude: 15.593811

- location: Jula Stadsträdgården i Vedeby
  city: Karlskrona
  country: Sverige
  latitude: 56.204562
  longitude: 15.639253

- location: Jula Ingelsta
  city: Norrköping
  country: Sverige
  latitude: 58.610094
  longitude: 16.162585

- location: Jula Dalahästens handelsområde
  city: Avesta
  country: Sverige
  latitude: 60.150041
  longitude: 16.204073

- location: Jula Hansa City
  city: Kalmar
  country: Sverige
  latitude: 56.683188
  longitude: 16.315825

- location: Jula Folkesta
  city: Eskilstuna
  country: Sverige
  latitude: 59.403833
  longitude: 16.421986

- location: Jula Erikslund
  city: Västerås
  country: Sverige
  latitude: 59.610014
  longitude: 16.461928

- location: Jula Ljunghedens handelsplats
  city: Västervik
  country: Sverige
  latitude: 57.768573
  longitude: 16.593213

- location: Jula Hälla
  city: Västerås
  country: Sverige
  latitude: 59.608117
  longitude: 16.609416

- location: Jula Gustavsbergs handelsplats
  city: Nyköping
  country: Sverige
  latitude: 58.770992
  longitude: 17.024596

- location: Jula Medskog
  city: Hudiksvall
  country: Sverige
  latitude: 61.716196
  longitude: 17.043137

- location: Jula Hemlingby
  city: Gävle
  country: Sverige
  latitude: 60.642214
  longitude: 17.143574

- location: Jula Östra Birsta
  city: Sundsvall
  country: Sverige
  latitude: 62.442085
  longitude: 17.349144

- location: Jula Moraberg köpcentrum
  city: Södertälje
  country: Sverige
  latitude: 59.201941
  longitude: 17.665715

- location: Jula Gränbystaden
  city: Uppsala
  country: Sverige
  latitude: 59.88473
  longitude: 17.674485

- location: Jula Boländerna
  city: Uppsala
  country: Sverige
  latitude: 59.852986
  longitude: 17.686846

- location: Jula Barkarby Handelsplats
  city: Stockholm
  country: Sverige
  latitude: 59.413976
  longitude: 17.855563

- location: Jula Botkyrka Handel
  city: Stockholm
  country: Sverige
  latitude: 59.25158
  longitude: 17.867234

- location: Jula Kungens Kurva
  city: Stockholm
  country: Sverige
  latitude: 59.268209
  longitude: 17.919442

- location: Jula Häggvik
  city: Stockholm
  country: Sverige
  latitude: 59.437362
  longitude: 17.92751

- location: Jula Bromma Blocks
  city: Stockholm
  country: Sverige
  latitude: 59.357265
  longitude: 17.949167

- location: Jula Arninge Centrum
  city: Stockholm
  country: Sverige
  latitude: 59.461452
  longitude: 18.132885

- location: Jula Port 73
  city: Stockholm
  country: Sverige
  latitude: 59.179868
  longitude: 18.152137

- location: Jula Forum
  city: Stockholm - Nacka Forum
  country: Sverige
  latitude: 59.31024
  longitude: 18.16407

- location: Jula Stenhuggaren
  city: Visby
  country: Sverige
  latitude: 57.622457
  longitude: 18.32131

- location: Jula Värmdö
  city: Stockholm
  country: Sverige
  latitude: 59.310758
  longitude: 18.422688

- location: Jula Norrteljeporten
  city: Norrtälje
  country: Sverige
  latitude: 59.746926
  longitude: 18.678114

- location: Jula Norra Handelsområdet
  city: Örnsköldsvik
  country: Sverige
  latitude: 63.304944
  longitude: 18.749721

- location: Jula Stora Birk
  city: Umeå
  country: Sverige
  latitude: 63.853716
  longitude: 20.301286

- location: Jula Gymnasievägen
  city: Skellefteå
  country: Sverige
  latitude: 64.741862
  longitude: 20.963705

- location: Jula Storheden
  city: Luleå
  country: Sverige
  latitude: 65.615618
  longitude: 22.054135
