meta:
  name: MECA Bilservice
  web: https://www.meca.se/
  wikipedia: null
  category: Biltillbehörskedjor
  locations: 0

locations:
- location: 47 i Skurup AB
  city: Skurup
  country: Sverige
  latitude: 55.490011
  longitude: 13.483382

- location: 63 Motors AB
  city: Eksjö
  country: Sverige
  latitude: 57.6642334
  longitude: 14.9919528

- location: A & P Gustavsson Däck
  city: Tingsryd
  country: Sverige
  latitude: 56.517046
  longitude: 14.9944927

- location: A Mechanics AB
  city: Tyresö
  country: Sverige
  latitude: 59.252316
  longitude: 18.202254

- location: A Mårtensson & Co
  city: Söderhamn
  country: Sverige
  latitude: 61.291454
  longitude: 17.072464

- location: A. Boström Autoservice
  city: Hässleholm
  country: Sverige
  latitude: 56.152492
  longitude: 13.771483

- location: AB Sture Karlbergs
  city: Skogås
  country: Sverige
  latitude: 59.204643
  longitude: 18.1186971

- location: AB Trosa Bil & Motor
  city: Trosa
  country: Sverige
  latitude: 58.907024
  longitude: 17.553381

- location: AB Vendelsö Personbilar
  city: Vendelsö
  country: Sverige
  latitude: 59.190974
  longitude: 18.177942

- location: Alex Däck & Bilservice AB
  city: huddinge
  country: Sverige
  latitude: 59.2310339
  longitude: 17.9535671

- location: All Cars Sweden AB
  city: Linköping
  country: Sverige
  latitude: 58.421957
  longitude: 15.622009

- location: All-Bilar Assar Boström AB
  city: Umeå
  country: Sverige
  latitude: 63.840084
  longitude: 20.196261

- location: Allt i Bil AB
  city: Göteborg
  country: Sverige
  latitude: 57.721546
  longitude: 11.972866

- location: Allt i Bil Öckerö AB
  city: Hönö
  country: Sverige
  latitude: 57.699385
  longitude: 11.661785"105

- location: Alvar Jacobsson AB
  city: Ed
  country: Sverige
  latitude: 58.9013763250406
  longitude: 11.9455289840698

- location: Alvesta Bil & Riktning AB
  city: Alvesta
  country: Sverige
  latitude: 56.90157
  longitude: 14.55433

- location: AN Auto Center i Gårdstånga
  city: Flyinge
  country: Sverige
  latitude: 55.763573
  longitude: 13.312485

- location: Andersson & Larsson Bilservice
  city: Eslöv
  country: Sverige
  latitude: 55.8313917
  longitude: 13.3052326

- location: Arina Bilservice
  city: Uppsala
  country: Sverige
  latitude: 59.848043
  longitude: 17.676846

- location: Arlandastad Däck AB
  city: Arlandastad
  country: Sverige
  latitude: 59.616171
  longitude: 17.865169

- location: Aspholmens Bil & Diesel Teknik
  city: Örebro
  country: Sverige
  latitude: 59.2616584
  longitude: 15.1834548

- location: AT Bilcenter AB
  city: Aneby
  country: Sverige
  latitude: 57.82688
  longitude: 14.811732

- location: AT Däck & Rekondcenter AB
  city: Markaryd
  country: Sverige
  latitude: 56.473947
  longitude: 13.602973

- location: Atracco Auto AB
  city: Växjö
  country: Sverige
  latitude: 56.8875274
  longitude: 14.7734918

- location: Au2 Bilservice AB
  city: Stockholm
  country: Sverige
  latitude: 59.308827
  longitude: 18.077298

- location: Auto & Mechanics LC AB
  city: Löberöd
  country: Sverige
  latitude: 55.744131
  longitude: 13.439891

- location: Auto Gruppen i Västerås AB
  city: Västerås
  country: Sverige
  latitude: 59.637414
  longitude: 16.561106

- location: Auto Lounge Kungsbacka AB
  city: Kungsbacka
  country: Sverige
  latitude: 57.4847403875832
  longitude: 12.0832443237305

- location: Auto-Agentur i Mölndal AB
  city: Mölndal
  country: Sverige
  latitude: 57.642598
  longitude: 12.0297321

- location: Autoakuten i Skellefteå AB
  city: Skellefteå
  country: Sverige
  latitude: 64.731399
  longitude: 20.962111

- location: Autocenter Uppsala AB
  city: Uppsala
  country: Sverige
  latitude: 59.812144
  longitude: 17.656068

- location: Autodrive
  city: Borlänge
  country: Sverige
  latitude: 60.4708845
  longitude: 15.4034605

- location: Autoekonomi I Askersund AB
  city: Askersund
  country: Sverige
  latitude: 58.8868964
  longitude: 14.9131061

- location: Autofix i Ljungby HB
  city: Ljungby
  country: Sverige
  latitude: 56.828042
  longitude: 13.927292

- location: Automagnet AB
  city: Västra Frölunda
  country: Sverige
  latitude: 57.656767
  longitude: 11.900495

- location: Automek Bromma AB
  city: Bromma
  country: Sverige
  latitude: 59.346583
  longitude: 17.961917

- location: Automek Skärholmen AB
  city: Skärholmen
  country: Sverige
  latitude: 59.27643
  longitude: 17.90581

- location: Automekanik AB
  city: Bandhagen
  country: Sverige
  latitude: 59.26203
  longitude: 18.05804

- location: Autoscanic AB
  city: Arlöv
  country: Sverige
  latitude: 55.644996
  longitude: 13.082696

- location: Autowork i Örebro AB
  city: Örebro
  country: Sverige
  latitude: 59.260608
  longitude: 15.1612166

- location: B-Bus & Kuman Bilservice AB
  city: Trollhättan
  country: Sverige
  latitude: 58.2819284268593
  longitude: 12.3074769973755

- location: B. Ekstrands Bil & Motor AB
  city: Ängelholm
  country: Sverige
  latitude: 56.317212
  longitude: 12.887202

- location: Bengtsson Max Bil & Motor AB
  city: Herrljunga
  country: Sverige
  latitude: 58.0812377
  longitude: 13.0244855

- location: Bergqvist Gummiverkstad AB
  city: Sunne
  country: Sverige
  latitude: 59.8332172
  longitude: 13.1498439

- location: Bertil Björkman Bil AB
  city: Borlänge
  country: Sverige
  latitude: 60.479618
  longitude: 15.440036

- location: Bertil Björkman Bil AB
  city: Falun
  country: Sverige
  latitude: 60.6088121
  longitude: 15.5955324

- location: Bertil Björkman Bil AB
  city: Ludvika
  country: Sverige
  latitude: 60.148866
  longitude: 15.207519

- location: Bertil Björkman Bil AB
  city: Avesta
  country: Sverige
  latitude: 60.141537
  longitude: 16.196358

- location: Bil & Diagnosgruppen
  city: Södertälje
  country: Sverige
  latitude: 59.187069
  longitude: 17.628122

- location: Bil & Lastvagnscenter AB
  city: Uddevalla
  country: Sverige
  latitude: 58.356536
  longitude: 11.989576

- location: Bil & Lastvagnsservice
  city: Sävsjö
  country: Sverige
  latitude: 57.395417
  longitude: 14.648106

- location: Bil & Maskin AB
  city: Munkfors
  country: Sverige
  latitude: 59.848514
  longitude: 13.558967

- location: Bil & Maskinservice
  city: Sundsvall
  country: Sverige
  latitude: 62.373463
  longitude: 17.3457054

- location: Bil Skadecenter i Kalmar AB
  city: Kalmar
  country: Sverige
  latitude: 56.676148
  longitude: 16.321822

- location: Bilakuten Södertälje AB
  city: Södertälje
  country: Sverige
  latitude: 59.207865
  longitude: 17.643356

- location: BilBoden AB
  city: Boden
  country: Sverige
  latitude: 65.820515
  longitude: 21.6963

- location: Bilcenter Vimmerby AB
  city: Vimmerby
  country: Sverige
  latitude: 57.659423
  longitude: 15.850825

- location: Bilcity Kalmar AB
  city: Kalmar
  country: Sverige
  latitude: 56.6750530906381
  longitude: 16.2525049872413"147

- location: Bilexperten Umeå AB
  city: Röbäck
  country: Sverige
  latitude: 63.8104497
  longitude: 20.1719871

- location: Bilfix i Norrköping AB
  city: Norrköping
  country: Sverige
  latitude: 58.5804764
  longitude: 16.2382502

- location: Bilfix I Sundsvall AB
  city: Sundsvall
  country: Sverige
  latitude: 62.3952735
  longitude: 17.25709

- location: Bilfocus i Trollhättan AB
  city: Trollhättan
  country: Sverige
  latitude: 58.27662
  longitude: 12.32135

- location: Bilförsäljning i Mölnlycke AB
  city: Mölnlycke
  country: Sverige
  latitude: 57.655904
  longitude: 12.112321

- location: Bilhallen i Hagfors AB
  city: Hagfors
  country: Sverige
  latitude: 60.04141
  longitude: 13.70746

- location: Bilhuset I Lindome AB
  city: Lindome
  country: Sverige
  latitude: 57.5766553
  longitude: 12.0911002

- location: Bilhuset Kumla AB
  city: Kumla
  country: Sverige
  latitude: 59.1514973
  longitude: 15.1393408

- location: Bilkompaniet Ekeby AB
  city: Eskilstuna
  country: Sverige
  latitude: 59.3755614
  longitude: 16.4393925

- location: Bilkompaniet Hudik AB
  city: Hudiksvall
  country: Sverige
  latitude: 61.7371246425623
  longitude: 17.0847487449646

- location: Billagret i Örebro AB
  city: Örebro
  country: Sverige
  latitude: 59.229525
  longitude: 15.145286

- location: Bilmäklar´N i Skellefteå AB
  city: Skellefteå
  country: Sverige
  latitude: 64.7376
  longitude: 20.959508

- location: Bilpastorn
  city: Oxelösund
  country: Sverige
  latitude: 58.668218
  longitude: 17.106668

- location: Bilpastorn Bara
  city: Oxelösund
  country: Sverige
  latitude: 58.684148
  longitude: 17.065734

- location: Bilservice i Everöd AB
  city: Everöd
  country: Sverige
  latitude: 55.900484
  longitude: 14.090532

- location: Bilservice i Kinna AB
  city: Kinna
  country: Sverige
  latitude: 57.512125
  longitude: 12.695587

- location: Bilskadecenter Skövde AB
  city: Skövde
  country: Sverige
  latitude: 58.3930852
  longitude: 13.8786376

- location: Bilsnabben AB
  city: Storvreta
  country: Sverige
  latitude: 59.963087
  longitude: 17.707998

- location: Bilval i Blekinge AB
  city: Kallinge
  country: Sverige
  latitude: 56.2333
  longitude: 15.2833

- location: Bilverkstad i Hammarö AB
  city: Hammarö
  country: Sverige
  latitude: 59.346692
  longitude: 13.502326

- location: Bilverkstan i Leksand AB
  city: Leksand
  country: Sverige
  latitude: 60.72254890000001
  longitude: 15.0195354

- location: Bilvårdshuset Näringen AB
  city: Gävle
  country: Sverige
  latitude: 60.681909
  longitude: 17.155649

- location: Bjuråkers Service AB
  city: Bjuråker
  country: Sverige
  latitude: 61.8817166
  longitude: 16.535565

- location: Björkedals Verkstads AB
  city: Kristianstad
  country: Sverige
  latitude: 56.000244
  longitude: 14.058840

- location: Björkmans Bil Lindesberg
  city: Lindesberg
  country: Sverige
  latitude: 59.563735
  longitude: 15.229535

- location: Blixtservice i Stockholm AB
  city: Stockholm
  country: Sverige
  latitude: 59.309627
  longitude: 18.084156

- location: Bo & Jimmy Bilservice AB
  city: Mölndal
  country: Sverige
  latitude: 57.64034903310
  longitude: 12.00908205050

- location: BoBo:s Däck AB
  city: Stora Mellösa
  country: Sverige
  latitude: 59.208977
  longitude: 15.499802

- location: Bodefälts Bilservice AB
  city: Vrigstad
  country: Sverige
  latitude: 57.379348
  longitude: 14.464416

- location: Bollebygds Bilservice
  city: Bollebygd
  country: Sverige
  latitude: 57.6652521
  longitude: 12.5570892

- location: Botnia Bil & Däck
  city: Örnsköldsvik
  country: Sverige
  latitude: 63.280024
  longitude: 18.740678

- location: Br Hörlings Bilservice AB
  city: Linköping
  country: Sverige
  latitude: 58.400780
  longitude: 15.548174

- location: Br. Jeppsons Bil & Traktor
  city: Borrby
  country: Sverige
  latitude: 55.452472
  longitude: 14.177728

- location: Brabautoservice AB
  city: Göteborg
  country: Sverige
  latitude: 57.731272
  longitude: 11.947828

- location: Broby Bilservice AB
  city: Broby
  country: Sverige
  latitude: 56.250614
  longitude: 14.072542

- location: Bruzaholms Bil AB
  city: Bruzaholm
  country: Sverige
  latitude: 57.641095
  longitude: 15.290032

- location: Car Service Väst AB
  city: Umeå
  country: Sverige
  latitude: 63.838421
  longitude: 20.2440003

- location: Cemet AB
  city: Farsta
  country: Sverige
  latitude: 59.2392159
  longitude: 18.1143413

- location: Centralens.se Bilverkstad
  city: Göteborg
  country: Sverige
  latitude: 57.70986180000001
  longitude: 11.98186940000005

- location: Cityverkstaden i Karlstad AB
  city: Karlstad
  country: Sverige
  latitude: 59.386810
  longitude: 13.479104

- location: Dahlbäck Racing AB
  city: Borlänge
  country: Sverige
  latitude: 60.4718112
  longitude: 15.4255092

- location: Diameco Uppsala AB
  city: Uppsala
  country: Sverige
  latitude: 59.84272
  longitude: 17.72139

- location: Dicks Bil & Motor & Co AB
  city: Lomma
  country: Sverige
  latitude: 55.679241
  longitude: 13.08604

- location: Din Magical Full Service
  city: Skärholmen
  country: Sverige
  latitude: 59.29478
  longitude: 17.94079

- location: Din Meko Bilservice i Sverige
  city: Malmö
  country: Sverige
  latitude: 55.551954
  longitude: 13.053989

- location: Djulö Däck & bilverkstad AB
  city: Katrineholm
  country: Sverige
  latitude: 58.966972
  longitude: 16.194846

- location: Däck & Bromsbytarna i Hbg AB
  city: Helsingborg
  country: Sverige
  latitude: 56.007122
  longitude: 12.736039

- location: Däck & Fälg Landvetter AB
  city: Landvetter
  country: Sverige
  latitude: 57.68609738737
  longitude: 12.159011363983

- location: Däck & Fälgar AB / First Stop Knislinge
  city: Knislinge
  country: Sverige
  latitude: 56.187469
  longitude: 14.084049

- location: Däck Elit.mk AB
  city: Norrköping
  country: Sverige
  latitude: 58.580373
  longitude: 16.130053

- location: Däckcenter Ystad Lasses Vulk AB
  city: Ystad
  country: Sverige
  latitude: 55.444546
  longitude: 13.805566

- location: Däckexperten i Motala AB
  city: Motala
  country: Sverige
  latitude: 58.537492
  longitude: 15.015012

- location: Däckimporten i Göteborg AB
  city: Göteborg
  country: Sverige
  latitude: 57.75497
  longitude: 12.010112

- location: Däckservice i Kinda AB
  city: Kisa
  country: Sverige
  latitude: 57.98205784826
  longitude: 15.63692450523

- location: E.M.E Bilservice AB
  city: Kolbäck
  country: Sverige
  latitude: 59.564729
  longitude: 16.245244

- location: E/K Service
  city: Hörby
  country: Sverige
  latitude: 55.846723
  longitude: 13.658624

- location: Eco Bilvård i Göteborg AB
  city: Göteborg
  country: Sverige
  latitude: 57.702023
  longitude: 12.013959

- location: Edane Maskinservice
  city: Edane
  country: Sverige
  latitude: 59.627535
  longitude: 12.815612

- location: Eije Petterssons Bil AB
  city: Åmål
  country: Sverige
  latitude: 59.0648252
  longitude: 12.7001883

- location: Einarssons Bil AB
  city: Kungsbacka
  country: Sverige
  latitude: 57.4823127
  longitude: 12.0812649

- location: Eksjö Bilaffär AB
  city: Eksjö
  country: Sverige
  latitude: 57.664298
  longitude: 14.992630

- location: Eksjö Motorcentrum AB
  city: Eksjö
  country: Sverige
  latitude: 57.650666
  longitude: 14.952170

- location: Engelbrekts Motor AB
  city: Charlottenberg
  country: Sverige
  latitude: 59.883253
  longitude: 12.294731

- location: Eozon Klimator & Bilservice AB
  city: Trelleborg
  country: Sverige
  latitude: 55.381373
  longitude: 13.137584

- location: Eriks Bilservice i Hackås AB
  city: Hackås
  country: Sverige
  latitude: 62.914662
  longitude: 14.524978

- location: Eskilstuna Fordon AB
  city: Eskilstuna
  country: Sverige
  latitude: 59.3746242
  longitude: 16.5408894

- location: Eskilstuna Workshop AB
  city: Eskilstuna
  country: Sverige
  latitude: 59.3900518
  longitude: 16.4652805

- location: Eskilstuna Workshop AB Lite
  city: Eskilstuna
  country: Sverige
  latitude: 59.386818
  longitude: 16.5104399

- location: F-Hans Bil AB
  city: Västerås
  country: Sverige
  latitude: 59.60452392056
  longitude: 16.483153477315

- location: Falu Bilservice AB
  city: Falun
  country: Sverige
  latitude: 60.598363
  longitude: 15.623031

- location: Fastmec AB
  city: Ludvika
  country: Sverige
  latitude: 60.140956
  longitude: 15.177250

- location: Fordon & Biltjänst Söderhamn AB
  city: Söderhamn
  country: Sverige
  latitude: 61.296172
  longitude: 17.035768

- location: Fordonscenter AB
  city: Surahammar
  country: Sverige
  latitude: 59.699217
  longitude: 16.244222

- location: Fordonsexperten Kryddstigen AB
  city: Gävle
  country: Sverige
  latitude: 60.655666
  longitude: 17.1743

- location: Fordonshuset i Svedala AB
  city: Svedala
  country: Sverige
  latitude: 55.518430
  longitude: 13.240212

- location: Fordonsteamet i Linköping AB
  city: Linköping
  country: Sverige
  latitude: 58.41577
  longitude: 15.641478"132

- location: Forsbergs Fritidscenter
  city: Linköping
  country: Sverige
  latitude: 58.400715
  longitude: 15.546770"132

- location: Franssons Maskin
  city: Sorsele
  country: Sverige
  latitude: 65.535924
  longitude: 17.539035

- location: Frösöns Fordonsservice
  city: Frösön
  country: Sverige
  latitude: 63.195049
  longitude: 14.483305

- location: Fändriks Fordonsteknik AB
  city: Kristinehamn
  country: Sverige
  latitude: 59.303113
  longitude: 14.123867

- location: Galax Bilservice AB
  city: Sundsbruk
  country: Sverige
  latitude: 62.453354
  longitude: 17.356000

- location: Getängs Bilservice AB
  city: Borås
  country: Sverige
  latitude: 57.7295717
  longitude: 12.9197701

- location: Gislövs Bil & Plåt
  city: Trelleborg
  country: Sverige
  latitude: 55.390066
  longitude: 13.236896

- location: Gnesta Allservice AB
  city: Gnesta
  country: Sverige
  latitude: 59.0568888
  longitude: 17.2942904

- location: Gränna Bensin & Service AB
  city: Gränna
  country: Sverige
  latitude: 58.0286066
  longitude: 14.4744771

- location: Gulf Gånghester
  city: Gånghester
  country: Sverige
  latitude: 57.6980251
  longitude: 13.0227144

- location: Gällivare Bilteknik AB
  city: Gällivare
  country: Sverige
  latitude: 67.146903
  longitude: 20.653776

- location: Gällö Bil & Motor
  city: Gällö
  country: Sverige
  latitude: 62.916464
  longitude: 15.235293

- location: Göte Carlsson Bilverkstad AB
  city: Hisings kärra
  country: Sverige
  latitude: 57.78968159999999
  longitude: 12.0034685

- location: Habo Bil & Motor, Uno-X 99691
  city: Habo
  country: Sverige
  latitude: 57.8999858
  longitude: 14.0963379

- location: Hanson Motor i Mora AB
  city: Mora
  country: Sverige
  latitude: 61.003469
  longitude: 14.580364

- location: Havdhems Bilservice AB
  city: Havdhem
  country: Sverige
  latitude: 57.159937
  longitude: 18.333816

- location: Heeds Bil & Vulk
  city: Älvdalen
  country: Sverige
  latitude: 61.236145
  longitude: 14.0328569

- location: Hela Bilen
  city: Malmö
  country: Sverige
  latitude: 55.614866
  longitude: 13.033567

- location: Henkes Bilservice
  city: Härnösand
  country: Sverige
  latitude: 62.637914
  longitude: 17.932324

- location: Highway Performance AB
  city: Bromölla
  country: Sverige
  latitude: 56.06482810000001
  longitude: 14.4789736

- location: Hille Bensin och Service AB
  city: Gävle
  country: Sverige
  latitude: 60.720289
  longitude: 17.1672

- location: Holsljunga Bilservice AB
  city: Holsljunga
  country: Sverige
  latitude: 57.4142686
  longitude: 12.9789075

- location: Hugos AB
  city: Vetlanda
  country: Sverige
  latitude: 57.419286
  longitude: 15.057329

- location: Hullaryds Bilservice AB
  city: Aneby
  country: Sverige
  latitude: 57.91950809999999
  longitude: 14.72423649999996

- location: Husbilsspecialisten i Tenhult AB
  city: Tenhult
  country: Sverige
  latitude: 57.7123398
  longitude: 14.3161232

- location: Hällstorps Bil AB Skillingaryd
  city: Skillingaryd
  country: Sverige
  latitude: 57.453509
  longitude: 14.090913"73

- location: Hörnefors Bil & Teknik AB
  city: Hörnefors
  country: Sverige
  latitude: 63.61901
  longitude: 19.90728

- location: Ingemarssons Bilservice AB
  city: Falköping
  country: Sverige
  latitude: 58.1627968
  longitude: 13.5702345

- location: Isaks Servicecenter AB
  city: Blidsberg
  country: Sverige
  latitude: 57.9295763
  longitude: 13.4938713

- location: JB Motorservice AB
  city: Gävle
  country: Sverige
  latitude: 60.680219
  longitude: 17.147952"85

- location: JC Bilservice AB
  city: Järfälla
  country: Sverige
  latitude: 59.432293
  longitude: 17.826694

- location: JF:s Fordonsteknik Växjö AB
  city: Växjö
  country: Sverige
  latitude: 56.923875
  longitude: 14.859545

- location: JM Bilservice AB
  city: Hudiksvall
  country: Sverige
  latitude: 61.74944
  longitude: 17.10598

- location: Jockes Bilservice Route 140 AB
  city: Klintehamn
  country: Sverige
  latitude: 57.3906592
  longitude: 18.1981893

- location: Johan Hagberg Bil & Motor AB
  city: Molkom
  country: Sverige
  latitude: 59.6066
  longitude: 13.741686

- location: Johan Hagberg Bil & Motor AB
  city: Karlstad
  country: Sverige
  latitude: 59.377585
  longitude: 13.551062

- location: Jonnis Bilverkstad AB
  city: Norrköping
  country: Sverige
  latitude: 58.583163
  longitude: 16.210543

- location: Josefssons Motor AB
  city: Eksjö
  country: Sverige
  latitude: 57.662956
  longitude: 14.987978

- location: Kaptens Motor AB
  city: Orsa
  country: Sverige
  latitude: 61.116195
  longitude: 14.623913

- location: Kenny Håkansson
  city: Hede
  country: Sverige
  latitude: 62.42015
  longitude: 13.515004

- location: KG Olsson Bilrep & Bensin
  city: Föllinge
  country: Sverige
  latitude: 63.671147
  longitude: 14.620977

- location: Kils Allservice AB
  city: Kil
  country: Sverige
  latitude: 59.499744
  longitude: 13.3331926

- location: Kisa Bilservice
  city: Kisa
  country: Sverige
  latitude: 58.001421
  longitude: 15.642744

- location: Kitts Garage AB
  city: Växjö
  country: Sverige
  latitude: 56.909016
  longitude: 14.831191

- location: KL Bil & Motor i Luleå AB
  city: Luleå
  country: Sverige
  latitude: 65.5799397
  longitude: 22.1918267

- location: Korslycke Bilservice AB
  city: Torsås
  country: Sverige
  latitude: 56.4158571
  longitude: 16.0215515

- location: Kristianstad Däck & Bilservice AB
  city: Kristianstad
  country: Sverige
  latitude: 56.01195
  longitude: 14.154446

- location: Kristineberg Motor AB
  city: Karlshamn
  country: Sverige
  latitude: 56.182744
  longitude: 14.851241

- location: Kungsbacka Bilcentrum AB
  city: Kungsbacka
  country: Sverige
  latitude: 57.5098999
  longitude: 12.0813541

- location: Kungshult Bilservice
  city: Eslöv
  country: Sverige
  latitude: 55.8531893
  longitude: 13.4137024

- location: Kågeröds Bilverkstad
  city: Kågeröd
  country: Sverige
  latitude: 55.998063
  longitude: 13.093142

- location: Kårwiks Bilverkstad AB
  city: Svenstavik
  country: Sverige
  latitude: 62.7719758
  longitude: 14.4424074

- location: Landbloms Bil AB
  city: Nyköping
  country: Sverige
  latitude: 58.75742867797
  longitude: 17.0170497894287

- location: Landsvägens Bensin & Service
  city: Anderslöv
  country: Sverige
  latitude: 55.440026
  longitude: 13.309295

- location: Laxviks fordonsservice
  city: Östersund
  country: Sverige
  latitude: 63.214978
  longitude: 14.640391

- location: LE Däck & Motor HB
  city: Arvika
  country: Sverige
  latitude: 59.676918
  longitude: 12.592242

- location: Lekebergs motor
  city: Fjugesta
  country: Sverige
  latitude: 59.1691601
  longitude: 14.8774516

- location: LEKI Bilservice AB
  city: Tomelilla
  country: Sverige
  latitude: 55.551729
  longitude: 13.956188

- location: Librobäck fordonsteknik AB
  city: Uppsala
  country: Sverige
  latitude: 59.88153
  longitude: 17.58189

- location: Lindes Bilverkstad i Höganäs AB
  city: Höganäs
  country: Sverige
  latitude: 56.212199
  longitude: 12.553487

- location: Ljusdals Bilverkstad AB
  city: Ljusdal
  country: Sverige
  latitude: 61.822021
  longitude: 16.106569

- location: LTE Bil AB
  city: Borlänge
  country: Sverige
  latitude: 60.4660138
  longitude: 15.4557346

- location: Lundgruppen
  city: Mariestad
  country: Sverige
  latitude: 58.711741
  longitude: 13.835977

- location: Lundman Bil AB
  city: Hofors
  country: Sverige
  latitude: 60.5264743
  longitude: 16.364183

- location: Lundmarks Bil & Maskin AB
  city: Vara
  country: Sverige
  latitude: 58.257735
  longitude: 12.965844

- location: Lundmarks Bil & Motor AB
  city: Gammelstad
  country: Sverige
  latitude: 65.628508
  longitude: 22.051907

- location: Lundströms i Bor
  city: Bor
  country: Sverige
  latitude: 57.11773350000001
  longitude: 14.1523657

- location: Lycksele Bilservice AB
  city: Lycksele
  country: Sverige
  latitude: 64.58574508810
  longitude: 18.6960536241531

- location: M Funck i Pajala AB
  city: Pajala
  country: Sverige
  latitude: 67.209507
  longitude: 23.368797

- location: M.E. Bilverkstad
  city: Vagnhärad
  country: Sverige
  latitude: 58.954698
  longitude: 17.481122

- location: M+ Åre/Järpen AB
  city: Järpen
  country: Sverige
  latitude: 63.342338
  longitude: 13.48352

- location: MA:S Bilvårdscenter AB
  city: Nyköping
  country: Sverige
  latitude: 58.720065
  longitude: 17.025019

- location: MABIL Verkstad AB
  city: Frösön
  country: Sverige
  latitude: 63.1758434
  longitude: 14.590479

- location: Madsens Autoteknik
  city: Laholm
  country: Sverige
  latitude: 56.504929
  longitude: 13.0611693

- location: Malmköpings Bilskade o Mek AB
  city: Malmköping
  country: Sverige
  latitude: 59.1283263
  longitude: 16.738922

- location: Mats Å. Bilservice AB
  city: Hallstahammar
  country: Sverige
  latitude: 59.608456
  longitude: 16.247406

- location: Maxibil center AB
  city: Jönköping
  country: Sverige
  latitude: 57.766068
  longitude: 14.172318

- location: MB Service AB
  city: Karlstad
  country: Sverige
  latitude: 59.4261159
  longitude: 13.422919

- location: MD Bilreparationer AB
  city: Eskilstuna
  country: Sverige
  latitude: 59.374095
  longitude: 16.536237

- location: MECA + Knivsta
  city: Knivsta
  country: Sverige
  latitude: 59.741872
  longitude: 17.812580

- location: Meca bilverkstad i Kungälv
  city: Kungälv
  country: Sverige
  latitude: 57.897633
  longitude: 11.933244

- location: MECA BJURSÅS
  city: Bjursås
  country: Sverige
  latitude: 60.725336
  longitude: 15.446874

- location: MECA Bogesunds Bil
  city: Tranemo
  country: Sverige
  latitude: 57.4957941
  longitude: 13.3408181

- location: MECA Lund
  city: Lund
  country: Sverige
  latitude: 55.719586
  longitude: 13.162256

- location: MECA SOLLEFTEÅ
  city: Sollefteå
  country: Sverige
  latitude: 63.1775
  longitude: 17.2220

- location: MECA Sundbyberg
  city: Sundbyberg
  country: Sverige
  latitude: 59.361521
  longitude: 17.973778

- location: MECA Verkstadsdrift AB
  city: Västerås
  country: Sverige
  latitude: 59.643219
  longitude: 16.560284

- location: MECA Verkstadsdrift AB
  city: Eskilstuna
  country: Sverige
  latitude: 59.361273
  longitude: 16.509967

- location: MECA Verkstadsdrift Köping
  city: Köping
  country: Sverige
  latitude: 59.508763
  longitude: 16.005621

- location: MECA Verkstadsdrift Trollhättan
  city: Trollhättan
  country: Sverige
  latitude: 58.29365
  longitude: 12.334765

- location: MECA+ bilverkstad & bilservice i Östersund
  city: Östersund
  country: Sverige
  latitude: 63.19015
  longitude: 14.647924

- location: Mellringe Servicestation AB
  city: Örebro
  country: Sverige
  latitude: 59.294928
  longitude: 15.16727

- location: Mikaels Bil & Lackcenter AB
  city: TÖCKSFORS
  country: Sverige
  latitude: 59.5060491
  longitude: 11.8580083

- location: Mikkes Bilservice AB
  city: Floby
  country: Sverige
  latitude: 58.128803
  longitude: 13.335207

- location: MLV Bilservice AB
  city: Malmö
  country: Sverige
  latitude: 55.6142014
  longitude: 13.0406894

- location: MMC Malmö AB
  city: Malmö
  country: Sverige
  latitude: 55.568921
  longitude: 13.051646

- location: MN Berga Bilservice AB
  city: Helsingborg
  country: Sverige
  latitude: 56.072934
  longitude: 12.711606

- location: Motala Fordonsreparationer AB
  city: Motala
  country: Sverige
  latitude: 58.5574028
  longitude: 15.0579161

- location: Motorakuten i Säffle AB
  city: Säffle
  country: Sverige
  latitude: 59.13735
  longitude: 12.941791

- location: Motorcentrumverkstad Kumla AB
  city: Kumla
  country: Sverige
  latitude: 59.1214599
  longitude: 15.1436176

- location: Motordepån i Skälby AB
  city: Järfälla
  country: Sverige
  latitude: 59.405668
  longitude: 17.842870

- location: MOWOS Custom & Service
  city: Piteå
  country: Sverige
  latitude: 65.340914
  longitude: 21.398913

- location: NIBA Motor AB
  city: Ödåkra
  country: Sverige
  latitude: 56.110137
  longitude: 12.752539

- location: Nisses Allservice
  city: Långshyttan
  country: Sverige
  latitude: 60.421514
  longitude: 16.077654

- location: Norbergs Bil & Plåt
  city: Nyhammar
  country: Sverige
  latitude: 60.291650
  longitude: 14.970618

- location: Nordic Auto AB
  city: Göteborg
  country: Sverige
  latitude: 57.72437869999999
  longitude: 11.9754183

- location: Nordic Car Experten
  city: Stockholm
  country: Sverige
  latitude: 59.336284
  longitude: 18.031073

- location: Norrlands Bilverkstad
  city: Umeå
  country: Sverige
  latitude: 63.8530701
  longitude: 20.2103595

- location: Norrlandsgaraget AB
  city: Jokkmokk
  country: Sverige
  latitude: 66.602929
  longitude: 19.818555

- location: Nynäs Bil och Diagnos AB
  city: Nynäshamn
  country: Sverige
  latitude: 58.922014
  longitude: 17.939644

- location: Olskrokens Bilverkstad AB
  city: Göteborg
  country: Sverige
  latitude: 57.7204
  longitude: 12.005332

- location: ON Bilservice AB
  city: Helsingborg
  country: Sverige
  latitude: 56.013458
  longitude: 12.763931

- location: Oscars Däck & Verkstad AB
  city: TIERP
  country: Sverige
  latitude: 60.339538
  longitude: 17.519583

- location: Oscars Däck & Verkstad AB
  city: Månkarbo
  country: Sverige
  latitude: 60.229860
  longitude: 17.458948

- location: Ove Andersson bil AB
  city: Västerås
  country: Sverige
  latitude: 59.643156
  longitude: 16.5649276

- location: P&B BILSERVICE I ARBOGA AB
  city: Arboga
  country: Sverige
  latitude: 59.3908783
  longitude: 15.8618013

- location: Persson Maskin AB
  city: Kåge
  country: Sverige
  latitude: 64.83571
  longitude: 20.98453

- location: Peter Lundells Motorsport AB
  city: Sjöbo
  country: Sverige
  latitude: 55.636348
  longitude: 13.683708

- location: Peters Bil & Däckservice AB
  city: Mariannelund
  country: Sverige
  latitude: 57.618941
  longitude: 15.589056

- location: PG Bilservice AB
  city: Visby
  country: Sverige
  latitude: 57.632408
  longitude: 18.344872

- location: Pontus Bilverkstad AB
  city: Malmö
  country: Sverige
  latitude: 55.561829
  longitude: 13.034812

- location: R & T Jonsons Bil AB
  city: Huskvarna
  country: Sverige
  latitude: 57.7918939
  longitude: 14.2634845

- location: R sport Sweden AB
  city: Säter
  country: Sverige
  latitude: 60.330239
  longitude: 15.781666

- location: R-Sport Sweden AB Hedemora
  city: Hedemora
  country: Sverige
  latitude: 60.288602
  longitude: 15.989167

- location: Richards Bilservice AB
  city: Gamleby
  country: Sverige
  latitude: 57.8984398
  longitude: 16.412613

- location: Rolfs Bilservice
  city: Harlösa
  country: Sverige
  latitude: 55.7164296
  longitude: 13.528678

- location: ROSERSBERG BIL & DIAGNOS
  city: Rosersberg
  country: Sverige
  latitude: 59.574937
  longitude: 17.897222

- location: Rotarium AB
  city: Norsjö
  country: Sverige
  latitude: 64.91089
  longitude: 19.497807

- location: S F G Lackcenter AB
  city: Upplands Väsby
  country: Sverige
  latitude: 59.500808
  longitude: 17.925708

- location: Salem Bil & Plåtverkstad AB
  city: Rönninge
  country: Sverige
  latitude: 59.200783
  longitude: 17.762259"392

- location: SAM Bilmode AB
  city: Göteborg
  country: Sverige
  latitude: 57.731242
  longitude: 11.945664

- location: Sandor & Lasse’S Bilservice  AB
  city: Norrahammar
  country: Sverige
  latitude: 57.69213
  longitude: 14.106932

- location: Sannarps Bil AB
  city: Halmstad
  country: Sverige
  latitude: 56.6795251235554
  longitude: 12.886791229248

- location: Save Your Car Stockholm AB
  city: Vallentuna
  country: Sverige
  latitude: 59.5161931
  longitude: 18.09201999999999

- location: Scandium i Lagan AB
  city: Lagan
  country: Sverige
  latitude: 56.941583
  longitude: 14.006505

- location: Segeltorps Bil & Skadecenter
  city: Tullinge
  country: Sverige
  latitude: 59.2080124
  longitude: 17.9255477

- location: Service center Östermalm AB
  city: Stockholm
  country: Sverige
  latitude: 59.336454
  longitude: 18.094598

- location: Servicecenter
  city: Falkenberg
  country: Sverige
  latitude: 56.935657
  longitude: 12.522612

- location: Servicespecialisten AB
  city: Stockholm
  country: Sverige
  latitude: 59.346449
  longitude: 18.05972

- location: Siivonens Mek och Maskin AB
  city: Kiruna
  country: Sverige
  latitude: 67.50453
  longitude: 20.15321

- location: Sikeå Bil & Rep
  city: Robertfors
  country: Sverige
  latitude: 64.168593
  longitude: 20.922196

- location: Simrishamns Bilservice AB
  city: Simrishamn
  country: Sverige
  latitude: 55.555047
  longitude: 14.344513

- location: Sjögrens Bil & Motor AB
  city: Torsby
  country: Sverige
  latitude: 60.14073
  longitude: 13.056598

- location: Sjöströms Bilservice
  city: Örnsköldsvik
  country: Sverige
  latitude: 63.3065046
  longitude: 18.7484444

- location: Skogs Bilvaruhus AB
  city: Mora
  country: Sverige
  latitude: 61.017864
  longitude: 14.537820

- location: Skyttorps Bil & Mek AB
  city: Vattholma
  country: Sverige
  latitude: 60.021884
  longitude: 17.638480

- location: Smålands Bilcentrum AB
  city: Nybro
  country: Sverige
  latitude: 56.74826
  longitude: 15.912642

- location: Solings Däck & Bilservice AB
  city: Söderhamn
  country: Sverige
  latitude: 61.307864
  longitude: 17.094695

- location: Sonstorp Bil & Skadecenter AB
  city: Finspång
  country: Sverige
  latitude: 58.6999473
  longitude: 15.817933

- location: Sparsör Bilteknik AB
  city: Brämhult
  country: Sverige
  latitude: 57.7253799
  longitude: 13.0105161

- location: Stiven Bilverkstad
  city: Handen
  country: Sverige
  latitude: 59.1702215
  longitude: 18.1513545

- location: Stockholms fordonsgrupp AB
  city: Järfälla
  country: Sverige
  latitude: 59.391606
  longitude: 17.848932

- location: Stockholms Fordonsgrupp Väsby
  city: Upplands Väsby
  country: Sverige
  latitude: 59.521301
  longitude: 17.927854

- location: Stureby Bilservice AB
  city: Bandhagen
  country: Sverige
  latitude: 59.256989
  longitude: 18.016561

- location: Stöde Bilservice AB
  city: Stöde
  country: Sverige
  latitude: 62.420536
  longitude: 16.60444

- location: Sundströms Bilservice
  city: Kramfors
  country: Sverige
  latitude: 62.926791
  longitude: 17.784032

- location: Svedala Bil & Motor AB
  city: Svedala
  country: Sverige
  latitude: 55.511525
  longitude: 13.253325

- location: Svenljunga Bilteknik AB
  city: Svenljunga
  country: Sverige
  latitude: 57.500423
  longitude: 13.111045

- location: Svensk bilförädling AB
  city: Göteborg
  country: Sverige
  latitude: 57.659009
  longitude: 11.932481

- location: Svenska Avgasrör AB
  city: Skärholmen
  country: Sverige
  latitude: 59.2955275
  longitude: 17.9365013

- location: Södermans Bilservice
  city: Holmsund
  country: Sverige
  latitude: 63.7098824
  longitude: 20.37112

- location: T Wahlgren Bensin & Service AB
  city: Ekeby
  country: Sverige
  latitude: 56.0057483
  longitude: 12.9624641

- location: Tagessons Bilservice AB
  city: Markaryd
  country: Sverige
  latitude: 56.464805
  longitude: 13.598805

- location: TBS Bilservice
  city: Trelleborg
  country: Sverige
  latitude: 55.36782
  longitude: 13.213076"139

- location: Thoréns Bilservice
  city: Linköping
  country: Sverige
  latitude: 58.422087
  longitude: 15.672607

- location: Thörnberg i Vetlanda AB
  city: Vetlanda
  country: Sverige
  latitude: 57.42006
  longitude: 15.08084

- location: Tib:s Bilservice AB
  city: Eskilstuna
  country: Sverige
  latitude: 59.386818
  longitude: 16.5104399

- location: Tibro Autoservice AB
  city: Tibro
  country: Sverige
  latitude: 58.4301444
  longitude: 14.1574167

- location: Tjust Servicecenter HB
  city: Gamleby
  country: Sverige
  latitude: 57.898136
  longitude: 16.403885

- location: TL Motor
  city: Västervik
  country: Sverige
  latitude: 57.77366008531275
  longitude: 16.59028140336702

- location: Tonys Bilservice i Markaryd AB
  city: Markaryd
  country: Sverige
  latitude: 56.4580431
  longitude: 13.5940715

- location: Torpa Service AB
  city: Jönköping
  country: Sverige
  latitude: 57.76466980000001
  longitude: 14.1712589

- location: Torslanda Bilservice AB
  city: Torslanda
  country: Sverige
  latitude: 57.716447
  longitude: 11.779962

- location: TR Bilservice AB
  city: Nora
  country: Sverige
  latitude: 59.5314132
  longitude: 15.0305552

- location: Tranemo Däckservice AB
  city: Tranemo
  country: Sverige
  latitude: 57.503226
  longitude: 13.340132

- location: Tre X Larsson Autoservice AB
  city: Malmö
  country: Sverige
  latitude: 55.5664316299637
  longitude: 13.0546545982361

- location: Tristart Bilverkstad AB
  city: Bollnäs
  country: Sverige
  latitude: 61.343606
  longitude: 16.373663

- location: Tumba bilservice AB
  city: Tumba
  country: Sverige
  latitude: 59.194917
  longitude: 17.828288

- location: Tyresö Bil & Diagnos AB
  city: Tyresö
  country: Sverige
  latitude: 59.246696
  longitude: 18.217065

- location: Tyrilux Bil AB
  city: Hisings Backa
  country: Sverige
  latitude: 57.772258
  longitude: 11.993349

- location: Täby Bil & Diagnos
  city: Täby
  country: Sverige
  latitude: 59.465890
  longitude: 18.128977

- location: Ulricehamns Autoservice
  city: Ulricehamn
  country: Sverige
  latitude: 57.8047813288079
  longitude: 13.411431312561

- location: Ulricehamns Bil & Kaross AB
  city: Ulricehamn
  country: Sverige
  latitude: 57.803844
  longitude: 13.443811

- location: Upplands Bilforum AB
  city: Uppsala
  country: Sverige
  latitude: 59.85656230000001
  longitude: 17.6933711

- location: Uppsala Bilcenter AB
  city: Uppsala
  country: Sverige
  latitude: 59.857570
  longitude: 17.687544

- location: Uppsala Biltjänst AB
  city: Uppsala
  country: Sverige
  latitude: 59.86798
  longitude: 17.60673

- location: V_H Bilverkstad
  city: Västerhaninge
  country: Sverige
  latitude: 59.12161
  longitude: 18.09251

- location: Vattjom Bilcenter
  city: Matfors
  country: Sverige
  latitude: 62.364770196382
  longitude: 17.035420238971

- location: Venczels Bil & Maskin AB
  city: Olofström
  country: Sverige
  latitude: 56.259870
  longitude: 14.551304

- location: Verdex AB
  city: Trelleborg
  country: Sverige
  latitude: 55.370665
  longitude: 13.170141

- location: Viksjö Center AB
  city: Järfälla
  country: Sverige
  latitude: 59.4134
  longitude: 17.798447"294

- location: Visborgs Motor
  city: Visby
  country: Sverige
  latitude: 57.608972
  longitude: 18.271074

- location: Vännäs Bilverkstad AB
  city: Vännäs
  country: Sverige
  latitude: 63.904451
  longitude: 19.7494213

- location: Värnamo Bil & MC-service AB
  city: Värnamo
  country: Sverige
  latitude: 57.1896312
  longitude: 14.034126

- location: Västberga Autoservice AB
  city: Hägersten
  country: Sverige
  latitude: 59.291968
  longitude: 18.008954

- location: Västerås Däck AB
  city: Västerås
  country: Sverige
  latitude: 59.647168
  longitude: 16.5672418

- location: Wafab Bil AB
  city: Sunne
  country: Sverige
  latitude: 59.868262
  longitude: 13.128662

- location: Westbergs Bil
  city: Umeå
  country: Sverige
  latitude: 63.851018
  longitude: 20.3111597

- location: Wheelservice
  city: Virsbo
  country: Sverige
  latitude: 59.864941
  longitude: 16.038286

- location: Yield Retail Borås AB
  city: Borås
  country: Sverige
  latitude: 57.723288
  longitude: 12.987084

- location: Z-verkstan
  city: Östersund
  country: Sverige
  latitude: 63.172810
  longitude: 14.685002

- location: Zackrisson Bil & Däck AB, Br.
  city: Norrköping
  country: Sverige
  latitude: 58.6207426
  longitude: 16.1535526

- location: Åhlanders Bilservice AB
  city: Trollhättan
  country: Sverige
  latitude: 58.2807213225869
  longitude: 12.2861051559448

- location: Åmotfors Bilverkstad
  city: Åmotfors
  country: Sverige
  latitude: 59.768830
  longitude: 12.381703

- location: Ödeshögs Bil & Motor AB
  city: Ödeshög
  country: Sverige
  latitude: 58.233889
  longitude: 14.6737185

- location: Örserums Bilverkstad AB
  city: Gränna
  country: Sverige
  latitude: 58.01018
  longitude: 14.55837


