meta:
  name: MECA Bilservice
  web: https://www.meca.se/
  wikipedia: null
  category: Biltillbehörskedjor
  locations: 339

locations:
- location: Allt i Bil Öckerö AB
  city: Hönö
  country: Sverige
  latitude: 57.699385
  longitude: 11.661785

- location: Torslanda Bilservice AB
  city: Torslanda
  country: Sverige
  latitude: 57.716447
  longitude: 11.779962

- location: Mikaels Bil & Lackcenter AB
  city: Töcksfors
  country: Sverige
  latitude: 59.506049
  longitude: 11.858008

- location: Automagnet AB
  city: Västra Frölunda
  country: Sverige
  latitude: 57.656767
  longitude: 11.900495

- location: Svensk bilförädling AB
  city: Göteborg
  country: Sverige
  latitude: 57.659009
  longitude: 11.932481

- location: Meca bilverkstad i Kungälv
  city: Kungälv
  country: Sverige
  latitude: 57.897633
  longitude: 11.933244

- location: Alvar Jacobsson AB
  city: Ed
  country: Sverige
  latitude: 58.901376
  longitude: 11.945529

- location: SAM Bilmode AB
  city: Göteborg
  country: Sverige
  latitude: 57.731242
  longitude: 11.945664

- location: Brabautoservice AB
  city: Göteborg
  country: Sverige
  latitude: 57.731272
  longitude: 11.947828

- location: Allt i Bil AB
  city: Göteborg
  country: Sverige
  latitude: 57.721546
  longitude: 11.972866

- location: Nordic Auto AB
  city: Göteborg
  country: Sverige
  latitude: 57.724379
  longitude: 11.975418

- location: Centralens.se Bilverkstad
  city: Göteborg
  country: Sverige
  latitude: 57.709862
  longitude: 11.981869

- location: Bil & Lastvagnscenter AB
  city: Uddevalla
  country: Sverige
  latitude: 58.356536
  longitude: 11.989576

- location: Tyrilux Bil AB
  city: Hisings Backa
  country: Sverige
  latitude: 57.772258
  longitude: 11.993349

- location: Göte Carlsson Bilverkstad AB
  city: Hisings kärra
  country: Sverige
  latitude: 57.789682
  longitude: 12.003469

- location: Olskrokens Bilverkstad AB
  city: Göteborg
  country: Sverige
  latitude: 57.7204
  longitude: 12.005332

- location: Bo & Jimmy Bilservice AB
  city: Mölndal
  country: Sverige
  latitude: 57.640349
  longitude: 12.009082

- location: Däckimporten i Göteborg AB
  city: Göteborg
  country: Sverige
  latitude: 57.75497
  longitude: 12.010112

- location: Eco Bilvård i Göteborg AB
  city: Göteborg
  country: Sverige
  latitude: 57.702023
  longitude: 12.013959

- location: Auto-Agentur i Mölndal AB
  city: Mölndal
  country: Sverige
  latitude: 57.642598
  longitude: 12.029732

- location: Einarssons Bil AB
  city: Kungsbacka
  country: Sverige
  latitude: 57.482313
  longitude: 12.081265

- location: Kungsbacka Bilcentrum AB
  city: Kungsbacka
  country: Sverige
  latitude: 57.5099
  longitude: 12.081354

- location: Auto Lounge Kungsbacka AB
  city: Kungsbacka
  country: Sverige
  latitude: 57.48474
  longitude: 12.083244

- location: Bilhuset I Lindome AB
  city: Lindome
  country: Sverige
  latitude: 57.576655
  longitude: 12.0911

- location: Bilförsäljning i Mölnlycke AB
  city: Mölnlycke
  country: Sverige
  latitude: 57.655904
  longitude: 12.112321

- location: Däck & Fälg Landvetter AB
  city: Landvetter
  country: Sverige
  latitude: 57.686097
  longitude: 12.159011

- location: Åhlanders Bilservice AB
  city: Trollhättan
  country: Sverige
  latitude: 58.280721
  longitude: 12.286105

- location: Engelbrekts Motor AB
  city: Charlottenberg
  country: Sverige
  latitude: 59.883253
  longitude: 12.294731

- location: B-Bus & Kuman Bilservice AB
  city: Trollhättan
  country: Sverige
  latitude: 58.281928
  longitude: 12.307477

- location: Bilfocus i Trollhättan AB
  city: Trollhättan
  country: Sverige
  latitude: 58.27662
  longitude: 12.32135

- location: MECA Verkstadsdrift Trollhättan
  city: Trollhättan
  country: Sverige
  latitude: 58.29365
  longitude: 12.334765

- location: Åmotfors Bilverkstad
  city: Åmotfors
  country: Sverige
  latitude: 59.76883
  longitude: 12.381703

- location: Servicecenter
  city: Falkenberg
  country: Sverige
  latitude: 56.935657
  longitude: 12.522612

- location: Lindes Bilverkstad i Höganäs AB
  city: Höganäs
  country: Sverige
  latitude: 56.212199
  longitude: 12.553487

- location: Bollebygds Bilservice
  city: Bollebygd
  country: Sverige
  latitude: 57.665252
  longitude: 12.557089

- location: LE Däck & Motor HB
  city: Arvika
  country: Sverige
  latitude: 59.676918
  longitude: 12.592242

- location: Bilservice i Kinna AB
  city: Kinna
  country: Sverige
  latitude: 57.512125
  longitude: 12.695587

- location: Eije Petterssons Bil AB
  city: Åmål
  country: Sverige
  latitude: 59.064825
  longitude: 12.700188

- location: MN Berga Bilservice AB
  city: Helsingborg
  country: Sverige
  latitude: 56.072934
  longitude: 12.711606

- location: Däck & Bromsbytarna i Hbg AB
  city: Helsingborg
  country: Sverige
  latitude: 56.007122
  longitude: 12.736039

- location: NIBA Motor AB
  city: Ödåkra
  country: Sverige
  latitude: 56.110137
  longitude: 12.752539

- location: ON Bilservice AB
  city: Helsingborg
  country: Sverige
  latitude: 56.013458
  longitude: 12.763931

- location: Edane Maskinservice
  city: Edane
  country: Sverige
  latitude: 59.627535
  longitude: 12.815612

- location: Sannarps Bil AB
  city: Halmstad
  country: Sverige
  latitude: 56.679525
  longitude: 12.886791

- location: B. Ekstrands Bil & Motor AB
  city: Ängelholm
  country: Sverige
  latitude: 56.317212
  longitude: 12.887202

- location: Getängs Bilservice AB
  city: Borås
  country: Sverige
  latitude: 57.729572
  longitude: 12.91977

- location: Motorakuten i Säffle AB
  city: Säffle
  country: Sverige
  latitude: 59.13735
  longitude: 12.941791

- location: T Wahlgren Bensin & Service AB
  city: Ekeby
  country: Sverige
  latitude: 56.005748
  longitude: 12.962464

- location: Lundmarks Bil & Maskin AB
  city: Vara
  country: Sverige
  latitude: 58.257735
  longitude: 12.965844

- location: Holsljunga Bilservice AB
  city: Holsljunga
  country: Sverige
  latitude: 57.414269
  longitude: 12.978908

- location: Yield Retail Borås AB
  city: Borås
  country: Sverige
  latitude: 57.723288
  longitude: 12.987084

- location: Sparsör Bilteknik AB
  city: Brämhult
  country: Sverige
  latitude: 57.72538
  longitude: 13.010516

- location: Gulf Gånghester
  city: Gånghester
  country: Sverige
  latitude: 57.698025
  longitude: 13.022714

- location: Bengtsson Max Bil & Motor AB
  city: Herrljunga
  country: Sverige
  latitude: 58.081238
  longitude: 13.024486

- location: Hela Bilen
  city: Malmö
  country: Sverige
  latitude: 55.614866
  longitude: 13.033567

- location: Pontus Bilverkstad AB
  city: Malmö
  country: Sverige
  latitude: 55.561829
  longitude: 13.034812

- location: MLV Bilservice AB
  city: Malmö
  country: Sverige
  latitude: 55.614201
  longitude: 13.040689

- location: MMC Malmö AB
  city: Malmö
  country: Sverige
  latitude: 55.568921
  longitude: 13.051646

- location: Din Meko Bilservice i Sverige
  city: Malmö
  country: Sverige
  latitude: 55.551954
  longitude: 13.053989

- location: Tre X Larsson Autoservice AB
  city: Malmö
  country: Sverige
  latitude: 55.566432
  longitude: 13.054655

- location: Sjögrens Bil & Motor AB
  city: Torsby
  country: Sverige
  latitude: 60.14073
  longitude: 13.056598

- location: Madsens Autoteknik
  city: Laholm
  country: Sverige
  latitude: 56.504929
  longitude: 13.061169

- location: Autoscanic AB
  city: Arlöv
  country: Sverige
  latitude: 55.644996
  longitude: 13.082696

- location: Dicks Bil & Motor & Co AB
  city: Lomma
  country: Sverige
  latitude: 55.679241
  longitude: 13.08604

- location: Kågeröds Bilverkstad
  city: Kågeröd
  country: Sverige
  latitude: 55.998063
  longitude: 13.093142

- location: Svenljunga Bilteknik AB
  city: Svenljunga
  country: Sverige
  latitude: 57.500423
  longitude: 13.111045

- location: Wafab Bil AB
  city: Sunne
  country: Sverige
  latitude: 59.868262
  longitude: 13.128662

- location: Eozon Klimator & Bilservice AB
  city: Trelleborg
  country: Sverige
  latitude: 55.381373
  longitude: 13.137584

- location: Bergqvist Gummiverkstad AB
  city: Sunne
  country: Sverige
  latitude: 59.833217
  longitude: 13.149844

- location: MECA Lund
  city: Lund
  country: Sverige
  latitude: 55.719586
  longitude: 13.162256

- location: Verdex AB
  city: Trelleborg
  country: Sverige
  latitude: 55.370665
  longitude: 13.170141

- location: TBS Bilservice
  city: Trelleborg
  country: Sverige
  latitude: 55.36782
  longitude: 13.213076

- location: Gislövs Bil & Plåt
  city: Trelleborg
  country: Sverige
  latitude: 55.390066
  longitude: 13.236896

- location: Fordonshuset i Svedala AB
  city: Svedala
  country: Sverige
  latitude: 55.51843
  longitude: 13.240212

- location: Svedala Bil & Motor AB
  city: Svedala
  country: Sverige
  latitude: 55.511525
  longitude: 13.253325

- location: Andersson & Larsson Bilservice
  city: Eslöv
  country: Sverige
  latitude: 55.831392
  longitude: 13.305233

- location: Landsvägens Bensin & Service
  city: Anderslöv
  country: Sverige
  latitude: 55.440026
  longitude: 13.309295

- location: AN Auto Center i Gårdstånga
  city: Flyinge
  country: Sverige
  latitude: 55.763573
  longitude: 13.312485

- location: Kils Allservice AB
  city: Kil
  country: Sverige
  latitude: 59.499744
  longitude: 13.333193

- location: Mikkes Bilservice AB
  city: Floby
  country: Sverige
  latitude: 58.128803
  longitude: 13.335207

- location: Tranemo Däckservice AB
  city: Tranemo
  country: Sverige
  latitude: 57.503226
  longitude: 13.340132

- location: MECA Bogesunds Bil
  city: Tranemo
  country: Sverige
  latitude: 57.495794
  longitude: 13.340818

- location: Ulricehamns Autoservice
  city: Ulricehamn
  country: Sverige
  latitude: 57.804781
  longitude: 13.411431

- location: Kungshult Bilservice
  city: Eslöv
  country: Sverige
  latitude: 55.853189
  longitude: 13.413702

- location: MB Service AB
  city: Karlstad
  country: Sverige
  latitude: 59.426116
  longitude: 13.422919

- location: Auto & Mechanics LC AB
  city: Löberöd
  country: Sverige
  latitude: 55.744131
  longitude: 13.439891

- location: Ulricehamns Bil & Kaross AB
  city: Ulricehamn
  country: Sverige
  latitude: 57.803844
  longitude: 13.443811

- location: Cityverkstaden i Karlstad AB
  city: Karlstad
  country: Sverige
  latitude: 59.38681
  longitude: 13.479104

- location: 47 i Skurup AB
  city: Skurup
  country: Sverige
  latitude: 55.490011
  longitude: 13.483382

- location: M+ Åre/Järpen AB
  city: Järpen
  country: Sverige
  latitude: 63.342338
  longitude: 13.48352

- location: Isaks Servicecenter AB
  city: Blidsberg
  country: Sverige
  latitude: 57.929576
  longitude: 13.493871

- location: Bilverkstad i Hammarö AB
  city: Hammarö
  country: Sverige
  latitude: 59.346692
  longitude: 13.502326

- location: Kenny Håkansson
  city: Hede
  country: Sverige
  latitude: 62.42015
  longitude: 13.515004

- location: Rolfs Bilservice
  city: Harlösa
  country: Sverige
  latitude: 55.71643
  longitude: 13.528678

- location: Johan Hagberg Bil & Motor AB
  city: Karlstad
  country: Sverige
  latitude: 59.377585
  longitude: 13.551062

- location: Bil & Maskin AB
  city: Munkfors
  country: Sverige
  latitude: 59.848514
  longitude: 13.558967

- location: Ingemarssons Bilservice AB
  city: Falköping
  country: Sverige
  latitude: 58.162797
  longitude: 13.570234

- location: Tonys Bilservice i Markaryd AB
  city: Markaryd
  country: Sverige
  latitude: 56.458043
  longitude: 13.594072

- location: Tagessons Bilservice AB
  city: Markaryd
  country: Sverige
  latitude: 56.464805
  longitude: 13.598805

- location: AT Däck & Rekondcenter AB
  city: Markaryd
  country: Sverige
  latitude: 56.473947
  longitude: 13.602973

- location: E/K Service
  city: Hörby
  country: Sverige
  latitude: 55.846723
  longitude: 13.658624

- location: Peter Lundells Motorsport AB
  city: Sjöbo
  country: Sverige
  latitude: 55.636348
  longitude: 13.683708

- location: Bilhallen i Hagfors AB
  city: Hagfors
  country: Sverige
  latitude: 60.04141
  longitude: 13.70746

- location: Johan Hagberg Bil & Motor AB
  city: Molkom
  country: Sverige
  latitude: 59.6066
  longitude: 13.741686

- location: A. Boström Autoservice
  city: Hässleholm
  country: Sverige
  latitude: 56.152492
  longitude: 13.771483

- location: Däckcenter Ystad Lasses Vulk AB
  city: Ystad
  country: Sverige
  latitude: 55.444546
  longitude: 13.805566

- location: Lundgruppen
  city: Mariestad
  country: Sverige
  latitude: 58.711741
  longitude: 13.835977

- location: Bilskadecenter Skövde AB
  city: Skövde
  country: Sverige
  latitude: 58.393085
  longitude: 13.878638

- location: Autofix i Ljungby HB
  city: Ljungby
  country: Sverige
  latitude: 56.828042
  longitude: 13.927292

- location: LEKI Bilservice AB
  city: Tomelilla
  country: Sverige
  latitude: 55.551729
  longitude: 13.956188

- location: Scandium i Lagan AB
  city: Lagan
  country: Sverige
  latitude: 56.941583
  longitude: 14.006505

- location: Heeds Bil & Vulk
  city: Älvdalen
  country: Sverige
  latitude: 61.236145
  longitude: 14.032857

- location: Värnamo Bil & MC-service AB
  city: Värnamo
  country: Sverige
  latitude: 57.189631
  longitude: 14.034126

- location: Björkedals Verkstads AB
  city: Kristianstad
  country: Sverige
  latitude: 56.000244
  longitude: 14.05884

- location: Broby Bilservice AB
  city: Broby
  country: Sverige
  latitude: 56.250614
  longitude: 14.072542

- location: Däck & Fälgar AB / First Stop Knislinge
  city: Knislinge
  country: Sverige
  latitude: 56.187469
  longitude: 14.084049

- location: Bilservice i Everöd AB
  city: Everöd
  country: Sverige
  latitude: 55.900484
  longitude: 14.090532

- location: Hällstorps Bil AB Skillingaryd
  city: Skillingaryd
  country: Sverige
  latitude: 57.453509
  longitude: 14.090913

- location: Habo Bil & Motor, Uno-X 99691
  city: Habo
  country: Sverige
  latitude: 57.899986
  longitude: 14.096338

- location: Sandor & Lasse’S Bilservice  AB
  city: Norrahammar
  country: Sverige
  latitude: 57.69213
  longitude: 14.106932

- location: Fändriks Fordonsteknik AB
  city: Kristinehamn
  country: Sverige
  latitude: 59.303113
  longitude: 14.123867

- location: Lundströms i Bor
  city: Bor
  country: Sverige
  latitude: 57.117734
  longitude: 14.152366

- location: Kristianstad Däck & Bilservice AB
  city: Kristianstad
  country: Sverige
  latitude: 56.01195
  longitude: 14.154446

- location: Tibro Autoservice AB
  city: Tibro
  country: Sverige
  latitude: 58.430144
  longitude: 14.157417

- location: Torpa Service AB
  city: Jönköping
  country: Sverige
  latitude: 57.76467
  longitude: 14.171259

- location: Maxibil center AB
  city: Jönköping
  country: Sverige
  latitude: 57.766068
  longitude: 14.172318

- location: Br. Jeppsons Bil & Traktor
  city: Borrby
  country: Sverige
  latitude: 55.452472
  longitude: 14.177728

- location: R & T Jonsons Bil AB
  city: Huskvarna
  country: Sverige
  latitude: 57.791894
  longitude: 14.263485

- location: Husbilsspecialisten i Tenhult AB
  city: Tenhult
  country: Sverige
  latitude: 57.71234
  longitude: 14.316123

- location: Simrishamns Bilservice AB
  city: Simrishamn
  country: Sverige
  latitude: 55.555047
  longitude: 14.344513

- location: Kårwiks Bilverkstad AB
  city: Svenstavik
  country: Sverige
  latitude: 62.771976
  longitude: 14.442407

- location: Bodefälts Bilservice AB
  city: Vrigstad
  country: Sverige
  latitude: 57.379348
  longitude: 14.464416

- location: Gränna Bensin & Service AB
  city: Gränna
  country: Sverige
  latitude: 58.028607
  longitude: 14.474477

- location: Highway Performance AB
  city: Bromölla
  country: Sverige
  latitude: 56.064828
  longitude: 14.478974

- location: Frösöns Fordonsservice
  city: Frösön
  country: Sverige
  latitude: 63.195049
  longitude: 14.483305

- location: Eriks Bilservice i Hackås AB
  city: Hackås
  country: Sverige
  latitude: 62.914662
  longitude: 14.524978

- location: Skogs Bilvaruhus AB
  city: Mora
  country: Sverige
  latitude: 61.017864
  longitude: 14.53782

- location: Venczels Bil & Maskin AB
  city: Olofström
  country: Sverige
  latitude: 56.25987
  longitude: 14.551304

- location: Alvesta Bil & Riktning AB
  city: Alvesta
  country: Sverige
  latitude: 56.90157
  longitude: 14.55433

- location: Örserums Bilverkstad AB
  city: Gränna
  country: Sverige
  latitude: 58.01018
  longitude: 14.55837

- location: Hanson Motor i Mora AB
  city: Mora
  country: Sverige
  latitude: 61.003469
  longitude: 14.580364

- location: MABIL Verkstad AB
  city: Frösön
  country: Sverige
  latitude: 63.175843
  longitude: 14.590479

- location: KG Olsson Bilrep & Bensin
  city: Föllinge
  country: Sverige
  latitude: 63.671147
  longitude: 14.620977

- location: Kaptens Motor AB
  city: Orsa
  country: Sverige
  latitude: 61.116195
  longitude: 14.623913

- location: Laxviks fordonsservice
  city: Östersund
  country: Sverige
  latitude: 63.214978
  longitude: 14.640391

- location: MECA+ bilverkstad & bilservice i Östersund
  city: Östersund
  country: Sverige
  latitude: 63.19015
  longitude: 14.647924

- location: Bil & Lastvagnsservice
  city: Sävsjö
  country: Sverige
  latitude: 57.395417
  longitude: 14.648106

- location: Ödeshögs Bil & Motor AB
  city: Ödeshög
  country: Sverige
  latitude: 58.233889
  longitude: 14.673718

- location: Z-verkstan
  city: Östersund
  country: Sverige
  latitude: 63.17281
  longitude: 14.685002

- location: Hullaryds Bilservice AB
  city: Aneby
  country: Sverige
  latitude: 57.919508
  longitude: 14.724236

- location: Atracco Auto AB
  city: Växjö
  country: Sverige
  latitude: 56.887527
  longitude: 14.773492

- location: AT Bilcenter AB
  city: Aneby
  country: Sverige
  latitude: 57.82688
  longitude: 14.811732

- location: Kitts Garage AB
  city: Växjö
  country: Sverige
  latitude: 56.909016
  longitude: 14.831191

- location: Kristineberg Motor AB
  city: Karlshamn
  country: Sverige
  latitude: 56.182744
  longitude: 14.851241

- location: JF:s Fordonsteknik Växjö AB
  city: Växjö
  country: Sverige
  latitude: 56.923875
  longitude: 14.859545

- location: Lekebergs motor
  city: Fjugesta
  country: Sverige
  latitude: 59.16916
  longitude: 14.877452

- location: Autoekonomi I Askersund AB
  city: Askersund
  country: Sverige
  latitude: 58.886896
  longitude: 14.913106

- location: Eksjö Motorcentrum AB
  city: Eksjö
  country: Sverige
  latitude: 57.650666
  longitude: 14.95217

- location: Norbergs Bil & Plåt
  city: Nyhammar
  country: Sverige
  latitude: 60.29165
  longitude: 14.970618

- location: Josefssons Motor AB
  city: Eksjö
  country: Sverige
  latitude: 57.662956
  longitude: 14.987978

- location: 63 Motors AB
  city: Eksjö
  country: Sverige
  latitude: 57.664233
  longitude: 14.991953

- location: Eksjö Bilaffär AB
  city: Eksjö
  country: Sverige
  latitude: 57.664298
  longitude: 14.99263

- location: A & P Gustavsson Däck
  city: Tingsryd
  country: Sverige
  latitude: 56.517046
  longitude: 14.994493

- location: Däckexperten i Motala AB
  city: Motala
  country: Sverige
  latitude: 58.537492
  longitude: 15.015012

- location: Bilverkstan i Leksand AB
  city: Leksand
  country: Sverige
  latitude: 60.722549
  longitude: 15.019535

- location: TR Bilservice AB
  city: Nora
  country: Sverige
  latitude: 59.531413
  longitude: 15.030555

- location: Hugos AB
  city: Vetlanda
  country: Sverige
  latitude: 57.419286
  longitude: 15.057329

- location: Motala Fordonsreparationer AB
  city: Motala
  country: Sverige
  latitude: 58.557403
  longitude: 15.057916

- location: Thörnberg i Vetlanda AB
  city: Vetlanda
  country: Sverige
  latitude: 57.42006
  longitude: 15.08084

- location: Bilhuset Kumla AB
  city: Kumla
  country: Sverige
  latitude: 59.151497
  longitude: 15.139341

- location: Motorcentrumverkstad Kumla AB
  city: Kumla
  country: Sverige
  latitude: 59.12146
  longitude: 15.143618

- location: Billagret i Örebro AB
  city: Örebro
  country: Sverige
  latitude: 59.229525
  longitude: 15.145286

- location: Autowork i Örebro AB
  city: Örebro
  country: Sverige
  latitude: 59.260608
  longitude: 15.161217

- location: Mellringe Servicestation AB
  city: Örebro
  country: Sverige
  latitude: 59.294928
  longitude: 15.16727

- location: Fastmec AB
  city: Ludvika
  country: Sverige
  latitude: 60.140956
  longitude: 15.17725

- location: Aspholmens Bil & Diesel Teknik
  city: Örebro
  country: Sverige
  latitude: 59.261658
  longitude: 15.183455

- location: Bertil Björkman Bil AB
  city: Ludvika
  country: Sverige
  latitude: 60.148866
  longitude: 15.207519

- location: Björkmans Bil Lindesberg
  city: Lindesberg
  country: Sverige
  latitude: 59.563735
  longitude: 15.229535

- location: Gällö Bil & Motor
  city: Gällö
  country: Sverige
  latitude: 62.916464
  longitude: 15.235293

- location: Bilval i Blekinge AB
  city: Kallinge
  country: Sverige
  latitude: 56.2333
  longitude: 15.2833

- location: Bruzaholms Bil AB
  city: Bruzaholm
  country: Sverige
  latitude: 57.641095
  longitude: 15.290032

- location: Autodrive
  city: Borlänge
  country: Sverige
  latitude: 60.470884
  longitude: 15.40346

- location: Dahlbäck Racing AB
  city: Borlänge
  country: Sverige
  latitude: 60.471811
  longitude: 15.425509

- location: Bertil Björkman Bil AB
  city: Borlänge
  country: Sverige
  latitude: 60.479618
  longitude: 15.440036

- location: MECA BJURSÅS
  city: Bjursås
  country: Sverige
  latitude: 60.725336
  longitude: 15.446874

- location: LTE Bil AB
  city: Borlänge
  country: Sverige
  latitude: 60.466014
  longitude: 15.455735

- location: BoBo:s Däck AB
  city: Stora Mellösa
  country: Sverige
  latitude: 59.208977
  longitude: 15.499802

- location: Forsbergs Fritidscenter
  city: Linköping
  country: Sverige
  latitude: 58.400715
  longitude: 15.54677

- location: Br Hörlings Bilservice AB
  city: Linköping
  country: Sverige
  latitude: 58.40078
  longitude: 15.548174

- location: Peters Bil & Däckservice AB
  city: Mariannelund
  country: Sverige
  latitude: 57.618941
  longitude: 15.589056

- location: Bertil Björkman Bil AB
  city: Falun
  country: Sverige
  latitude: 60.608812
  longitude: 15.595532

- location: All Cars Sweden AB
  city: Linköping
  country: Sverige
  latitude: 58.421957
  longitude: 15.622009

- location: Falu Bilservice AB
  city: Falun
  country: Sverige
  latitude: 60.598363
  longitude: 15.623031

- location: Däckservice i Kinda AB
  city: Kisa
  country: Sverige
  latitude: 57.982058
  longitude: 15.636925

- location: Fordonsteamet i Linköping AB
  city: Linköping
  country: Sverige
  latitude: 58.41577
  longitude: 15.641478

- location: Kisa Bilservice
  city: Kisa
  country: Sverige
  latitude: 58.001421
  longitude: 15.642744

- location: Thoréns Bilservice
  city: Linköping
  country: Sverige
  latitude: 58.422087
  longitude: 15.672607

- location: R sport Sweden AB
  city: Säter
  country: Sverige
  latitude: 60.330239
  longitude: 15.781666

- location: Sonstorp Bil & Skadecenter AB
  city: Finspång
  country: Sverige
  latitude: 58.699947
  longitude: 15.817933

- location: Bilcenter Vimmerby AB
  city: Vimmerby
  country: Sverige
  latitude: 57.659423
  longitude: 15.850825

- location: P&B BILSERVICE I ARBOGA AB
  city: Arboga
  country: Sverige
  latitude: 59.390878
  longitude: 15.861801

- location: Smålands Bilcentrum AB
  city: Nybro
  country: Sverige
  latitude: 56.74826
  longitude: 15.912642

- location: R-Sport Sweden AB Hedemora
  city: Hedemora
  country: Sverige
  latitude: 60.288602
  longitude: 15.989167

- location: MECA Verkstadsdrift Köping
  city: Köping
  country: Sverige
  latitude: 59.508763
  longitude: 16.005621

- location: Korslycke Bilservice AB
  city: Torsås
  country: Sverige
  latitude: 56.415857
  longitude: 16.021552

- location: Wheelservice
  city: Virsbo
  country: Sverige
  latitude: 59.864941
  longitude: 16.038286

- location: Nisses Allservice
  city: Långshyttan
  country: Sverige
  latitude: 60.421514
  longitude: 16.077654

- location: Ljusdals Bilverkstad AB
  city: Ljusdal
  country: Sverige
  latitude: 61.822021
  longitude: 16.106569

- location: Däck Elit.mk AB
  city: Norrköping
  country: Sverige
  latitude: 58.580373
  longitude: 16.130053

- location: Zackrisson Bil & Däck AB, Br.
  city: Norrköping
  country: Sverige
  latitude: 58.620743
  longitude: 16.153553

- location: Djulö Däck & bilverkstad AB
  city: Katrineholm
  country: Sverige
  latitude: 58.966972
  longitude: 16.194846

- location: Bertil Björkman Bil AB
  city: Avesta
  country: Sverige
  latitude: 60.141537
  longitude: 16.196358

- location: Jonnis Bilverkstad AB
  city: Norrköping
  country: Sverige
  latitude: 58.583163
  longitude: 16.210543

- location: Bilfix i Norrköping AB
  city: Norrköping
  country: Sverige
  latitude: 58.580476
  longitude: 16.23825

- location: Fordonscenter AB
  city: Surahammar
  country: Sverige
  latitude: 59.699217
  longitude: 16.244222

- location: E.M.E Bilservice AB
  city: Kolbäck
  country: Sverige
  latitude: 59.564729
  longitude: 16.245244

- location: Mats Å. Bilservice AB
  city: Hallstahammar
  country: Sverige
  latitude: 59.608456
  longitude: 16.247406

- location: Bilcity Kalmar AB
  city: Kalmar
  country: Sverige
  latitude: 56.675053
  longitude: 16.252505

- location: Bil Skadecenter i Kalmar AB
  city: Kalmar
  country: Sverige
  latitude: 56.676148
  longitude: 16.321822

- location: Lundman Bil AB
  city: Hofors
  country: Sverige
  latitude: 60.526474
  longitude: 16.364183

- location: Tristart Bilverkstad AB
  city: Bollnäs
  country: Sverige
  latitude: 61.343606
  longitude: 16.373663

- location: Tjust Servicecenter HB
  city: Gamleby
  country: Sverige
  latitude: 57.898136
  longitude: 16.403885

- location: Richards Bilservice AB
  city: Gamleby
  country: Sverige
  latitude: 57.89844
  longitude: 16.412613

- location: Bilkompaniet Ekeby AB
  city: Eskilstuna
  country: Sverige
  latitude: 59.375561
  longitude: 16.439393

- location: Eskilstuna Workshop AB
  city: Eskilstuna
  country: Sverige
  latitude: 59.390052
  longitude: 16.46528

- location: F-Hans Bil AB
  city: Västerås
  country: Sverige
  latitude: 59.604524
  longitude: 16.483153

- location: MECA Verkstadsdrift AB
  city: Eskilstuna
  country: Sverige
  latitude: 59.361273
  longitude: 16.509967

- location: Eskilstuna Workshop AB Lite
  city: Eskilstuna
  country: Sverige
  latitude: 59.386818
  longitude: 16.51044

- location: Bjuråkers Service AB
  city: Bjuråker
  country: Sverige
  latitude: 61.881717
  longitude: 16.535565

- location: MD Bilreparationer AB
  city: Eskilstuna
  country: Sverige
  latitude: 59.374095
  longitude: 16.536237

- location: Eskilstuna Fordon AB
  city: Eskilstuna
  country: Sverige
  latitude: 59.374624
  longitude: 16.540889

- location: MECA Verkstadsdrift AB
  city: Västerås
  country: Sverige
  latitude: 59.643219
  longitude: 16.560284

- location: Auto Gruppen i Västerås AB
  city: Västerås
  country: Sverige
  latitude: 59.637414
  longitude: 16.561106

- location: Ove Andersson bil AB
  city: Västerås
  country: Sverige
  latitude: 59.643156
  longitude: 16.564928

- location: Västerås Däck AB
  city: Västerås
  country: Sverige
  latitude: 59.647168
  longitude: 16.567242

- location: TL Motor
  city: Västervik
  country: Sverige
  latitude: 57.77366
  longitude: 16.590281

- location: Stöde Bilservice AB
  city: Stöde
  country: Sverige
  latitude: 62.420536
  longitude: 16.60444

- location: Malmköpings Bilskade o Mek AB
  city: Malmköping
  country: Sverige
  latitude: 59.128326
  longitude: 16.738922

- location: Landbloms Bil AB
  city: Nyköping
  country: Sverige
  latitude: 58.757429
  longitude: 17.01705

- location: MA:S Bilvårdscenter AB
  city: Nyköping
  country: Sverige
  latitude: 58.720065
  longitude: 17.025019

- location: Vattjom Bilcenter
  city: Matfors
  country: Sverige
  latitude: 62.36477
  longitude: 17.03542

- location: Fordon & Biltjänst Söderhamn AB
  city: Söderhamn
  country: Sverige
  latitude: 61.296172
  longitude: 17.035768

- location: Bilpastorn Bara
  city: Oxelösund
  country: Sverige
  latitude: 58.684148
  longitude: 17.065734

- location: A Mårtensson & Co
  city: Söderhamn
  country: Sverige
  latitude: 61.291454
  longitude: 17.072464

- location: Bilkompaniet Hudik AB
  city: Hudiksvall
  country: Sverige
  latitude: 61.737125
  longitude: 17.084749

- location: Solings Däck & Bilservice AB
  city: Söderhamn
  country: Sverige
  latitude: 61.307864
  longitude: 17.094695

- location: JM Bilservice AB
  city: Hudiksvall
  country: Sverige
  latitude: 61.74944
  longitude: 17.10598

- location: Bilpastorn
  city: Oxelösund
  country: Sverige
  latitude: 58.668218
  longitude: 17.106668

- location: JB Motorservice AB
  city: Gävle
  country: Sverige
  latitude: 60.680219
  longitude: 17.147952

- location: Bilvårdshuset Näringen AB
  city: Gävle
  country: Sverige
  latitude: 60.681909
  longitude: 17.155649

- location: Hille Bensin och Service AB
  city: Gävle
  country: Sverige
  latitude: 60.720289
  longitude: 17.1672

- location: Fordonsexperten Kryddstigen AB
  city: Gävle
  country: Sverige
  latitude: 60.655666
  longitude: 17.1743

- location: MECA SOLLEFTEÅ
  city: Sollefteå
  country: Sverige
  latitude: 63.1775
  longitude: 17.222

- location: Bilfix I Sundsvall AB
  city: Sundsvall
  country: Sverige
  latitude: 62.395274
  longitude: 17.25709

- location: Gnesta Allservice AB
  city: Gnesta
  country: Sverige
  latitude: 59.056889
  longitude: 17.29429

- location: Bil & Maskinservice
  city: Sundsvall
  country: Sverige
  latitude: 62.373463
  longitude: 17.345705

- location: Galax Bilservice AB
  city: Sundsbruk
  country: Sverige
  latitude: 62.453354
  longitude: 17.356

- location: Oscars Däck & Verkstad AB
  city: Månkarbo
  country: Sverige
  latitude: 60.22986
  longitude: 17.458948

- location: M.E. Bilverkstad
  city: Vagnhärad
  country: Sverige
  latitude: 58.954698
  longitude: 17.481122

- location: Oscars Däck & Verkstad AB
  city: Tierp
  country: Sverige
  latitude: 60.339538
  longitude: 17.519583

- location: Franssons Maskin
  city: Sorsele
  country: Sverige
  latitude: 65.535924
  longitude: 17.539035

- location: AB Trosa Bil & Motor
  city: Trosa
  country: Sverige
  latitude: 58.907024
  longitude: 17.553381

- location: Librobäck fordonsteknik AB
  city: Uppsala
  country: Sverige
  latitude: 59.88153
  longitude: 17.58189

- location: Uppsala Biltjänst AB
  city: Uppsala
  country: Sverige
  latitude: 59.86798
  longitude: 17.60673

- location: Bil & Diagnosgruppen
  city: Södertälje
  country: Sverige
  latitude: 59.187069
  longitude: 17.628122

- location: Skyttorps Bil & Mek AB
  city: Vattholma
  country: Sverige
  latitude: 60.021884
  longitude: 17.63848

- location: Bilakuten Södertälje AB
  city: Södertälje
  country: Sverige
  latitude: 59.207865
  longitude: 17.643356

- location: Autocenter Uppsala AB
  city: Uppsala
  country: Sverige
  latitude: 59.812144
  longitude: 17.656068

- location: Arina Bilservice
  city: Uppsala
  country: Sverige
  latitude: 59.848043
  longitude: 17.676846

- location: Uppsala Bilcenter AB
  city: Uppsala
  country: Sverige
  latitude: 59.85757
  longitude: 17.687544

- location: Upplands Bilforum AB
  city: Uppsala
  country: Sverige
  latitude: 59.856562
  longitude: 17.693371

- location: Bilsnabben AB
  city: Storvreta
  country: Sverige
  latitude: 59.963087
  longitude: 17.707998

- location: Diameco Uppsala AB
  city: Uppsala
  country: Sverige
  latitude: 59.84272
  longitude: 17.72139

- location: Salem Bil & Plåtverkstad AB
  city: Rönninge
  country: Sverige
  latitude: 59.200783
  longitude: 17.762259

- location: Sundströms Bilservice
  city: Kramfors
  country: Sverige
  latitude: 62.926791
  longitude: 17.784032

- location: Viksjö Center AB
  city: Järfälla
  country: Sverige
  latitude: 59.4134
  longitude: 17.798447

- location: MECA + Knivsta
  city: Knivsta
  country: Sverige
  latitude: 59.741872
  longitude: 17.81258

- location: JC Bilservice AB
  city: Järfälla
  country: Sverige
  latitude: 59.432293
  longitude: 17.826694

- location: Tumba bilservice AB
  city: Tumba
  country: Sverige
  latitude: 59.194917
  longitude: 17.828288

- location: Motordepån i Skälby AB
  city: Järfälla
  country: Sverige
  latitude: 59.405668
  longitude: 17.84287

- location: Stockholms fordonsgrupp AB
  city: Järfälla
  country: Sverige
  latitude: 59.391606
  longitude: 17.848932

- location: Arlandastad Däck AB
  city: Arlandastad
  country: Sverige
  latitude: 59.616171
  longitude: 17.865169

- location: ROSERSBERG BIL & DIAGNOS
  city: Rosersberg
  country: Sverige
  latitude: 59.574937
  longitude: 17.897222

- location: Automek Skärholmen AB
  city: Skärholmen
  country: Sverige
  latitude: 59.27643
  longitude: 17.90581

- location: Segeltorps Bil & Skadecenter
  city: Tullinge
  country: Sverige
  latitude: 59.208012
  longitude: 17.925548

- location: S F G Lackcenter AB
  city: Upplands Väsby
  country: Sverige
  latitude: 59.500808
  longitude: 17.925708

- location: Stockholms Fordonsgrupp Väsby
  city: Upplands Väsby
  country: Sverige
  latitude: 59.521301
  longitude: 17.927854

- location: Henkes Bilservice
  city: Härnösand
  country: Sverige
  latitude: 62.637914
  longitude: 17.932324

- location: Svenska Avgasrör AB
  city: Skärholmen
  country: Sverige
  latitude: 59.295527
  longitude: 17.936501

- location: Nynäs Bil och Diagnos AB
  city: Nynäshamn
  country: Sverige
  latitude: 58.922014
  longitude: 17.939644

- location: Din Magical Full Service
  city: Skärholmen
  country: Sverige
  latitude: 59.29478
  longitude: 17.94079

- location: Alex Däck & Bilservice AB
  city: Huddinge
  country: Sverige
  latitude: 59.231034
  longitude: 17.953567

- location: Automek Bromma AB
  city: Bromma
  country: Sverige
  latitude: 59.346583
  longitude: 17.961917

- location: MECA Sundbyberg
  city: Sundbyberg
  country: Sverige
  latitude: 59.361521
  longitude: 17.973778

- location: Västberga Autoservice AB
  city: Hägersten
  country: Sverige
  latitude: 59.291968
  longitude: 18.008954

- location: Stureby Bilservice AB
  city: Bandhagen
  country: Sverige
  latitude: 59.256989
  longitude: 18.016561

- location: Nordic Car Experten
  city: Stockholm
  country: Sverige
  latitude: 59.336284
  longitude: 18.031073

- location: Automekanik AB
  city: Bandhagen
  country: Sverige
  latitude: 59.26203
  longitude: 18.05804

- location: Servicespecialisten AB
  city: Stockholm
  country: Sverige
  latitude: 59.346449
  longitude: 18.05972

- location: Au2 Bilservice AB
  city: Stockholm
  country: Sverige
  latitude: 59.308827
  longitude: 18.077298

- location: Blixtservice i Stockholm AB
  city: Stockholm
  country: Sverige
  latitude: 59.309627
  longitude: 18.084156

- location: Save Your Car Stockholm AB
  city: Vallentuna
  country: Sverige
  latitude: 59.516193
  longitude: 18.09202

- location: V_H Bilverkstad
  city: Västerhaninge
  country: Sverige
  latitude: 59.12161
  longitude: 18.09251

- location: Service center Östermalm AB
  city: Stockholm
  country: Sverige
  latitude: 59.336454
  longitude: 18.094598

- location: Cemet AB
  city: Farsta
  country: Sverige
  latitude: 59.239216
  longitude: 18.114341

- location: AB Sture Karlbergs
  city: Skogås
  country: Sverige
  latitude: 59.204643
  longitude: 18.118697

- location: Täby Bil & Diagnos
  city: Täby
  country: Sverige
  latitude: 59.46589
  longitude: 18.128977

- location: Stiven Bilverkstad
  city: Handen
  country: Sverige
  latitude: 59.170221
  longitude: 18.151355

- location: AB Vendelsö Personbilar
  city: Vendelsö
  country: Sverige
  latitude: 59.190974
  longitude: 18.177942

- location: Jockes Bilservice Route 140 AB
  city: Klintehamn
  country: Sverige
  latitude: 57.390659
  longitude: 18.198189

- location: A Mechanics AB
  city: Tyresö
  country: Sverige
  latitude: 59.252316
  longitude: 18.202254

- location: Tyresö Bil & Diagnos AB
  city: Tyresö
  country: Sverige
  latitude: 59.246696
  longitude: 18.217065

- location: Visborgs Motor
  city: Visby
  country: Sverige
  latitude: 57.608972
  longitude: 18.271074

- location: Havdhems Bilservice AB
  city: Havdhem
  country: Sverige
  latitude: 57.159937
  longitude: 18.333816

- location: PG Bilservice AB
  city: Visby
  country: Sverige
  latitude: 57.632408
  longitude: 18.344872

- location: Lycksele Bilservice AB
  city: Lycksele
  country: Sverige
  latitude: 64.585745
  longitude: 18.696054

- location: Botnia Bil & Däck
  city: Örnsköldsvik
  country: Sverige
  latitude: 63.280024
  longitude: 18.740678

- location: Sjöströms Bilservice
  city: Örnsköldsvik
  country: Sverige
  latitude: 63.306505
  longitude: 18.748444

- location: Rotarium AB
  city: Norsjö
  country: Sverige
  latitude: 64.91089
  longitude: 19.497807

- location: Vännäs Bilverkstad AB
  city: Vännäs
  country: Sverige
  latitude: 63.904451
  longitude: 19.749421

- location: Norrlandsgaraget AB
  city: Jokkmokk
  country: Sverige
  latitude: 66.602929
  longitude: 19.818555

- location: Hörnefors Bil & Teknik AB
  city: Hörnefors
  country: Sverige
  latitude: 63.61901
  longitude: 19.90728

- location: Siivonens Mek och Maskin AB
  city: Kiruna
  country: Sverige
  latitude: 67.50453
  longitude: 20.15321

- location: Bilexperten Umeå AB
  city: Röbäck
  country: Sverige
  latitude: 63.81045
  longitude: 20.171987

- location: All-Bilar Assar Boström AB
  city: Umeå
  country: Sverige
  latitude: 63.840084
  longitude: 20.196261

- location: Norrlands Bilverkstad
  city: Umeå
  country: Sverige
  latitude: 63.85307
  longitude: 20.210359

- location: Car Service Väst AB
  city: Umeå
  country: Sverige
  latitude: 63.838421
  longitude: 20.244

- location: Westbergs Bil
  city: Umeå
  country: Sverige
  latitude: 63.851018
  longitude: 20.31116

- location: Södermans Bilservice
  city: Holmsund
  country: Sverige
  latitude: 63.709882
  longitude: 20.37112

- location: Gällivare Bilteknik AB
  city: Gällivare
  country: Sverige
  latitude: 67.146903
  longitude: 20.653776

- location: Sikeå Bil & Rep
  city: Robertfors
  country: Sverige
  latitude: 64.168593
  longitude: 20.922196

- location: Bilmäklar´N i Skellefteå AB
  city: Skellefteå
  country: Sverige
  latitude: 64.7376
  longitude: 20.959508

- location: Autoakuten i Skellefteå AB
  city: Skellefteå
  country: Sverige
  latitude: 64.731399
  longitude: 20.962111

- location: Persson Maskin AB
  city: Kåge
  country: Sverige
  latitude: 64.83571
  longitude: 20.98453

- location: MOWOS Custom & Service
  city: Piteå
  country: Sverige
  latitude: 65.340914
  longitude: 21.398913

- location: BilBoden AB
  city: Boden
  country: Sverige
  latitude: 65.820515
  longitude: 21.6963

- location: Lundmarks Bil & Motor AB
  city: Gammelstad
  country: Sverige
  latitude: 65.628508
  longitude: 22.051907

- location: KL Bil & Motor i Luleå AB
  city: Luleå
  country: Sverige
  latitude: 65.57994
  longitude: 22.191827

- location: M Funck i Pajala AB
  city: Pajala
  country: Sverige
  latitude: 67.209507
  longitude: 23.368797
