meta:
  name: MyWay
  web: http://www.mywaybutikerna.se/
  wikipedia: null
  category: Servicebutiker
  locations: 137

locations:
- location: MyWay Slussen T-bana
  urn: urn:myway:store:id:1168
  city: Stockholm
  latitude: 59.319486
  longitude: 18.072151

- location: MyWay Cortado
  urn: urn:myway:store:id:1087
  city: Stockholm
  latitude: 59.340326
  longitude: 18.059213

- location: MyWay Turhörnan
  urn: urn:myway:store:id:1194
  city: Stockholm
  latitude: 59.343366
  longitude: 18.050712

- location: MyWay Odenplan T-bana
  urn: urn:myway:store:id:1148
  city: Stockholm
  latitude: 59.343057
  longitude: 18.049491

- location: MyWay Rosenlundsgatan 23-25
  urn: urn:myway:store:id:1157
  city: Stockholm
  latitude: 59.312966
  longitude: 18.057757

- location: MyWay Odengatan
  urn: urn:myway:store:id:1147
  city: Stockholm
  latitude: 59.346642
  longitude: 18.06552

- location: MyWay Iskristallen
  urn: urn:myway:store:id:1117
  city: Stockholm
  latitude: 59.331631
  longitude: 18.023256

- location: MyWay Liljeholmstorget
  urn: urn:myway:store:id:1130
  city: Stockholm
  latitude: 59.309396
  longitude: 18.022176

- location: MyWay Spel & Tobak Gröndal
  urn: urn:myway:store:id:1179
  city: Stockholm
  latitude: 59.315957
  longitude: 18.010597

- location: MyWay Hammarbyhöjden
  urn: urn:myway:store:id:1111
  city: JOHANNESHOV
  latitude: 59.294981
  longitude: 18.101792

- location: MyWay Björkhagen
  urn: urn:myway:store:id:1078
  city: Johanneshov
  latitude: 59.2911
  longitude: 18.115814

- location: MyWay Skogskyrkogården
  urn: urn:myway:store:id:1167
  city: Enskede
  latitude: 59.279246
  longitude: 18.095268

- location: MyWay Godis & Tobak i Hägersten
  urn: urn:myway:store:id:1096
  city: Hägersten
  latitude: 59.296437
  longitude: 17.983911

- location: MyWay Stop n Shop
  urn: urn:myway:store:id:1184
  city: Sundbyberg
  latitude: 59.360943
  longitude: 17.972749

- location: MyWay Tallkrogen T-banestation
  urn: urn:myway:store:id:1190
  city: Enskede
  latitude: 59.271256
  longitude: 18.08525

- location: MyWay Bandhagens T-banestation
  urn: urn:myway:store:id:1077
  city: Bandhagen
  latitude: 59.270532
  longitude: 18.04967

- location: MyWay 77:an
  urn: urn:myway:store:id:1074
  city: Solna
  latitude: 59.368458
  longitude: 17.979857

- location: MyWay Västertorp
  urn: urn:myway:store:id:1202
  city: Hägersten
  latitude: 59.29376
  longitude: 17.966603

- location: MyWay Danderyds Bussterminal
  urn: urn:myway:store:id:1088
  city: Danderyd
  latitude: 59.391374
  longitude: 18.043214

- location: MyWay Majella
  urn: urn:myway:store:id:1134
  city: Danderyd
  latitude: 59.391904
  longitude: 18.041372

- location: MyWay Gubbängens T-banestation
  urn: urn:myway:store:id:1102
  city: Enskede
  latitude: 59.264023
  longitude: 18.082035

- location: MyWay SOS Kiosken
  urn: urn:myway:store:id:1178
  city: Djursholm
  latitude: 59.39744
  longitude: 18.087634

- location: MyWay Hagsätra
  urn: urn:myway:store:id:1109
  city: Hagsätra
  latitude: 59.262802
  longitude: 18.012532

- location: MyWay Åkeshovs T-banestation
  urn: urn:myway:store:id:1205
  city: Bromma
  latitude: 59.34176
  longitude: 17.925651

- location: MyWay Rissne
  urn: urn:myway:store:id:1155
  city: Sundbyberg
  latitude: 59.375339
  longitude: 17.939831

- location: MyWay Sätra spel
  urn: urn:myway:store:id:1187
  city: Skärholmen
  latitude: 59.284984
  longitude: 17.92137

- location: MyWay Rinkebystråket
  urn: urn:myway:store:id:1154
  city: Spånga
  latitude: 59.390176
  longitude: 17.927602

- location: MyWay Kista T-bana Södra hallen
  urn: urn:myway:store:id:1124
  city: Kista
  latitude: 59.400502
  longitude: 17.945858

- location: MyWay Blackeberg
  urn: urn:myway:store:id:1079
  city: Bromma
  latitude: 59.348116
  longitude: 17.883592

- location: MyWay Råcksta
  urn: urn:myway:store:id:1161
  city: Kista
  latitude: 59.40033
  longitude: 17.939104

- location: MyWay Vällingbypark
  urn: urn:myway:store:id:1347
  city: Kista
  latitude: 59.40033
  longitude: 17.939104

- location: MyWay Näsby Park
  urn: urn:myway:store:id:1145
  city: Täby
  latitude: 59.430628
  longitude: 18.095486

- location: MyWay Huddinge Pendeltågstation
  urn: urn:myway:store:id:1115
  city: Huddinge
  latitude: 59.236814
  longitude: 17.979079

- location: MyWay Morgons Vårberg
  urn: urn:myway:store:id:1136
  city: Skärholmen
  latitude: 59.273388
  longitude: 17.892689

- location: MyWay Godissvampen
  urn: urn:myway:store:id:1098
  city: Tyresö
  latitude: 59.2448
  longitude: 18.218837

- location: MyWay Gribbylund
  urn: urn:myway:store:id:1101
  city: Täby
  latitude: 59.462235
  longitude: 18.089685

- location: MyWay Riddarkiosken
  urn: urn:myway:store:id:1153
  city: Järfälla
  latitude: 59.424154
  longitude: 17.834382

- location: Myway Jakobsbergs Station
  urn: urn:myway:store:id:1118
  city: Järfälla
  latitude: 59.422908
  longitude: 17.832114

- location: MyWay Viksjö Tobak
  urn: urn:myway:store:id:1198
  city: Järfälla
  latitude: 59.402291
  longitude: 17.80236

- location: MyWay Norsborg T-bana
  urn: urn:myway:store:id:1139
  city: Norsborg
  latitude: 59.24476
  longitude: 17.813543

- location: MyWay Norsborg Centrum
  urn: urn:myway:store:id:1138
  city: Norsborg
  latitude: 59.24476
  longitude: 17.813543

- location: Olles Kiosk I Viksjö AB
  urn: urn:myway:store:id:1207
  city: Järfälla
  latitude: 59.412106
  longitude: 17.801168

- location: MyWay Passerbybyrån
  urn: urn:myway:store:id:1150
  city: Sollentuna
  latitude: 59.476336
  longitude: 17.912306

- location: MyWay Salem
  urn: urn:myway:store:id:1162
  city: Rönninge
  latitude: 59.20197
  longitude: 17.766556

- location: MyWay Väsby
  urn: urn:myway:store:id:1201
  city: Upplands Väsby
  latitude: 59.518564
  longitude: 17.912201

- location: MyWay Körsbärsblomman
  urn: urn:myway:store:id:1129
  city: Södertälje
  latitude: 59.200131
  longitude: 17.631266

- location: MyWay Nygatan
  urn: urn:myway:store:id:1141
  city: Södertälje
  latitude: 59.196364
  longitude: 17.624386

- location: MyWay Järna
  urn: urn:myway:store:id:1407
  city: Järna
  latitude: 59.090177
  longitude: 17.564896

- location: MyWay Shad Livs
  urn: urn:myway:store:id:1164
  city: Knivsta
  latitude: 59.723135
  longitude: 17.793452

- location: MyWay Nynäshamn
  urn: urn:myway:store:id:1414
  city: Nynäshamn
  latitude: 58.903021
  longitude: 17.948638

- location: MyWay Trosa
  urn: urn:myway:store:id:1461
  city: Vagnhärad
  latitude: 58.947373
  longitude: 17.501468

- location: MyWay Stationshuset
  urn: urn:myway:store:id:1182
  city: Strängnäs
  latitude: 59.370412
  longitude: 17.028203

- location: MyWay H Kiosken
  urn: urn:myway:store:id:1106
  city: Norrtälje
  latitude: 59.759003
  longitude: 18.702336

- location: MyWay Uppsala
  urn: urn:myway:store:id:1195
  city: Uppsala
  latitude: 59.859279
  longitude: 17.641557

- location: MyWay Portalens Livs & Tobak
  urn: urn:myway:store:id:1151
  city: Uppsala
  latitude: 59.869081
  longitude: 17.639202

- location: MyWay Råbyvägen
  urn: urn:myway:store:id:1160
  city: Uppsala
  latitude: 59.870904
  longitude: 17.64771

- location: MyWay Stinsen
  urn: urn:myway:store:id:1183
  city: Enköping
  latitude: 59.644448
  longitude: 17.087932

- location: MyWay Nyköping
  urn: urn:myway:store:id:1142
  city: Nyköping
  latitude: 58.753696
  longitude: 17.015338

- location: MyWay Fristadstorget AB
  urn: urn:myway:store:id:1094
  city: Eskilstuna
  latitude: 59.371485
  longitude: 16.514668

- location: MyWay Gallerian
  urn: urn:myway:store:id:1095
  city: Västerås
  latitude: 59.609712
  longitude: 16.546785

- location: MyWay Natti Sala
  urn: urn:myway:store:id:1137
  city: Sala
  latitude: 59.918734
  longitude: 16.609433

- location: MyWay Åby
  urn: urn:myway:store:id:1204
  city: Norrköping
  latitude: 58.66523
  longitude: 16.181237

- location: MyWay Viking Tobak
  urn: urn:myway:store:id:1197
  city: Norrköping
  latitude: 58.59099
  longitude: 16.185742

- location: MyWay Pak Vision
  urn: urn:myway:store:id:1149
  city: Norrköping
  latitude: 58.586744
  longitude: 16.186855

- location: MyWay Kungs video Norrköping
  urn: urn:myway:store:id:1128
  city: Norrköping
  latitude: 58.591509
  longitude: 16.177602

- location: MyWay Haga
  urn: urn:myway:store:id:1108
  city: Norrköping
  latitude: 58.599802
  longitude: 16.159924

- location: MyWay Kiosken Freda
  urn: urn:myway:store:id:1123
  city: Valdemarsvik
  latitude: 58.204033
  longitude: 16.601859

- location: MyWay Sörby butik
  urn: urn:myway:store:id:1341
  city: Gävle
  latitude: 60.66199
  longitude: 17.143192

- location: MyWay Escape Gaming
  urn: urn:myway:store:id:1337
  city: Gävle
  latitude: 60.668186
  longitude: 17.150629

- location: MyWay Klöver Ess
  urn: urn:myway:store:id:1125
  city: Gävle
  latitude: 60.674725
  longitude: 17.143456

- location: MyWay Gävlestrand
  urn: urn:myway:store:id:1105
  city: Gävle
  latitude: 60.678643
  longitude: 17.162907

- location: MyWay Centrum Butik
  urn: urn:myway:store:id:1467
  city: Sandviken
  latitude: 60.620529
  longitude: 16.776213

- location: MyWay A-Jouren
  urn: urn:myway:store:id:1075
  city: Örebro
  latitude: 59.27768
  longitude: 15.215151

- location: MyWay Stalltipset
  urn: urn:myway:store:id:1181
  city: Örebro
  latitude: 59.257032
  longitude: 15.210248

- location: MyWay Videotoppen
  urn: urn:myway:store:id:1196
  city: Linköping
  latitude: 58.380572
  longitude: 15.68043

- location: MyWay Centrumkiosken
  urn: urn:myway:store:id:1082
  city: Ockelbo
  latitude: 60.890668
  longitude: 16.718095

- location: MyWay Lännakiosken
  urn: urn:myway:store:id:1132
  city: Visby
  latitude: 57.629628
  longitude: 18.296319

- location: MyWay Jockes Bilservice
  urn: urn:myway:store:id:1119
  city: Klintehamn
  latitude: 57.390686
  longitude: 18.198213

- location: My Way Klinte Kiosk & Spel
  urn: urn:myway:store:id:1073
  city: Klintehamn
  latitude: 57.387282
  longitude: 18.199988

- location: MyWay Hemse
  urn: urn:myway:store:id:1072
  city: Hemse
  latitude: 57.240024
  longitude: 18.377341

- location: MyWay Tibro
  urn: urn:myway:store:id:1349
  city: Tibro
  latitude: 58.41933
  longitude: 14.175299

- location: Myway Sött & Salt
  urn: urn:myway:store:id:1189
  city: Mariestad
  latitude: 58.709961
  longitude: 13.823329

- location: Myway Skoghall
  urn: urn:myway:store:id:1166
  city: Skoghall
  latitude: 59.32367
  longitude: 13.466595

- location: Myway Lottas kiosk & minilivs
  urn: urn:myway:store:id:1131
  city: Mariestad
  latitude: 58.641731
  longitude: 13.702043

- location: MyWay Hallonet
  urn: urn:myway:store:id:1110
  city: Skövde
  latitude: 58.398429
  longitude: 13.856625

- location: MyWay Sött & Salt Skövde
  urn: urn:myway:store:id:1345
  city: Skövde
  latitude: 58.390463
  longitude: 13.84764

- location: MyWay Sockerkicken
  urn: urn:myway:store:id:1169
  city: Skövde
  latitude: 58.343779
  longitude: 13.828328

- location: MyWay Magasinet
  urn: urn:myway:store:id:1133
  city: Sunne
  latitude: 59.837831
  longitude: 13.141286

- location: MyWay Express
  urn: urn:myway:store:id:1093
  city: Jönköping
  latitude: 57.783647
  longitude: 14.160245

- location: MyWay Ranten
  urn: urn:myway:store:id:1362
  city: Falköping
  latitude: 58.174489
  longitude: 13.552305

- location: MyWay Sött & Salt Lidköping
  urn: urn:myway:store:id:1343
  city: Lidköping
  latitude: 58.502774
  longitude: 13.162216

- location: MyWay Citybutiken
  urn: urn:myway:store:id:1085
  city: Lidköping
  latitude: 58.504636
  longitude: 13.157642

- location: MyWay Solhagskiosken
  urn: urn:myway:store:id:1170
  city: Lidköping
  latitude: 58.495587
  longitude: 13.158383

- location: MyWay Nybro
  urn: urn:myway:store:id:1140
  city: Nybro
  latitude: 56.728083
  longitude: 15.947338

- location: MyWay Mellerud Enthusiasm
  urn: urn:myway:store:id:1409
  city: Mellerud
  latitude: 58.698896
  longitude: 12.45612

- location: MyWay Vårgårda
  urn: urn:myway:store:id:1200
  city: Vårgårda
  latitude: 58.031633
  longitude: 12.810186

- location: MyWay Sollebrunn
  urn: urn:myway:store:id:1177
  city: Sollebrunn
  latitude: 58.120538
  longitude: 12.531082

- location: MyWay Yx Tobak
  urn: urn:myway:store:id:1203
  city: Borås
  latitude: 57.723368
  longitude: 12.940214

- location: MyWay Mars
  urn: urn:myway:store:id:1135
  city: Trollhättan
  latitude: 58.287358
  longitude: 12.295899

- location: MyWay Kronogårdskiosken
  urn: urn:myway:store:id:1127
  city: Trollhättan
  latitude: 58.270067
  longitude: 12.306276

- location: MyWay Storjouren
  urn: urn:myway:store:id:1185
  city: trollhättan
  latitude: 58.284788
  longitude: 12.285739

- location: MyWay Portkiosken
  urn: urn:myway:store:id:1152
  city: Trollhättan
  latitude: 58.274949
  longitude: 12.289833

- location: MyWay Trestad center
  urn: urn:myway:store:id:1193
  city: Vänersborg
  latitude: 58.339158
  longitude: 12.241478

- location: MyWay Härnösand
  urn: urn:myway:store:id:1116
  city: Härnösand
  latitude: 62.633494
  longitude: 17.938603

- location: MyWay Roy´s Tabaco
  urn: urn:myway:store:id:1158
  city: Uddevalla
  latitude: 58.350869
  longitude: 11.934568

- location: MyWay Tobakslagret
  urn: urn:myway:store:id:1191
  city: Uddevalla
  latitude: 58.34361
  longitude: 11.932703

- location: MyWay Gluggen i Ånge
  urn: urn:myway:store:id:1339
  city: Ånge
  latitude: 62.521772
  longitude: 15.662198

- location: MyWay Bubblan
  urn: urn:myway:store:id:1081
  city: Lerum
  latitude: 57.76938
  longitude: 12.269697

- location: MyWay Hjällbotappen
  urn: urn:myway:store:id:1114
  city: Angered
  latitude: 57.764033
  longitude: 12.014799

- location: MyWay Ånas servicebutik
  urn: urn:myway:store:id:1206
  city: Göteborg
  latitude: 57.720805
  longitude: 12.005564

- location: MyWay Deve
  urn: urn:myway:store:id:1463
  city: Göteborg
  latitude: 57.712823
  longitude: 12.007529

- location: MyWay Sweets ´n Cigars
  urn: urn:myway:store:id:1186
  city: Göteborg
  latitude: 57.714617
  longitude: 11.997793

- location: Myway Gårda Takeaway Ab
  urn: urn:myway:store:id:1103
  city: Göteborg
  latitude: 57.704319
  longitude: 11.992602

- location: MyWay Heden
  urn: urn:myway:store:id:1112
  city: Göteborg
  latitude: 57.700333
  longitude: 11.981368

- location: MyWay Brogatans Servicebutik
  urn: urn:myway:store:id:1080
  city: Mölndal
  latitude: 57.655884
  longitude: 12.016693

- location: MyWay Godisaffären
  urn: urn:myway:store:id:1412
  city: Göteborg
  latitude: 57.69391
  longitude: 11.971268

- location: MyWay H & G:11
  urn: urn:myway:store:id:1107
  city: Göteborg
  latitude: 57.697802
  longitude: 11.965351

- location: MyWay Delfinen
  urn: urn:myway:store:id:1089
  city: Hunnebostrand
  latitude: 58.438221
  longitude: 11.303105

- location: MyWay Ellöskiosken
  urn: urn:myway:store:id:1092
  city: Ellös
  latitude: 58.182851
  longitude: 11.466581

- location: MyWay Alices Kiosk
  urn: urn:myway:store:id:1076
  city: Skärhamn
  latitude: 57.990915
  longitude: 11.54596

- location: MyWay Järnvägskiosken
  urn: urn:myway:store:id:1121
  city: Markaryd
  latitude: 56.458447
  longitude: 13.593923

- location: MyWay Sali
  urn: urn:myway:store:id:1163
  city: Halmstad
  latitude: 56.67329
  longitude: 12.86445

- location: MyWay Kristianstad Tobakshus
  urn: urn:myway:store:id:1126
  city: Kristianstad
  latitude: 56.030086
  longitude: 14.158844

- location: MyWay City Livs
  urn: urn:myway:store:id:1084
  city: Kristianstad
  latitude: 56.029215
  longitude: 14.158745

- location: MyWay Kiosk & Post i Förslöv
  urn: urn:myway:store:id:1122
  city: Förslöv
  latitude: 56.348097
  longitude: 12.816371

- location: MyWay Wonderland
  urn: urn:myway:store:id:1199
  city: Eslöv
  latitude: 55.839495
  longitude: 13.303492

- location: MyWay Gårdstånga
  urn: urn:myway:store:id:1104
  city: Gårdstånga
  latitude: 55.772231
  longitude: 13.318612

- location: Ge Resturanggroppen AB
  urn: urn:myway:store:id:1071
  city: Gårdstånga
  latitude: 55.772231
  longitude: 13.318612

- location: MyWay Sjöbo (Hayek Service Butik)
  urn: urn:myway:store:id:1165
  city: Sjöbo
  latitude: 55.631045
  longitude: 13.701068

- location: MyWay Gotthörnan
  urn: urn:myway:store:id:1100
  city: Hörnefors
  latitude: 63.623298
  longitude: 19.907871

- location: MyWay Gottebordet
  urn: urn:myway:store:id:1099
  city: Malmö
  latitude: 55.605981
  longitude: 13.023565

- location: MyWay Charlies
  urn: urn:myway:store:id:1083
  city: Umeå
  latitude: 63.821848
  longitude: 20.246109

- location: MyWay Rosengård 2
  urn: urn:myway:store:id:1156
  city: Malmö
  latitude: 55.582148
  longitude: 13.054124

- location: MyWay Näsets Video
  urn: urn:myway:store:id:1146
  city: Höllviken   
  latitude: 55.419027
  longitude: 12.953958

- location: MyWay Dorotea
  urn: urn:myway:store:id:1090
  city: Dorotea
  latitude: 64.260949
  longitude: 16.405639

- location: MyWay Centralkiosken
  urn: urn:myway:store:id:1335
  city: Kalix
  latitude: 65.855003
  longitude: 23.139928

- location: MyWay Kullekiosken
  urn: urn:myway:store:id:1465
  city: Koskullskulle
  latitude: 67.184528
  longitude: 20.732494
