meta:
  name: Paroy
  web: https://paroy.se/
  wikipedia: null
  category: Drivmedel
  locations: 42

locations:
- location: Fjärås Lantmannaförening
  city: Fjärås
  country: Sverige
  urn: urn:paroy:station:id:3000
  latitude: 57.43791
  longitude: 12.15311

- location: Paroy Åmotfors
  city: Åmotfors
  country: Sverige
  urn: urn:paroy:station:id:3056
  latitude: 59.7699
  longitude: 12.3788

- location: Paroy Skene
  city: Skene
  country: Sverige
  urn: urn:paroy:station:id:3028
  latitude: 57.49343
  longitude: 12.66467

- location: Paroy Borås Viared Stormgatan
  city: Borås
  country: Sverige
  urn: urn:paroy:station:id:3050
  latitude: 57.6845
  longitude: 12.79303

- location: Paroy Mjöbäck Furulid
  city: Mjöbäck
  country: Sverige
  urn: urn:paroy:station:id:3047
  latitude: 57.3247
  longitude: 12.87819

- location: Paroy Borås Lusharpan Regementsgatan
  city: Borås
  country: Sverige
  urn: urn:paroy:station:id:3070
  latitude: 57.7148
  longitude: 12.91663

- location: Paroy Borås Getängsvägen
  city: Borås
  country: Sverige
  urn: urn:paroy:station:id:3018
  latitude: 57.7296
  longitude: 12.92255

- location: Paroy Borås Galtbacken
  city: Rydboholm
  country: Sverige
  urn: urn:paroy:station:id:3067
  latitude: 57.65441
  longitude: 12.92329

- location: Paroy Brämhult
  city: Brämhult
  country: Sverige
  urn: urn:paroy:station:id:3061
  latitude: 57.72317
  longitude: 13.01137

- location: Paroy Svenljunga Spinnaregatan
  city: Svenljunga
  country: Sverige
  urn: urn:paroy:station:id:3025
  latitude: 57.50457
  longitude: 13.10956

- location: Paroy Hökerum
  city: Hökerum
  country: Sverige
  urn: urn:paroy:station:id:3033
  latitude: 57.84246
  longitude: 13.28985

- location: Paroy Månstad
  city: Månstad
  country: Sverige
  urn: urn:paroy:station:id:3017
  latitude: 57.59945
  longitude: 13.33834

- location: Paroy Tranemo Moavägen
  city: Tranemo
  country: Sverige
  urn: urn:paroy:station:id:3019
  latitude: 57.50289
  longitude: 13.34111

- location: Paroy Ulricehamn Karlsnäsvägen
  city: Ulricehamn
  country: Sverige
  urn: urn:paroy:station:id:3024
  latitude: 57.80952
  longitude: 13.41055

- location: Paroy Smålandsstenar
  city: Smålandstenar
  country: Sverige
  urn: urn:paroy:station:id:3045
  latitude: 57.16571
  longitude: 13.41441

- location: Paroy Ulricehamn Svarvaregatan
  city: Ulricehamn
  country: Sverige
  urn: urn:paroy:station:id:3022
  latitude: 57.83297
  longitude: 13.42781

- location: Paroy Ekshärad
  city: Ekshärad
  country: Sverige
  urn: urn:paroy:station:id:3060
  latitude: 60.1686
  longitude: 13.4929

- location: Paroy Unnaryd
  city: Unnaryd
  country: Sverige
  urn: urn:paroy:station:id:3044
  latitude: 56.96254
  longitude: 13.52756

- location: Paroy Grimsås
  city: Grimsås
  country: Sverige
  urn: urn:paroy:station:id:3048
  latitude: 57.49015
  longitude: 13.55281

- location: Paroy Anderstorp Oljevägen
  city: Anderstorp
  country: Sverige
  urn: urn:paroy:station:id:3042
  latitude: 57.28165
  longitude: 13.61377

- location: Paroy Anderstorp Storgatan
  city: Anderstorp
  country: Sverige
  urn: urn:paroy:station:id:3063
  latitude: 57.28359
  longitude: 13.63986

- location: Paroy Liared
  city: Ulricehamn
  country: Sverige
  urn: urn:paroy:station:id:3065
  latitude: 57.8497
  longitude: 13.715

- location: Paroy Gnosjö Glimmervägen
  city: Gnosjö
  country: Sverige
  urn: urn:paroy:station:id:3051
  latitude: 57.34303
  longitude: 13.74403

- location: Paroy Tomelilla
  city: Tomelilla
  country: Sverige
  urn: urn:paroy:station:id:3049
  latitude: 55.54246
  longitude: 13.96998

- location: Paroy Osby
  city: Osby
  country: Sverige
  urn: urn:paroy:station:id:3046
  latitude: 56.36474
  longitude: 14.01903

- location: Paroy Jönköping Pilotvägen
  city: Jönköping
  country: Sverige
  urn: urn:paroy:station:id:3062
  latitude: 57.74831
  longitude: 14.07241

- location: Paroy Jönköping Kindgrensgatan
  city: Jönköping
  country: Sverige
  urn: urn:paroy:station:id:3006
  latitude: 57.75682
  longitude: 14.14462

- location: Paroy Jönköping Verktygsvägen
  city: Jönköping
  country: Sverige
  urn: urn:paroy:station:id:3007
  latitude: 57.73804
  longitude: 14.16309

- location: Paroy Jönköping Fordonsvägen
  city: Jönköping
  country: Sverige
  urn: urn:paroy:station:id:3005
  latitude: 57.74429
  longitude: 14.1677

- location: Paroy Brandstorp
  city: Brandstorp
  country: Sverige
  urn: urn:paroy:station:id:3002
  latitude: 58.03682
  longitude: 14.17209

- location: Paroy Malmbäck
  city: Malmbäck
  country: Sverige
  urn: urn:paroy:station:id:3008
  latitude: 57.57846
  longitude: 14.45521

- location: Paroy Alvesta
  city: Alvesta
  country: Sverige
  urn: urn:paroy:station:id:3001
  latitude: 56.91136
  longitude: 14.55912

- location: Paroy Stockaryd
  city: Stockaryd
  country: Sverige
  urn: urn:paroy:station:id:3012
  latitude: 57.3146
  longitude: 14.57712

- location: Paroy Sävsjö
  city: Sävsjö
  country: Sverige
  urn: urn:paroy:station:id:3013
  latitude: 57.39485
  longitude: 14.64918

- location: Paroy Nässjö Terminalgatan
  city: Nässjö
  country: Sverige
  urn: urn:paroy:station:id:3011
  latitude: 57.67764
  longitude: 14.68953

- location: Paroy Nässjö Brogatan
  city: Nässjö
  country: Sverige
  urn: urn:paroy:station:id:3009
  latitude: 57.64695
  longitude: 14.69246

- location: Paroy Nässjö Sörängsvägen
  city: Nässjö
  country: Sverige
  urn: urn:paroy:station:id:3010
  latitude: 57.64751
  longitude: 14.72126

- location: Paroy Eksjö Breviksvägen
  city: Eksjö
  country: Sverige
  urn: urn:paroy:station:id:3003
  latitude: 57.66359
  longitude: 14.95228

- location: Paroy Tranås
  city: Tranås
  country: Sverige
  urn: urn:paroy:station:id:3014
  latitude: 58.01049
  longitude: 14.9534

- location: Paroy Eksjö Förrådsgatan
  city: Eksjö
  country: Sverige
  urn: urn:paroy:station:id:3004
  latitude: 57.65594
  longitude: 14.98584

- location: Paroy Vetlanda
  city: Vetlanda
  country: Sverige
  urn: urn:paroy:station:id:3015
  latitude: 57.42346
  longitude: 15.10579

- location: Paroy Österbymo
  city: Ydre
  country: Sverige
  urn: urn:paroy:station:id:3016
  latitude: 57.82207
  longitude: 15.27911
