meta:
  name: Ryds Bilglas
  web: https://rydsbilglas.se/
  wikipedia: null
  category: Biltillbehörskedjor
  locations: 157

locations:
- location: Ryds Bilglas Strömstad
  city: Strömstad
  country: Sverige
  latitude: 58.94407
  longitude: 11.21617

- location: Ryds Bilglas Stenungsund
  city: Stenungsund
  country: Sverige
  latitude: 58.07876
  longitude: 11.82721

- location: Ryds Bilglas Uddevalla
  city: Uddevalla
  country: Sverige
  latitude: 58.34895
  longitude: 11.86333

- location: Ryds Bilglas Göteborg, Vädermotet
  city: Göteborg
  country: Sverige
  latitude: 57.707025
  longitude: 11.878731

- location: Ryds Bilglas Göteborg, Högsbo
  city: Göteborg
  country: Sverige
  latitude: 57.65866
  longitude: 11.93974

- location: Ryds Bilglas Göteborg, Tuvevägen
  city: Göteborg
  country: Sverige
  latitude: 57.73618
  longitude: 11.9425

- location: Ryds Bilglas Göteborg, Sisjön
  city: Göteborg
  country: Sverige
  latitude: 57.639024
  longitude: 11.960192

- location: Ryds Bilglas Kungälv
  city: Kungälv
  country: Sverige
  latitude: 57.8802
  longitude: 11.9806

- location: Ryds Bilglas Göteborg, Stigscenter
  city: Göteborg
  country: Sverige
  latitude: 57.746023
  longitude: 11.994049

- location: Ryds Bilglas Göteborg, Bäckebol
  city: Göteborg
  country: Sverige
  latitude: 57.77041
  longitude: 11.99741

- location: Ryds Bilglas Göteborg, Mölndal
  city: Göteborg
  country: Sverige
  latitude: 57.6601
  longitude: 12.0154

- location: Ryds Bilglas Kungsbacka
  city: Kungsbacka
  country: Sverige
  latitude: 57.5054
  longitude: 12.068

- location: Ryds Bilglas Göteborg, Partille
  city: Göteborg
  country: Sverige
  latitude: 57.7392
  longitude: 12.0828

- location: Ryds Bilglas Älvängen
  city: Älvängen
  country: Sverige
  latitude: 57.954663
  longitude: 12.10777

- location: Ryds Bilglas Olofstorp
  city: Olofstorp
  country: Sverige
  latitude: 57.803174
  longitude: 12.158569

- location: Ryds Bilglas Göteborg, Landvetter
  city: Göteborg
  country: Sverige
  latitude: 57.685357
  longitude: 12.225656

- location: Ryds Bilglas Varberg
  city: Varberg
  country: Sverige
  latitude: 57.12315
  longitude: 12.26322

- location: Ryds Bilglas Trollhättan
  city: Trollhättan
  country: Sverige
  latitude: 58.29521
  longitude: 12.32859

- location: Ryds Bilglas Vänersborg
  city: Vänersborg
  country: Sverige
  latitude: 58.379271
  longitude: 12.34258

- location: Ryds Bilglas Falkenberg
  city: Falkenberg
  country: Sverige
  latitude: 56.916592
  longitude: 12.498939

- location: Ryds Bilglas Alingsås
  city: Alingsås
  country: Sverige
  latitude: 57.94127
  longitude: 12.5314

- location: Ryds Bilglas Kinna
  city: Kinna
  country: Sverige
  latitude: 57.493706
  longitude: 12.680238

- location: Ryds Bilglas Helsingborg, Söder
  city: Helsingborg
  country: Sverige
  latitude: 56.0125
  longitude: 12.7196

- location: Ryds Bilglas Helsingborg, Norr
  city: Helsingborg
  country: Sverige
  latitude: 56.0747
  longitude: 12.7297

- location: Ryds Bilglas Vårgårda
  city: Vårgårda
  country: Sverige
  latitude: 58.040569
  longitude: 12.81247

- location: Ryds Bilglas Halmstad, Flygstaden
  city: Halmstad
  country: Sverige
  latitude: 56.676847
  longitude: 12.823602

- location: Ryds Bilglas Landskrona
  city: Landskrona
  country: Sverige
  latitude: 55.87779
  longitude: 12.85544

- location: Ryds Bilglas Ängelholm
  city: Ängelholm
  country: Sverige
  latitude: 56.25188
  longitude: 12.88938

- location: Ryds Bilglas Halmstad, Öst
  city: Halmstad
  country: Sverige
  latitude: 56.6592
  longitude: 12.8951

- location: Ryds Bilglas Malmö, Limhamn
  city: Malmö
  country: Sverige
  latitude: 55.575788
  longitude: 12.927411

- location: Ryds Bilglas Borås, Knalleland
  city: Borås
  country: Sverige
  latitude: 57.7301
  longitude: 12.9422

- location: Ryds Bilglas Borås, Bergsäter
  city: Borås
  country: Sverige
  latitude: 57.7163
  longitude: 12.9528

- location: Ryds Bilglas Malmö, Heleneholm
  city: Malmö
  country: Sverige
  latitude: 55.582
  longitude: 13.0099

- location: Ryds Bilglas Malmö, Värnhem
  city: Malmö
  country: Sverige
  latitude: 55.60428
  longitude: 13.02564

- location: Ryds Bilglas Malmö, Fosie
  city: Malmö
  country: Sverige
  latitude: 55.55635
  longitude: 13.04474

- location: Ryds Bilglas Malmö, Arlöv
  city: Malmö
  country: Sverige
  latitude: 55.626698
  longitude: 13.058837

- location: Ryds Bilglas Malmö, Toftanäs
  city: Malmö
  country: Sverige
  latitude: 55.596147
  longitude: 13.094274

- location: Ryds Bilglas Trelleborg
  city: Trelleborg
  country: Sverige
  latitude: 55.3825
  longitude: 13.1367

- location: Ryds Bilglas Lund, Gunnesbo
  city: Lund
  country: Sverige
  latitude: 55.71978
  longitude: 13.16633

- location: Ryds Bilglas Lidköping
  city: Lidköping
  country: Sverige
  latitude: 58.50159
  longitude: 13.17371

- location: Ryds Bilglas Lund, Gastelyckan
  city: Lund
  country: Sverige
  latitude: 55.69362
  longitude: 13.21711

- location: Ryds Bilglas Eslöv
  city: Eslöv
  country: Sverige
  latitude: 55.838305
  longitude: 13.326346

- location: Ryds Bilglas Ulricehamn
  city: Ulricehamn
  country: Sverige
  latitude: 57.79846
  longitude: 13.4133

- location: Ryds Bilglas Karlstad, Våxnäs
  city: Karlstad, Våxnäs
  country: Sverige
  latitude: 59.38819
  longitude: 13.47353

- location: Ryds Bilglas Åre
  city: Åre
  country: Sverige
  latitude: 63.341533
  longitude: 13.485045

- location: Ryds Bilglas Karlstad, Hammarö
  city: Karlstad, Hammarö
  country: Sverige
  latitude: 59.34535
  longitude: 13.50298

- location: Ryds Bilglas Falköping
  city: Falköping
  country: Sverige
  latitude: 58.16241
  longitude: 13.56976

- location: Ryds Bilglas Hässleholm
  city: Hässleholm
  country: Sverige
  latitude: 56.1573
  longitude: 13.7477

- location: Ryds Bilglas Mariestad
  city: Mariestad
  country: Sverige
  latitude: 58.679833
  longitude: 13.813724

- location: Ryds Bilglas Skövde
  city: Skövde
  country: Sverige
  latitude: 58.38398
  longitude: 13.83652

- location: Ryds Bilglas Ystad
  city: Ystad
  country: Sverige
  latitude: 55.44831
  longitude: 13.8486

- location: Ryds Bilglas Värnamo
  city: Värnamo
  country: Sverige
  latitude: 57.174787
  longitude: 14.059596

- location: Ryds Bilglas Kristianstad
  city: Kristianstad
  country: Sverige
  latitude: 56.0233
  longitude: 14.1445

- location: Ryds Bilglas Jönköping, Ljungarum
  city: Jönköping
  country: Sverige
  latitude: 57.761922
  longitude: 14.167395

- location: Ryds Bilglas Jönköping, Ekhagen
  city: Jönköping
  country: Sverige
  latitude: 57.78038
  longitude: 14.22561

- location: Ryds Bilglas Karlskoga
  city: Karlskoga
  country: Sverige
  latitude: 59.323438
  longitude: 14.49479

- location: Ryds Bilglas Mora
  city: Mora
  country: Sverige
  latitude: 61.008475
  longitude: 14.618654

- location: Ryds Bilglas Östersund
  city: Östersund
  country: Sverige
  latitude: 63.1647
  longitude: 14.6477

- location: Ryds Bilglas Nässjö
  city: Nässjö
  country: Sverige
  latitude: 57.647959
  longitude: 14.737106

- location: Ryds Bilglas Växjö, Slöjdgatan
  city: Växjö
  country: Sverige
  latitude: 56.8882
  longitude: 14.7761

- location: Ryds Bilglas Växjö, Norremark
  city: Växjö
  country: Sverige
  latitude: 56.89968
  longitude: 14.82477

- location: Ryds Bilglas Karlshamn
  city: Karlshamn
  country: Sverige
  latitude: 56.18477
  longitude: 14.847124

- location: Ryds Bilglas Eksjö
  city: Eksjö
  country: Sverige
  latitude: 57.659469
  longitude: 14.964521

- location: Ryds Bilglas Motala
  city: Motala
  country: Sverige
  latitude: 58.557227
  longitude: 15.046074

- location: Ryds Bilglas Vetlanda
  city: Vetlanda
  country: Sverige
  latitude: 57.421815
  longitude: 15.088304

- location: Ryds Bilglas Örebro, Elementvägen
  city: Örebro
  country: Sverige
  latitude: 59.2607
  longitude: 15.1787

- location: Ryds Bilglas Örebro, Boglundsängen
  city: Örebro
  country: Sverige
  latitude: 59.301398
  longitude: 15.19862

- location: Ryds Bilglas Örebro, Bettorpsgatan
  city: Örebro
  country: Sverige
  latitude: 59.3004
  longitude: 15.23

- location: Ryds Bilglas Ronneby
  city: Ronneby
  country: Sverige
  latitude: 56.231135
  longitude: 15.257441

- location: Ryds Bilglas Borlänge, Södra Backa
  city: Borlänge
  country: Sverige
  latitude: 60.4703
  longitude: 15.4403

- location: Ryds Bilglas Borlänge, Åselby
  city: Borlänge
  country: Sverige
  latitude: 60.470099
  longitude: 15.460233

- location: Ryds Bilglas Linköping, Mjärdevi
  city: Linköping
  country: Sverige
  latitude: 58.391843
  longitude: 15.547855

- location: Ryds Bilglas Falun, Ingarvet
  city: Falun
  country: Sverige
  latitude: 60.60726
  longitude: 15.59368

- location: Ryds Bilglas Linköping, Tornby
  city: Linköping
  country: Sverige
  latitude: 58.4308
  longitude: 15.5958

- location: Ryds Bilglas Karlskrona
  city: Karlskrona
  country: Sverige
  latitude: 56.19771
  longitude: 15.61009

- location: Ryds Bilglas Linköping, Tannefors
  city: Linköping
  country: Sverige
  latitude: 58.409056
  longitude: 15.645941

- location: Ryds Bilglas Falun, Regementet
  city: Falun
  country: Sverige
  latitude: 60.606205
  longitude: 15.656452

- location: Ryds Bilglas Fagersta
  city: Fagersta
  country: Sverige
  latitude: 59.998316
  longitude: 15.815003

- location: Ryds Bilglas Köping
  city: Köping
  country: Sverige
  latitude: 59.5087
  longitude: 15.9983

- location: Ryds Bilglas Norrköping, Butängen
  city: Norrköping
  country: Sverige
  latitude: 58.6028
  longitude: 16.1853

- location: Ryds Bilglas Katrineholm
  city: Katrineholm
  country: Sverige
  latitude: 58.987367
  longitude: 16.207331

- location: Ryds Bilglas Norrköping, Risängen
  city: Norrköping
  country: Sverige
  latitude: 58.58546
  longitude: 16.21984

- location: Ryds Bilglas Kalmar
  city: Kalmar
  country: Sverige
  latitude: 56.67226
  longitude: 16.33033

- location: Ryds Bilglas Bollnäs
  city: Bollnäs
  country: Sverige
  latitude: 61.332846
  longitude: 16.403569

- location: Ryds Bilglas Oskarshamn
  city: Oskarshamn
  country: Sverige
  latitude: 57.252649
  longitude: 16.446376

- location: Ryds Bilglas Västerås, Erikslund
  city: Västerås
  country: Sverige
  latitude: 59.617579
  longitude: 16.456568

- location: Ryds Bilglas Eskilstuna
  city: Eskilstuna
  country: Sverige
  latitude: 59.38693
  longitude: 16.48493

- location: Ryds Bilglas Västerås, Bäckby
  city: Västerås
  country: Sverige
  latitude: 59.59867
  longitude: 16.48698

- location: Ryds Bilglas Västerås, Tunby
  city: Västerås
  country: Sverige
  latitude: 59.6374
  longitude: 16.561

- location: Ryds Bilglas Västerås, Ängsgärdet
  city: Västerås
  country: Sverige
  latitude: 59.617327
  longitude: 16.564459

- location: Ryds Bilglas Västervik
  city: Västervik
  country: Sverige
  latitude: 57.762712
  longitude: 16.604025

- location: Ryds Bilglas Västerås, Hälla
  city: Västerås
  country: Sverige
  latitude: 59.613
  longitude: 16.6115

- location: Ryds Bilglas Sala
  city: Sala
  country: Sverige
  latitude: 59.919387
  longitude: 16.613472

- location: Ryds Bilglas Sandviken
  city: Sandviken
  country: Sverige
  latitude: 60.625463
  longitude: 16.753946

- location: Ryds Bilglas Nyköping
  city: Nyköping
  country: Sverige
  latitude: 58.7442
  longitude: 17.0053

- location: Ryds Bilglas Strängnäs
  city: Strängnäs
  country: Sverige
  latitude: 59.35551
  longitude: 17.03194

- location: Ryds Bilglas Söderhamn
  city: Söderhamn
  country: Sverige
  latitude: 61.304521
  longitude: 17.04007

- location: Ryds Bilglas Enköping, Torggatan
  city: Enköping
  country: Sverige
  latitude: 59.632292
  longitude: 17.08224

- location: Ryds Bilglas Enköping, Vårfrugatan
  city: Enköping
  country: Sverige
  latitude: 59.64422
  longitude: 17.08312

- location: Ryds Bilglas Hudiksvall
  city: Hudiksvall
  country: Sverige
  latitude: 61.73386
  longitude: 17.096229

- location: Ryds Bilglas Gävle, Hemlingby
  city: Gävle
  country: Sverige
  latitude: 60.6459
  longitude: 17.1495

- location: Ryds Bilglas Gävle, Brynäs
  city: Gävle
  country: Sverige
  latitude: 60.6782
  longitude: 17.1684

- location: Ryds Bilglas Sundsvall, Nacksta
  city: Sundsvall
  country: Sverige
  latitude: 62.3938
  longitude: 17.2578

- location: Ryds Bilglas Sollefteå
  city: Sollefteå
  country: Sverige
  latitude: 63.16607
  longitude: 17.27816

- location: Ryds Bilglas Sundsvall, Birsta
  city: Sundsvall
  country: Sverige
  latitude: 62.44398
  longitude: 17.32594

- location: Ryds Bilglas Sundsvall, Skönsberg
  city: Sundsvall
  country: Sverige
  latitude: 62.4052
  longitude: 17.3384

- location: Ryds Bilglas Sundsvall, Njurunda
  city: Sundsvall
  country: Sverige
  latitude: 62.2708
  longitude: 17.368

- location: Ryds Bilglas Bålsta
  city: Bålsta
  country: Sverige
  latitude: 59.561582
  longitude: 17.556022

- location: Ryds Bilglas Södertälje, Syd
  city: Södertälje
  country: Sverige
  latitude: 59.164533
  longitude: 17.64195

- location: Ryds Bilglas Södertälje, Weda/Moraberg
  city: Södertälje
  country: Sverige
  latitude: 59.20553
  longitude: 17.64703

- location: Ryds Bilglas Uppsala, Kungsängen
  city: Uppsala
  country: Sverige
  latitude: 59.847605
  longitude: 17.654533

- location: Ryds Bilglas Uppsala, Boländerna
  city: Uppsala
  country: Sverige
  latitude: 59.8479
  longitude: 17.6805

- location: Ryds Bilglas Uppsala, Fyrislund
  city: Uppsala
  country: Sverige
  latitude: 59.8555
  longitude: 17.6898

- location: Ryds Bilglas Uppsala, Gnista Åkaregatan
  city: Uppsala
  country: Sverige
  latitude: 59.840021
  longitude: 17.723238

- location: Ryds Bilglas Uppsala, Gnista
  city: Uppsala
  country: Sverige
  latitude: 59.847673
  longitude: 17.729601

- location: Ryds Bilglas Tumba
  city: Tumba
  country: Sverige
  latitude: 59.194075
  longitude: 17.828544

- location: Ryds Bilglas Stockholm, Jakobsberg
  city: Stockholm
  country: Sverige
  latitude: 59.41896
  longitude: 17.83055

- location: Ryds Bilglas Stockholm, Arlandastad
  city: Stockholm
  country: Sverige
  latitude: 59.61525
  longitude: 17.86582

- location: Ryds Bilglas Stockholm, Spånga/Lunda
  city: Stockholm
  country: Sverige
  latitude: 59.39098
  longitude: 17.87009

- location: Ryds Bilglas Härnösand
  city: Härnösand
  country: Sverige
  latitude: 62.641295
  longitude: 17.914761

- location: Ryds Bilglas Stockholm, Norrviken
  city: Stockholm
  country: Sverige
  latitude: 59.456
  longitude: 17.9234

- location: Ryds Bilglas Stockholm, Smista
  city: Stockholm
  country: Sverige
  latitude: 59.28049
  longitude: 17.92376

- location: Ryds Bilglas Stockholm, Upplands Väsby
  city: Stockholm
  country: Sverige
  latitude: 59.517409
  longitude: 17.927059

- location: Ryds Bilglas Nynäshamn
  city: Nynäshamn
  country: Sverige
  latitude: 58.918429
  longitude: 17.938398

- location: Ryds Bilglas Stockholm, Bromma
  city: Stockholm
  country: Sverige
  latitude: 59.3376
  longitude: 17.949

- location: Ryds Bilglas Stockholm, Kista
  city: Stockholm
  country: Sverige
  latitude: 59.407959
  longitude: 17.952176

- location: Ryds Bilglas Stockholm, Solna
  city: Stockholm
  country: Sverige
  latitude: 59.3666
  longitude: 18.0072

- location: Ryds Bilglas Stockholm, Västberga
  city: Stockholm
  country: Sverige
  latitude: 59.2981
  longitude: 18.0115

- location: Ryds Bilglas Stockholm, Huddinge
  city: Stockholm
  country: Sverige
  latitude: 59.2538
  longitude: 18.0131

- location: Ryds Bilglas Stockholm, Kungsholmen
  city: Stockholm
  country: Sverige
  latitude: 59.33387
  longitude: 18.028189

- location: Ryds Bilglas Stockholm, Danderyd-Rinkebyvägen
  city: Stockholm
  country: Sverige
  latitude: 59.412075
  longitude: 18.037718

- location: Ryds Bilglas Stockholm, Vanadisvägen
  city: Stockholm
  country: Sverige
  latitude: 59.34801
  longitude: 18.05051

- location: Ryds Bilglas Stockholm, Täby
  city: Stockholm
  country: Sverige
  latitude: 59.4385
  longitude: 18.0532

- location: Ryds Bilglas Stockholm, Södermalm
  city: Stockholm
  country: Sverige
  latitude: 59.317489
  longitude: 18.056923

- location: Ryds Bilglas Stockholm, Valhallavägen
  city: Stockholm
  country: Sverige
  latitude: 59.341144
  longitude: 18.089125

- location: Ryds Bilglas Stockholm, Hammarby
  city: Stockholm
  country: Sverige
  latitude: 59.29799
  longitude: 18.08936

- location: Ryds Bilglas Stockholm, Vallentuna
  city: Stockholm
  country: Sverige
  latitude: 59.51442
  longitude: 18.091094

- location: Ryds Bilglas Stockholm, Länna
  city: Stockholm
  country: Sverige
  latitude: 59.19889
  longitude: 18.12141

- location: Ryds Bilglas Stockholm, Nacka
  city: Stockholm
  country: Sverige
  latitude: 59.30734
  longitude: 18.12683

- location: Ryds Bilglas Haninge, Hantverkarvägen
  city: Haninge
  country: Sverige
  latitude: 59.17178
  longitude: 18.15108

- location: Ryds Bilglas Haninge, Albyberg
  city: Haninge
  country: Sverige
  latitude: 59.150854
  longitude: 18.15784

- location: Ryds Bilglas Haninge, Vendelsövägen
  city: Haninge
  country: Sverige
  latitude: 59.1786
  longitude: 18.1619

- location: Ryds Bilglas Stockholm, Lidingö
  city: Stockholm
  country: Sverige
  latitude: 59.359834
  longitude: 18.172035

- location: Ryds Bilglas Tyresö
  city: Tyresö
  country: Sverige
  latitude: 59.24542
  longitude: 18.2131

- location: Ryds Bilglas Stockholm, Åkersberga
  city: Stockholm
  country: Sverige
  latitude: 59.48492
  longitude: 18.27699

- location: Ryds Bilglas Östhammar
  city: Östhammar
  country: Sverige
  latitude: 60.257353
  longitude: 18.345584

- location: Ryds Bilglas Stockholm, Värmdö
  city: Stockholm
  country: Sverige
  latitude: 59.308
  longitude: 18.3816

- location: Ryds Bilglas Norrtälje
  city: Norrtälje
  country: Sverige
  latitude: 59.738733
  longitude: 18.69135

- location: Ryds Bilglas Örnsköldsvik
  city: Örnsköldsvik
  country: Sverige
  latitude: 63.306382
  longitude: 18.722209

- location: Ryds Bilglas Umeå, Öst Teg
  city: Umeå
  country: Sverige
  latitude: 63.80527
  longitude: 20.27451

- location: Ryds Bilglas Kiruna
  city: Kiruna
  country: Sverige
  latitude: 67.847313
  longitude: 20.278923

- location: Ryds Bilglas Umeå, Ersboda
  city: Umeå
  country: Sverige
  latitude: 63.85059
  longitude: 20.30698

- location: Ryds Bilglas Gällivare
  city: Gällivare
  country: Sverige
  latitude: 67.15109
  longitude: 20.62086

- location: Ryds Bilglas Skellefteå
  city: Skellefteå
  country: Sverige
  latitude: 64.7296
  longitude: 20.9748

- location: Ryds Bilglas Piteå
  city: Piteå
  country: Sverige
  latitude: 65.32373
  longitude: 21.44619

- location: Ryds Bilglas Luleå, Storheden
  city: Luleå
  country: Sverige
  latitude: 65.61524
  longitude: 22.04963

- location: Ryds Bilglas Luleå, Spantgatan
  city: Luleå
  country: Sverige
  latitude: 65.60751
  longitude: 22.1217
