meta:
  name: hotels/scandic.yaml
  web: null
  wikipedia: null
  category: null
  locations: 76

locations:
- location: Scandic Arvika
  city: Arvika
  latitude: 59.6556618
  longitude: 12.592489

- location: Scandic Bollnäs
  city: Bollnäs
  latitude: 61.351147
  longitude: 16.401241

- location: Scandic Borlänge
  city: Borlänge
  latitude: 60.484199
  longitude: 15.434925

- location: Scandic Plaza Borås
  city: Borås
  latitude: 57.7240730349846
  longitude: 12.9404783248901

- location: Scandic Lugnet
  city: Falun
  latitude: 60.613062
  longitude: 15.65553

- location: Scandic CH
  city: Gävle
  latitude: 60.676981
  longitude: 17.148667

- location: Scandic Gävle Väst
  city: Gävle
  latitude: 60.671223
  longitude: 17.087377

- location: Scandic Backadal
  city: Göteborg
  latitude: 57.749104
  longitude: 11.988975

- location: Scandic Crown
  city: Göteborg
  latitude: 57.708042
  longitude: 11.977901

- location: Scandic Europa
  city: Göteborg
  latitude: 57.707911
  longitude: 11.970033

- location: Scandic Mölndal
  city: Mölndal
  latitude: 57.653745
  longitude: 12.013694

- location: Scandic Opalen
  city: Göteborg
  latitude: 57.701704
  longitude: 11.984483

- location: Scandic Rubinen
  city: Göteborg
  latitude: 57.699709
  longitude: 11.976065

- location: Scandic Hallandia
  city: Halmstad
  latitude: 56.672426
  longitude: 12.858087

- location: Scandic Helsingborg Nord
  city: Helsingborg
  latitude: 56.076704
  longitude: 12.729943

- location: Scandic Elmia
  city: Jönköping
  latitude: 57.787108
  longitude: 14.227745

- location: Scandic Portalen
  city: Jönköping
  latitude: 57.783155
  longitude: 14.163094

- location: Scandic Kalmar Väst
  city: Kalmar
  latitude: 56.673578
  longitude: 16.319357

- location: Scandic Karlshamn
  city: Karlshamn
  latitude: 56.189618
  longitude: 14.846315

- location: Scandic Karlskrona
  city: Karlskrona
  latitude: 56.162012
  longitude: 15.578369

- location: Scandic Karlstad City
  city: Karlstad
  latitude: 59.379223
  longitude: 13.505974

- location: Scandic Klarälven
  city: Karlstad
  latitude: 59.391268
  longitude: 13.495586

- location: Scandic Winn
  city: Karlstad
  latitude: 59.383036
  longitude: 13.504843

- location: Scandic Ferrum
  city: Kiruna
  latitude: 67.855552
  longitude: 20.223593

- location: Scandic Frimurarehotellet
  city: Linköping
  latitude: 58.414622
  longitude: 15.623231

- location: Scandic Linköping City
  city: Linköping
  latitude: 58.4121885598163
  longitude: 15.6329441070557

- location: Scandic Linköping Väst
  city: Linköping
  latitude: 58.4058825633305
  longitude: 15.5596232414246

- location: Scandic Luleå
  city: Luleå
  latitude: 65.603585
  longitude: 22.132816

- location: Scandic Star
  city: Sollentuna
  latitude: 55.694733
  longitude: 13.224837

- location: Scandic Kramer
  city: Malmö
  latitude: 55.6066551
  longitude: 12.999662

- location: Scandic Malmö City
  city: Malmö
  latitude: 55.600966
  longitude: 13.004079

- location: Scandic S:t Jörgen
  city: Malmö
  latitude: 55.6036186
  longitude: 13.0020918

- location: Scandic Segevång
  city: Malmö
  latitude: 55.617194
  longitude: 13.063056

- location: Scandic Triangeln
  city: Malmö
  latitude: 55.5964845
  longitude: 13.0015222

- location: Scandic Norrköping City
  city: Norrköping
  latitude: 58.594972
  longitude: 16.185435

- location: Scandic Norrköping Nord
  city: Norrköping
  latitude: 58.617434
  longitude: 16.162385

- location: Scandic Nyköping City
  city: Nyköping
  latitude: 58.7525
  longitude: 17.0047

- location: Scandic Skellefteå
  city: Skellefteå
  latitude: 64.751248
  longitude: 20.963368

- location: Scandic Billingen
  city: Skövde
  latitude: 58.38963
  longitude: 13.850043

- location: Scandic Alvik
  city: Stockholm
  latitude: 59.332203
  longitude: 17.983895

- location: Scandic Anglais
  city: Stockholm
  latitude: 59.337164
  longitude: 18.072765

- location: Scandic Ariadne
  city: Stockholm
  latitude: 59.348749
  longitude: 18.113945

- location: Scandic Bromma
  city: Bromma
  latitude: 59.337709
  longitude: 17.93679

- location: Scandic Continental Stockholm
  city: Stockholm
  latitude: 59.330943
  longitude: 18.059593

- location: Scandic Foresta
  city: Lidingö
  latitude: 59.359927
  longitude: 18.120489

- location: Scandic Grand Central
  city: Stockholm
  latitude: 59.333862
  longitude: 18.05603

- location: Scandic Hasselbacken
  city: Stockholm
  latitude: 59.325758
  longitude: 18.099139

- location: Scandic Infra City
  city: Upplands Väsby
  latitude: 59.49893
  longitude: 17.927577

- location: Scandic Järva Krog
  city: Solna
  latitude: 59.380129
  longitude: 18.008735

- location: Scandic Kungens Kurva
  city: Huddinge
  latitude: 59.272657
  longitude: 17.917285

- location: Scandic Malmen
  city: Stockholm
  latitude: 59.314592
  longitude: 18.072992

- location: Scandic Norra Bantorget
  city: Stockholm
  latitude: 59.336626
  longitude: 18.055773

- location: Scandic Park
  city: Stockholm
  latitude: 59.340723
  longitude: 18.07562

- location: Scandic Sergel Plaza
  city: Stockholm
  latitude: 59.331281
  longitude: 18.065668

- location: Scandic Sjöfartshotellet
  city: Stockholm
  latitude: 59.318867
  longitude: 18.07567

- location: Scandic Star Sollentuna
  city: Sollentuna
  latitude: 59.4264713159936
  longitude: 17.951477766037

- location: Scandic Täby
  city: Täby
  latitude: 59.433731
  longitude: 18.064778

- location: Scandic Upplands Väsby
  city: Upplands Väsby
  latitude: 59.51508
  longitude: 17.921329

- location: Scandic Victoria Tower
  city: Kista
  latitude: 59.407
  longitude: 17.9575

- location: Scandic Sundsvall City
  city: Sundsvall
  latitude: 62.3895689
  longitude: 17.3053098

- location: Scandic Sundsvall Nord
  city: Sundsvall
  latitude: 62.413628
  longitude: 17.348272

- location: Scandic Skogshöjd
  city: Södertälje
  latitude: 59.194681
  longitude: 17.618766

- location: Scandic Södertälje
  city: Södertälje
  latitude: 59.172848
  longitude: 17.644626

- location: Scandic Swania
  city: Trollhättan
  latitude: 58.28458
  longitude: 12.285825

- location: Scandic Plaza Umeå
  city: Umeå
  latitude: 63.825697
  longitude: 20.258168

- location: Scandic Umeå Syd
  city: Umeå
  latitude: 63.815876
  longitude: 20.251108

- location: Scandic Uplandia
  city: Uppsala
  latitude: 59.860422
  longitude: 17.63821

- location: Scandic Uppsala Nord
  city: Uppsala
  latitude: 59.8757473541907
  longitude: 17.6403093338013

- location: Scandic Värnamo
  city: Värnamo
  latitude: 57.185204
  longitude: 14.041042

- location: Scandic Västerås
  city: Västerås
  latitude: 59.61459
  longitude: 16.568444

- location: Scandic Växjö
  city: Växjö
  latitude: 56.884792
  longitude: 14.761273

- location: Scandic Grand Hotel
  city: Stockholm
  latitude: 59.268929
  longitude: 15.205851

- location: Scandic Örebro Väst
  city: Örebro
  latitude: 59.274942
  longitude: 15.176659

- location: Scandic Örnsköldsvik
  city: Örnsköldsvik
  latitude: 63.303015
  longitude: 18.732712

- location: Scandic Östersund City
  city: Östersund
  latitude: 63.175143
  longitude: 14.63851

- location: Scandic Östersund Syd
  city: Östersund
  latitude: 63.159965
  longitude: 14.670342
