meta:
  name: Grundskolor Bodens Kommun
  web: https://www.boden.se/
  wikipedia: https://sv.wikipedia.org/wiki/Bodens_kommun
  category: Grundskolor
  locations: 18

locations:
- location: Harads skola
  city: Harads
  country: Sverige
  urn: urn:skolenhetskod:82094905
  latitude: 66.084937
  longitude: 20.950437

- location: Tankeborgen Svartlå Fria
  city: Övre Svartlå
  country: Sverige
  urn: urn:skolenhetskod:97359904
  latitude: 66.013562
  longitude: 21.174813

- location: Hedensskolan
  city: Boden
  country: Sverige
  urn: urn:skolenhetskod:53832535
  latitude: 65.816937
  longitude: 21.572063

- location: Fria Emilia
  city: Boden
  country: Sverige
  urn: urn:skolenhetskod:98998541
  latitude: 65.823688
  longitude: 21.663312

- location: Sär Stureskolan
  city: Boden
  country: Sverige
  urn: urn:skolenhetskod:65480597
  latitude: 65.819688
  longitude: 21.698437

- location: Stureskolan
  city: Boden
  country: Sverige
  urn: urn:skolenhetskod:83862028
  latitude: 65.819688
  longitude: 21.698437

- location: Svartbjörnsbyns skola
  city: Boden
  country: Sverige
  urn: urn:skolenhetskod:98704682
  latitude: 65.84839
  longitude: 21.70002

- location: Prästholmsskolan
  city: Boden
  country: Sverige
  urn: urn:skolenhetskod:31341183
  latitude: 65.831187
  longitude: 21.700313

- location: Sär Prästholmsskolan
  city: Boden
  country: Sverige
  urn: urn:skolenhetskod:91959964
  latitude: 65.831187
  longitude: 21.700313

- location: Noblaskolan
  city: Boden
  country: Sverige
  urn: urn:skolenhetskod:40708452
  latitude: 65.823688
  longitude: 21.700938

- location: Pusslet, grundsärskola
  city: Boden
  country: Sverige
  urn: urn:skolenhetskod:27583560
  latitude: 65.827938
  longitude: 21.723438

- location: Fagernäs skola
  city: Boden
  country: Sverige
  urn: urn:skolenhetskod:55055777
  latitude: 65.822563
  longitude: 21.728313

- location: Brönjaskolan
  city: Boden
  country: Sverige
  urn: urn:skolenhetskod:60633912
  latitude: 65.771812
  longitude: 21.737063

- location: Torpgärdsskolan
  city: Boden
  country: Sverige
  urn: urn:skolenhetskod:67642516
  latitude: 65.804437
  longitude: 21.738062

- location: Mårängskolan
  city: Sävast
  country: Sverige
  urn: urn:skolenhetskod:75860725
  latitude: 65.759812
  longitude: 21.746563

- location: Mimers Brunn Vittjärv
  city: Boden
  country: Sverige
  urn: urn:skolenhetskod:65431245
  latitude: 65.810063
  longitude: 21.758313

- location: Unbyns skola
  city: Unsbyn
  country: Sverige
  urn: urn:skolenhetskod:10411502
  latitude: 65.710437
  longitude: 21.763063

- location: Älvskolan
  city: Gunnarsbyn
  country: Sverige
  urn: urn:skolenhetskod:29649408
  latitude: 66.086313
  longitude: 21.807563
