meta:
  name: Systembolaget - Ombud
  web: https://www.systembolaget.se/
  wikipedia: https://sv.wikipedia.org/wiki/Systembolaget
  category: Alkoholmonopol
  locations: 413

locations:
- location: Systembolaget Ombud, Nordkosters Livs
  city: Nordkoster
  latitude: 58.9077
  longitude: 11.01536

- location: Systembolaget Ombud, Tempo Resö
  city: Resö
  latitude: 58.8036
  longitude: 11.17602

- location: Systembolaget Ombud, ICA Skutan
  city: Hamburgsund
  latitude: 58.55245
  longitude: 11.27225

- location: Systembolaget Ombud, Skoaffären
  city: Fjällbacka
  latitude: 58.59809
  longitude: 11.28187

- location: Systembolaget Ombud, Glas o Porslin
  city: Hunnebostrand
  latitude: 58.44024
  longitude: 11.29552

- location: Systembolaget Ombud, ICA Tärnan
  city: Bovallstrand
  latitude: 58.47567
  longitude: 11.32285

- location: Systembolaget Ombud, Järn o. Färg
  city: Tanumshede
  latitude: 58.72382
  longitude: 11.3237

- location: Systembolaget Ombud, ICA Provianten
  city: Gullholmen
  latitude: 58.17897
  longitude: 11.40249

- location: Systembolaget Ombud, Grundsunds Handel
  city: Grundsund
  latitude: 58.21251
  longitude: 11.42363

- location: Systembolaget Ombud, Magasinet
  city: Hälleviksstrand
  latitude: 58.12352
  longitude: 11.44364

- location: Systembolaget Ombud, Coop Konsum
  city: Brastad
  latitude: 58.38258
  longitude: 11.48205

- location: Systembolaget Ombud, Arwidssons Järn
  city: Hällevadsholm
  latitude: 58.58078
  longitude: 11.53669

- location: Systembolaget Ombud, First Trade 471 32 SKÄRHAMN
  city: Skärhamn
  latitude: 57.99089
  longitude: 11.54631

- location: Systembolaget Ombud, Konsum
  city: Marstrand
  latitude: 57.88678
  longitude: 11.58901

- location: Systembolaget Ombud, Hedekas Allköp
  city: Hedekas
  latitude: 58.64494
  longitude: 11.77966

- location: Systembolaget Ombud, Konsum
  city: Styrsö
  latitude: 57.61751
  longitude: 11.78103

- location: Systembolaget Ombud, Gotteposten
  city: Kärna
  latitude: 57.84444
  longitude: 11.79092

- location: Systembolaget Ombud, Konsum
  city: Töcksfors
  latitude: 59.5093
  longitude: 11.83644

- location: Systembolaget Ombud, Lennartsfors Brukshandel
  city: Lennartsfors
  latitude: 59.31851
  longitude: 11.90466

- location: Systembolaget Ombud, Servicebutiken Mitt i Prick
  city: Ljungskile
  latitude: 58.22352
  longitude: 11.92013

- location: Systembolaget Ombud, Coop Konsum
  city: Storlien
  latitude: 63.31551
  longitude: 12.10347

- location: Systembolaget Ombud, Bygga Värmland
  city: Koppom
  latitude: 59.7066
  longitude: 12.14985

- location: Systembolaget Ombud, Coop Konsum
  city: Bäckefors
  latitude: 58.8066
  longitude: 12.15957

- location: Systembolaget Ombud, Hilco
  city: Frillesås
  latitude: 57.31621
  longitude: 12.17666

- location: Systembolaget Ombud, Väröhallen
  city: Väröbacka
  latitude: 57.24704
  longitude: 12.18397

- location: Systembolaget Ombud, Gränsbua
  city: Flötningen
  latitude: 61.86666
  longitude: 12.21671

- location: Systembolaget Ombud, ICA
  city: Sillerud
  latitude: 59.31901
  longitude: 12.31095

- location: Systembolaget Ombud, Spar Veddige
  city: Veddige
  latitude: 57.26656
  longitude: 12.33398

- location: Systembolaget Ombud, Cypressen
  city: Brålanda
  latitude: 58.56246
  longitude: 12.35134

- location: Systembolaget Ombud, Konsumhallen
  city: Åmotfors
  latitude: 59.76306
  longitude: 12.36302

- location: Systembolaget Ombud, ICA Supermarket
  city: Tvååker
  latitude: 57.04114
  longitude: 12.39841

- location: Systembolaget Ombud, ICA Hindåsen
  city: Hindås
  latitude: 57.7037
  longitude: 12.44713

- location: Systembolaget Ombud, Fengersfors Handel
  city: Fengersfors
  latitude: 58.99599
  longitude: 12.47152

- location: Systembolaget Ombud, Skällinge Livs
  city: Skällinge
  latitude: 57.18038
  longitude: 12.47299

- location: Systembolaget Ombud, Bilisten
  city: Horred
  latitude: 57.35475
  longitude: 12.47651

- location: Systembolaget Ombud, ICA Lindberg
  city: Björketorp
  latitude: 57.42712
  longitude: 12.52436

- location: Systembolaget Ombud, Gittes Garn
  city: Sollebrunn
  latitude: 58.12112
  longitude: 12.52909

- location: Systembolaget Ombud, Coop Konsum
  city: Svanskog
  latitude: 59.17917
  longitude: 12.55185

- location: Systembolaget Ombud, Konsum
  city: Glava
  latitude: 59.54934
  longitude: 12.56242

- location: Systembolaget Ombud, Kungsäters Handel
  city: Kungsäter
  latitude: 57.3046
  longitude: 12.56285

- location: Systembolaget Ombud, Höljes Handel
  city: Höljes
  latitude: 60.89859
  longitude: 12.59737

- location: Systembolaget Ombud, Torekov Båt & Motor
  city: Torekov
  latitude: 56.42552
  longitude: 12.62874

- location: Systembolaget Ombud, ICA Vessige
  city: Vessigebro
  latitude: 56.97777
  longitude: 12.64782

- location: Systembolaget Ombud, Bykooperativet i Lekvattnet
  city: Lekvattnet
  latitude: 60.18838
  longitude: 12.67885

- location: Systembolaget Ombud, Ullareds Närbutik
  city: Ullared
  latitude: 57.13663
  longitude: 12.71708

- location: Systembolaget Ombud, Coop Konsum
  city: Idre
  latitude: 61.85795
  longitude: 12.72291

- location: Systembolaget Ombud, Harplinge Pappershandel
  city: Harplinge
  latitude: 56.74054
  longitude: 12.7273

- location: Systembolaget Ombud, Älekulla Livs/ICA
  city: Älekulla
  latitude: 57.34474
  longitude: 12.72738

- location: Systembolaget Ombud, Kiosken
  city: Getinge
  latitude: 56.82002
  longitude: 12.73425

- location: Systembolaget Ombud, Östmarks Handel
  city: Östmark
  latitude: 60.28318
  longitude: 12.75952

- location: Systembolaget Ombud, Ljungdalens Turistbyrå
  city: Ljungdalen
  latitude: 62.85245
  longitude: 12.79045

- location: Systembolaget Ombud, Michaels Allköp
  city: Öxabäck
  latitude: 57.39379
  longitude: 12.8041

- location: Systembolaget Ombud, ICA Rörbäcksnäs
  city: Rörbäcksnäs
  latitude: 61.12922
  longitude: 12.81337

- location: Systembolaget Ombud, Heberlein's
  city: Förslöv
  latitude: 56.35435
  longitude: 12.81913

- location: Systembolaget Ombud, Hässelborgs Livs/ICA
  city: Älvsered
  latitude: 57.23953
  longitude: 12.85987

- location: Systembolaget Ombud, Coop Konsum
  city: Sysslebäck
  latitude: 60.72932
  longitude: 12.87181

- location: Systembolaget Ombud, Överlida Livs
  city: Överlida
  latitude: 57.35055
  longitude: 12.89861

- location: Systembolaget Ombud, Duveds Livs
  city: Duved
  latitude: 63.39329
  longitude: 12.92945

- location: Systembolaget Ombud, Lanthandeln
  city: Kallsedet
  latitude: 63.7
  longitude: 12.93331

- location: Systembolaget Ombud, Matboden
  city: Ätran
  latitude: 57.12072
  longitude: 12.94904

- location: Systembolaget Ombud, Handlar'n
  city: Mårdaklev
  latitude: 57.24854
  longitude: 12.97876

- location: Systembolaget Ombud, Fegenkiosken
  city: Fegen
  latitude: 57.1055
  longitude: 13.03762

- location: Systembolaget Ombud, Likenäs Allköp
  city: Likenäs
  latitude: 60.61411
  longitude: 13.04268

- location: Systembolaget Ombud, ICA Ottsjöbua
  city: Ottsjö
  latitude: 63.21581
  longitude: 13.0542

- location: Systembolaget Ombud, Coop Konsum
  city: Sörsjön
  latitude: 61.409
  longitude: 13.08443

- location: Systembolaget Ombud, Preem
  city: Våxtorp
  latitude: 56.41701
  longitude: 13.11966

- location: Systembolaget Ombud, Matöppet
  city: Simlångsdalen
  latitude: 56.72062
  longitude: 13.12911

- location: Systembolaget Ombud, Coop Konsum
  city: Lysvik
  latitude: 60.01421
  longitude: 13.1335

- location: Systembolaget Ombud, Språngs Färg
  city: Särna
  latitude: 61.69339
  longitude: 13.13925

- location: Systembolaget Ombud, Håcksviks Knallen
  city: Håcksvik
  latitude: 57.31741
  longitude: 13.14605

- location: Systembolaget Ombud, ICA Skogsstjärnan
  city: Ambjörby
  latitude: 60.49869
  longitude: 13.16752

- location: Systembolaget Ombud, Sahlins Livs
  city: Kvänum
  latitude: 58.29909
  longitude: 13.18556

- location: Systembolaget Ombud, ICA Nära
  city: Länghem
  latitude: 57.6035
  longitude: 13.23968

- location: Systembolaget Ombud, ICA Strandbergs
  city: Undersåker
  latitude: 63.31431
  longitude: 13.24449

- location: Systembolaget Ombud, Öhmans i Lofsdalen
  city: Lofsdalen
  latitude: 62.11231
  longitude: 13.26976

- location: Systembolaget Ombud, Sundholms Speceri & Diversehandel
  city: Stöllet
  latitude: 60.41101
  longitude: 13.27088

- location: Systembolaget Ombud, Röstångaservice
  city: Röstånga
  latitude: 56.0012
  longitude: 13.29046

- location: Systembolaget Ombud, Shell
  city: Knäred
  latitude: 56.51801
  longitude: 13.3165

- location: Systembolaget Ombud, Thiels Eftr.
  city: Floby
  latitude: 58.13873
  longitude: 13.33678

- location: Systembolaget Ombud, Nya Lima Handel
  city: Lima
  latitude: 60.97507
  longitude: 13.34047

- location: Systembolaget Ombud, Klacken Skobutik
  city: Smålandsstenar
  latitude: 57.16356
  longitude: 13.41272

- location: Systembolaget Ombud, Postens Lantbrevbäring
  city: Götene
  latitude: 58.52822
  longitude: 13.49261

- location: Systembolaget Ombud, Bengtssons Färgtema
  city: Veberöd
  latitude: 55.63333
  longitude: 13.49365

- location: Systembolaget Ombud, Statoil
  city: Ekshärad
  latitude: 60.17607
  longitude: 13.49562

- location: Systembolaget Ombud, Everta ICA
  city: Dalstorp
  latitude: 57.6061
  longitude: 13.51015

- location: Systembolaget Ombud, Primören
  city: Harlösa
  latitude: 55.71641
  longitude: 13.52785

- location: Systembolaget Ombud, Coop Konsum
  city: Unnaryd
  latitude: 56.95485
  longitude: 13.52819

- location: Systembolaget Ombud, ICA Matrutan
  city: Grimsås
  latitude: 57.48328
  longitude: 13.54881

- location: Systembolaget Ombud, Åsarp Järn & Bygg
  city: Åsarp
  latitude: 58.02432
  longitude: 13.56248

- location: Systembolaget Ombud, Matglädje
  city: Reftele
  latitude: 57.17477
  longitude: 13.59435

- location: Systembolaget Ombud, ICA Matlusten
  city: Tyringe
  latitude: 56.15945
  longitude: 13.60191

- location: Systembolaget Ombud, Handlarn i Blentarp
  city: Blentarp
  latitude: 55.58368
  longitude: 13.60311

- location: Systembolaget Ombud, Hinneryd Lanthandel
  city: Hinneryd
  latitude: 56.61821
  longitude: 13.60852

- location: Systembolaget Ombud, Hinneryd Livs
  city: Hinneryd
  latitude: 56.61821
  longitude: 13.60852

- location: Systembolaget Ombud, ICA Mörsil
  city: Mörsil
  latitude: 63.3086
  longitude: 13.65878

- location: Systembolaget Ombud, Vittsjö Blomsterhandel
  city: Vittsjö
  latitude: 56.33823
  longitude: 13.66418

- location: Systembolaget Ombud, Skattkärrs Livs
  city: Skattkärr
  latitude: 59.41331
  longitude: 13.67485

- location: Systembolaget Ombud, Nya Birgers Kläder
  city: Sösdala
  latitude: 56.04094
  longitude: 13.68216

- location: Systembolaget Ombud, Olof Nils
  city: Bjärnum
  latitude: 56.29079
  longitude: 13.71059

- location: Systembolaget Ombud, Coop Konsum
  city: Molkom
  latitude: 59.6011
  longitude: 13.7209

- location: Systembolaget Ombud, ICA Nära
  city: Strömsnäsbruk
  latitude: 56.54884
  longitude: 13.73181

- location: Systembolaget Ombud, ICA Nära
  city: Bredaryd
  latitude: 57.17527
  longitude: 13.73688

- location: Systembolaget Ombud, Konsum
  city: Traryd
  latitude: 56.57827
  longitude: 13.74839

- location: Systembolaget Ombud, Öststorm
  city: Väse
  latitude: 59.38238
  longitude: 13.85122

- location: Systembolaget Ombud, Ekbergs Fiske
  city: Vemdalen
  latitude: 62.45015
  longitude: 13.86326

- location: Systembolaget Ombud, Börtnans Livs
  city: Börtnan
  latitude: 62.75935
  longitude: 13.86738

- location: Systembolaget Ombud, ICA Linsell
  city: Linsell
  latitude: 62.15685
  longitude: 13.8905

- location: Systembolaget Ombud, Solens Livs
  city: Venjan
  latitude: 60.95335
  longitude: 13.90939

- location: Systembolaget Ombud, Matöppet i Vinslöv HB
  city: Vinslöv
  latitude: 56.1031
  longitude: 13.913

- location: Systembolaget Ombud, ICA Alsen
  city: Alsen
  latitude: 63.38678
  longitude: 13.92469

- location: Systembolaget Ombud, Fremiko
  city: Sjötorp
  latitude: 58.83933
  longitude: 13.9801

- location: Systembolaget Ombud, ICA Kvarnen
  city: Tidan
  latitude: 58.57357
  longitude: 14.00467

- location: Systembolaget Ombud, Trångsvikens Bygdegård
  city: Trångsviken
  latitude: 63.33143
  longitude: 14.0185

- location: Systembolaget Ombud, Jormboden
  city: Jormvattnet
  latitude: 64.72072
  longitude: 14.04152

- location: Systembolaget Ombud, Freijs Livs
  city: Lyrestad
  latitude: 58.8039
  longitude: 14.06042

- location: Systembolaget Ombud, Lillhärdals Livs
  city: Lillhärdal
  latitude: 61.85015
  longitude: 14.0697

- location: Systembolaget Ombud, Eltjänster
  city: Degeberga
  latitude: 55.83673
  longitude: 14.09015

- location: Systembolaget Ombud, Ansättens Fjällservice
  city: Åkersjön
  latitude: 63.76666
  longitude: 14.09996

- location: Systembolaget Ombud, Götes Allköp
  city: Brösarp
  latitude: 55.72552
  longitude: 14.10081

- location: Systembolaget Ombud, Postens Lantbrevbäring
  city: Pilgrimstad
  latitude: 59.309
  longitude: 14.10614

- location: Systembolaget Ombud, Brynolfs Livs
  city: Löderup
  latitude: 55.43883
  longitude: 14.11258

- location: Systembolaget Ombud, ICA Valsjöbyn
  city: Valsjöbyn
  latitude: 64.06866
  longitude: 14.13612

- location: Systembolaget Ombud, Winthers Bodega
  city: Gäddede
  latitude: 64.5004
  longitude: 14.14299

- location: Systembolaget Ombud, Konfekthörnan
  city: Vaggeryd
  latitude: 57.49919
  longitude: 14.14874

- location: Systembolaget Ombud, ICA Skålan
  city: Skålan
  latitude: 62.64684
  longitude: 14.16156

- location: Systembolaget Ombud, Fjällträffen Rötviken
  city: Rötviken
  latitude: 63.97347
  longitude: 14.1636

- location: Systembolaget Ombud, Olas Livs
  city: Lesjöfors
  latitude: 59.97927
  longitude: 14.18166

- location: Systembolaget Ombud, Bäckhammars Livs
  city: Bäckhammar
  latitude: 59.15995
  longitude: 14.19086

- location: Systembolaget Ombud, Morlinds Lanthandel
  city: Klövsjö
  latitude: 62.52212
  longitude: 14.19368

- location: Systembolaget Ombud, Hova Skoaffär
  city: Hova
  latitude: 58.85745
  longitude: 14.21697

- location: Systembolaget Ombud, Macken i Kivik
  city: Kivik
  latitude: 55.68518
  longitude: 14.22633

- location: Systembolaget Ombud, ICA Näldhallen
  city: Nälden
  latitude: 63.34944
  longitude: 14.24222

- location: Systembolaget Ombud, Ica Nära
  city: Liatorp
  latitude: 56.66496
  longitude: 14.27393

- location: Systembolaget Ombud, Lönsboda Färg
  city: Lönsboda
  latitude: 56.39759
  longitude: 14.32057

- location: Systembolaget Ombud, Lönsboda Färg o Papper
  city: Lönsboda
  latitude: 56.39759
  longitude: 14.32057

- location: Systembolaget Ombud, ICA Nära
  city: Tenhult
  latitude: 57.7092
  longitude: 14.32135

- location: Systembolaget Ombud, Visingsö lanthandel
  city: Visingsö
  latitude: 58.04954
  longitude: 14.34171

- location: Systembolaget Ombud, Granngården
  city: Myrviken
  latitude: 62.99919
  longitude: 14.35451

- location: Systembolaget Ombud, ICA Nära
  city: Undenäs
  latitude: 58.65975
  longitude: 14.40074

- location: Systembolaget Ombud, Handelsboden
  city: Häradsbäck
  latitude: 56.53003
  longitude: 14.45109

- location: Systembolaget Ombud, Kiosk o. Present AB
  city: Malmbäck
  latitude: 57.57837
  longitude: 14.46388

- location: Systembolaget Ombud, Citykiosken
  city: Forserum
  latitude: 57.69929
  longitude: 14.47618

- location: Systembolaget Ombud, ICA Sporren
  city: Hackås
  latitude: 62.92912
  longitude: 14.51585

- location: Systembolaget Ombud, Moheda Färghandel
  city: Moheda
  latitude: 57.0014
  longitude: 14.57188

- location: Systembolaget Ombud, ICA
  city: Fåker
  latitude: 62.99109
  longitude: 14.57978

- location: Systembolaget Ombud, ICA Supermarket
  city: Lammhult
  latitude: 57.16906
  longitude: 14.58108

- location: Systembolaget Ombud, OK Föllinge
  city: Föllinge
  latitude: 63.67037
  longitude: 14.61123

- location: Systembolaget Ombud, Citykiosken
  city: Bodafors
  latitude: 57.5058
  longitude: 14.70222

- location: Systembolaget Ombud, Bohlins Allivs
  city: Kalvsvik
  latitude: 56.73303
  longitude: 14.71201

- location: Systembolaget Ombud, Coop Konsum
  city: Björbo
  latitude: 60.45595
  longitude: 14.73107

- location: Systembolaget Ombud, Jarmos Livs & Bensin
  city: Klimpfjäll
  latitude: 65.06156
  longitude: 14.79801

- location: Systembolaget Ombud, OK
  city: Laxsjö
  latitude: 63.81371
  longitude: 14.80162

- location: Systembolaget Ombud, ICA Nära
  city: Dala-floda
  latitude: 60.5099
  longitude: 14.81047

- location: Systembolaget Ombud, Sedins
  city: Brunflo
  latitude: 63.07857
  longitude: 14.82731

- location: Systembolaget Ombud, ICA Litshallen
  city: Lit
  latitude: 63.31821
  longitude: 14.84611

- location: Systembolaget Ombud, Skatteunge Handel
  city: Skattungbyn
  latitude: 61.18648
  longitude: 14.85772

- location: Systembolaget Ombud, Glas o. Bygg
  city: Rottne
  latitude: 57.02152
  longitude: 14.89122

- location: Systembolaget Ombud, Spar
  city: Landsbro
  latitude: 57.36996
  longitude: 14.90162

- location: Systembolaget Ombud, Coop Konsum
  city: Överturingen
  latitude: 62.45085
  longitude: 14.91416

- location: Systembolaget Ombud, Coop Konsum
  city: Ingelstad
  latitude: 56.74564
  longitude: 14.92026

- location: Systembolaget Ombud, Statoil Rv 45
  city: Ytterhogdal
  latitude: 62.17407
  longitude: 14.9371

- location: Systembolaget Ombud, ICA SJöbergs
  city: Mockfjärd
  latitude: 60.49999
  longitude: 14.9646

- location: Systembolaget Ombud, ICA Torget
  city: Grangärde
  latitude: 60.26246
  longitude: 14.97826

- location: Systembolaget Ombud, Grängesbergs Färg
  city: Grängesberg
  latitude: 60.07517
  longitude: 15.00583

- location: Systembolaget Ombud, Svaningen Handel
  city: Svaningen
  latitude: 64.28328
  longitude: 15.01665

- location: Systembolaget Ombud, Pilishandlar'n
  city: Pilgrimstad
  latitude: 62.95585
  longitude: 15.04243

- location: Systembolaget Ombud, Thours Blommor
  city: Braås
  latitude: 57.06256
  longitude: 15.04973

- location: Systembolaget Ombud, Borgafjällens Lanthandel
  city: Borgafjäll
  latitude: 64.75165
  longitude: 15.05368

- location: Systembolaget Ombud, Coop Konsum
  city: Skänninge
  latitude: 58.39559
  longitude: 15.08565

- location: Systembolaget Ombud, V Berglunds Järnhandel
  city: Hemavan
  latitude: 65.81631
  longitude: 15.08727

- location: Systembolaget Ombud, Dädesjö Lanthandel
  city: Dädesjö
  latitude: 57.0099
  longitude: 15.10618

- location: Systembolaget Ombud, Lanthallen
  city: Bräkne-hoby
  latitude: 56.22842
  longitude: 15.11779

- location: Systembolaget Ombud, BLÅSJÖN ICA Blåsjöfjäll
  city: Stora
  latitude: 59.71331
  longitude: 15.1305

- location: Systembolaget Ombud, SUNDBY ICA Rutan
  city: Stora
  latitude: 59.71331
  longitude: 15.1305

- location: Systembolaget Ombud, Oreboden
  city: Furudal
  latitude: 61.16866
  longitude: 15.13848

- location: Systembolaget Ombud, Bodsjö Diverse
  city: Sidsjö
  latitude: 62.73333
  longitude: 15.15001

- location: Systembolaget Ombud, Handlar'n
  city: Godegård
  latitude: 58.74764
  longitude: 15.1604

- location: Systembolaget Ombud, Berglunds Närbutik
  city: Los
  latitude: 61.73823
  longitude: 15.16469

- location: Systembolaget Ombud, Kölsillre Handel
  city: Kölsillre
  latitude: 62.39749
  longitude: 15.21108

- location: Systembolaget Ombud, ICA
  city: Fornåsa
  latitude: 58.47847
  longitude: 15.22603

- location: Systembolaget Ombud, Lidsjöbergs Handel
  city: Lidsjöberg
  latitude: 64.3082
  longitude: 15.23034

- location: Systembolaget Ombud, Gällö Livs
  city: Gällö
  latitude: 62.91261
  longitude: 15.23162

- location: Systembolaget Ombud, Matöppet
  city: Rävemåla
  latitude: 56.55695
  longitude: 15.26332

- location: Systembolaget Ombud, Malexander Café
  city: Malexander
  latitude: 58.03333
  longitude: 15.27905

- location: Systembolaget Ombud, Östensons
  city: Borensberg
  latitude: 58.56276
  longitude: 15.28094

- location: Systembolaget Ombud, Önnebo Lanthandel
  city: Önnebo
  latitude: 58.23333
  longitude: 15.28326

- location: Systembolaget Ombud, Lenhovda Färghandel
  city: Lenhovda
  latitude: 56.99669
  longitude: 15.28574

- location: Systembolaget Ombud, Affärn at a Margita
  city: Rissna
  latitude: 63.05895
  longitude: 15.33703

- location: Systembolaget Ombud, Lundbergs Livs
  city: Hjältevad
  latitude: 57.62862
  longitude: 15.34116

- location: Systembolaget Ombud, Lillkiosken
  city: Hammerdal
  latitude: 63.58298
  longitude: 15.35172

- location: Systembolaget Ombud, Tjällmo Handel
  city: Tjällmo
  latitude: 58.71491
  longitude: 15.35603

- location: Systembolaget Ombud, Matöppet
  city: Eringsboda
  latitude: 56.43743
  longitude: 15.36762

- location: Systembolaget Ombud, Skiröboden
  city: Skirö
  latitude: 57.37317
  longitude: 15.36909

- location: Systembolaget Ombud, Listerby Livs
  city: Listerby
  latitude: 56.19999
  longitude: 15.40319

- location: Systembolaget Ombud, Dalfors Lanthandel
  city: Dalfors
  latitude: 61.21461
  longitude: 15.40843

- location: Systembolaget Ombud, Handlar'n
  city: Ulrika
  latitude: 58.12682
  longitude: 15.43275

- location: Systembolaget Ombud, Spar
  city: Bjursås
  latitude: 60.73913
  longitude: 15.44305

- location: Systembolaget Ombud, Tvings Kioskhandel
  city: Tving
  latitude: 56.3077
  longitude: 15.46436

- location: Systembolaget Ombud, Östavalls Livs
  city: Östavall
  latitude: 62.42652
  longitude: 15.4781

- location: Systembolaget Ombud, Handlarn
  city: Ljusfallshammar
  latitude: 58.78748
  longitude: 15.49606

- location: Systembolaget Ombud, Spar
  city: Ljungsbro
  latitude: 58.5083
  longitude: 15.50174

- location: Systembolaget Ombud, Butik och Bensin
  city: Kvillsfors
  latitude: 57.4038
  longitude: 15.50406

- location: Systembolaget Ombud, Sista Utposten
  city: Kittelfjäll
  latitude: 65.25225
  longitude: 15.51522

- location: Systembolaget Ombud, Flåsjöbua
  city: Gubbhögen
  latitude: 64.21661
  longitude: 15.55001

- location: Systembolaget Ombud, Aspö Livsmedel
  city: Drottningskär
  latitude: 56.11361
  longitude: 15.55749

- location: Systembolaget Ombud, ICA Bärkehallen
  city: Söderbärke
  latitude: 60.07007
  longitude: 15.55793

- location: Systembolaget Ombud, Gertie Claessons Åkeri
  city: Nävragöl
  latitude: 56.37497
  longitude: 15.56711

- location: Systembolaget Ombud, HandLarn
  city: Målerås
  latitude: 56.91491
  longitude: 15.56874

- location: Systembolaget Ombud, Engdahls Färghandel
  city: Mariannelund
  latitude: 57.61671
  longitude: 15.57183

- location: Systembolaget Ombud, Butik Kyrkbacken
  city: Virserum
  latitude: 57.31921
  longitude: 15.5819

- location: Systembolaget Ombud, Postens Lantbrevbäring
  city: Karlskrona
  latitude: 56.16146
  longitude: 15.58386

- location: Systembolaget Ombud, Bokhandeln
  city: Fellingsbro
  latitude: 59.43513
  longitude: 15.59383

- location: Systembolaget Ombud, ICA Blixten
  city: Stugun
  latitude: 63.16756
  longitude: 15.60251

- location: Systembolaget Ombud, Blomsterbutiken
  city: Järnforsen
  latitude: 57.41251
  longitude: 15.61608

- location: Systembolaget Ombud, ICA Alsterhallen
  city: Alstermo
  latitude: 56.97517
  longitude: 15.6563

- location: Systembolaget Ombud, Bingsjö Lanthandel
  city: Bingsjö
  latitude: 61.02732
  longitude: 15.65922

- location: Systembolaget Ombud, Sturköhallen
  city: Sturkö
  latitude: 56.11271
  longitude: 15.67932

- location: Systembolaget Ombud, Handlarn
  city: Brokind
  latitude: 58.21961
  longitude: 15.68267

- location: Systembolaget Ombud, ICA Melkers
  city: Rimforsa
  latitude: 58.13663
  longitude: 15.6855

- location: Systembolaget Ombud, Igelfors Livs AB
  city: Igelfors
  latitude: 58.84764
  longitude: 15.69728

- location: Systembolaget Ombud, Ica Wohlfarts
  city: Gullringen
  latitude: 57.8005
  longitude: 15.71892

- location: Systembolaget Ombud, Konsum
  city: Orrefors
  latitude: 56.83853
  longitude: 15.74823

- location: Systembolaget Ombud, Tänger Handel HB
  city: Övertänger
  latitude: 60.86416
  longitude: 15.75098

- location: Systembolaget Ombud, Cedervall Bensin & Service
  city: Enviken
  latitude: 60.808
  longitude: 15.75853

- location: Systembolaget Ombud, Torhallen
  city: Torhamn
  latitude: 56.09479
  longitude: 15.83362

- location: Systembolaget Ombud, Svensk Kassaservice
  city: Jämjö
  latitude: 56.19219
  longitude: 15.83757

- location: Systembolaget Ombud, Edlunds Foto & Data
  city: Färila
  latitude: 61.79899
  longitude: 15.84032

- location: Systembolaget Ombud, Postens Lantbrevbäring
  city: Hultsfred
  latitude: 57.48838
  longitude: 15.841

- location: Systembolaget Ombud, Kolsva Handel
  city: Kolsva
  latitude: 59.59989
  longitude: 15.84281

- location: Systembolaget Ombud, Mörlunda Färg & Papper
  city: Mörlunda
  latitude: 57.32052
  longitude: 15.86283

- location: Systembolaget Ombud, Hävla Handel
  city: Hävla
  latitude: 58.91511
  longitude: 15.86662

- location: Systembolaget Ombud, Stalon Bensin & Diverse
  city: Stalon
  latitude: 64.94994
  longitude: 15.90003

- location: Systembolaget Ombud, Svärdsjö Färg AB
  city: Svärdsjö
  latitude: 60.74144
  longitude: 15.90552

- location: Systembolaget Ombud, Coop Konsum Eskilsvägen 4
  city: Skärblacka
  latitude: 58.58168
  longitude: 15.91361

- location: Systembolaget Ombud, Konsum
  city: Alsterbro
  latitude: 56.93403
  longitude: 15.91405

- location: Systembolaget Ombud, Macken
  city: Hycklinge
  latitude: 57.92242
  longitude: 15.91816

- location: Systembolaget Ombud, ICA Nära
  city: Påryd
  latitude: 56.56916
  longitude: 15.92547

- location: Systembolaget Ombud, Rejmyre Kiosk
  city: Rejmyre
  latitude: 58.82972
  longitude: 15.93028

- location: Systembolaget Ombud, Konsum
  city: Fågelmara
  latitude: 56.25975
  longitude: 15.94874

- location: Systembolaget Ombud, Oves Livs
  city: Överammer
  latitude: 63.21401
  longitude: 15.95338

- location: Systembolaget Ombud, Dikanäs Fjällhandel
  city: Dikanäs
  latitude: 65.23493
  longitude: 15.98783

- location: Systembolaget Ombud, NAGGEN
  city: Naggen
  latitude: 62.27787
  longitude: 15.9886

- location: Systembolaget Ombud, Österåker Lanthandelscenter
  city: Österåker
  latitude: 59.12522
  longitude: 15.9887

- location: Systembolaget Ombud, Husby Lanthandel
  city: Dala-husby
  latitude: 60.38558
  longitude: 15.99385

- location: Systembolaget Ombud, ICA Mathyttan
  city: Långshyttan
  latitude: 60.45265
  longitude: 16.03346

- location: Systembolaget Ombud, Ljungaverkskiosken
  city: Ljungaverk
  latitude: 62.49059
  longitude: 16.05107

- location: Systembolaget Ombud, Kälarne Livs
  city: Kälarne
  latitude: 62.97317
  longitude: 16.0917

- location: Systembolaget Ombud, ICA Trekanten
  city: Trekanten
  latitude: 56.69939
  longitude: 16.12067

- location: Systembolaget Ombud, Allans Livs
  city: Vassmolösa
  latitude: 56.59459
  longitude: 16.1656

- location: Systembolaget Ombud, Järnhuset
  city: Järvsö
  latitude: 61.71531
  longitude: 16.16945

- location: Systembolaget Ombud, Konsum Fränsta
  city: Fränsta
  latitude: 62.49789
  longitude: 16.17659

- location: Systembolaget Ombud, Totebo Lanthandel
  city: Totebo
  latitude: 57.63103
  longitude: 16.18476

- location: Systembolaget Ombud, Coop Konsum
  city: Kristdala
  latitude: 57.39979
  longitude: 16.19695

- location: Systembolaget Ombud, HC's Sport o Fiske
  city: Hoting
  latitude: 64.1087
  longitude: 16.20073

- location: Systembolaget Ombud, Stjärnsundskiosken
  city: Stjärnsund
  latitude: 60.43363
  longitude: 16.20882

- location: Systembolaget Ombud, ICA Vindelfjällen
  city: Ammarnäs
  latitude: 65.95775
  longitude: 16.20957

- location: Systembolaget Ombud, Lungsjöns Livs
  city: Lungsjön
  latitude: 63.46676
  longitude: 16.24996

- location: Systembolaget Ombud, Hjorteds Handelsträdgård
  city: Hjorted
  latitude: 57.62102
  longitude: 16.30692

- location: Systembolaget Ombud, Sjöbergs Ljud & Bild
  city: Överum
  latitude: 57.99069
  longitude: 16.30864

- location: Systembolaget Ombud, Konsum
  city: Torpshammar
  latitude: 62.47287
  longitude: 16.33003

- location: Systembolaget Ombud, Centrumköp
  city: Rossön
  latitude: 63.92282
  longitude: 16.34232

- location: Systembolaget Ombud, Köplusten
  city: Salbohed
  latitude: 59.91231
  longitude: 16.34757

- location: Systembolaget Ombud, Maries livs
  city: Malgovik
  latitude: 64.63893
  longitude: 16.36208

- location: Systembolaget Ombud, Coop Konsum
  city: Krokek
  latitude: 58.66896
  longitude: 16.36853

- location: Systembolaget Ombud, ICA Nära Skansen
  city: Mörbylånga
  latitude: 56.52632
  longitude: 16.37823

- location: Systembolaget Ombud, Spelboa i Arbrå
  city: Arbrå
  latitude: 61.47287
  longitude: 16.37865

- location: Systembolaget Ombud, ICA Nära Mörbylånga
  city: Mörbylånga
  latitude: 56.52532
  longitude: 16.38511

- location: Systembolaget Ombud, Arvidssons Specerier
  city: Grönhögen
  latitude: 56.26846
  longitude: 16.40375

- location: Systembolaget Ombud, Jourlivs
  city: Horndal
  latitude: 60.29799
  longitude: 16.41011

- location: Systembolaget Ombud, Ringarums Livs AB
  city: Ringarum
  latitude: 58.33303
  longitude: 16.44567

- location: Systembolaget Ombud, Coop Konsum
  city: Hälleforsnäs
  latitude: 59.14994
  longitude: 16.49851

- location: Systembolaget Ombud, Coop Konsum
  city: Blankaholm
  latitude: 57.59029
  longitude: 16.5254

- location: Systembolaget Ombud, ICA
  city: Friggesund
  latitude: 61.89749
  longitude: 16.54447

- location: Systembolaget Ombud, Edselehallen
  city: Edsele
  latitude: 63.4049
  longitude: 16.54533

- location: Systembolaget Ombud, Coop Konsum
  city: Figeholm
  latitude: 57.37117
  longitude: 16.54972

- location: Systembolaget Ombud, Delsbo Livs
  city: Delsbo
  latitude: 61.8
  longitude: 16.55393

- location: Systembolaget Ombud, Kilafors Färghandel
  city: Kilafors
  latitude: 61.23043
  longitude: 16.56802

- location: Systembolaget Ombud, ICA Isak
  city: Stöde
  latitude: 62.41791
  longitude: 16.58254

- location: Systembolaget Ombud, Evas Livs
  city: Svanabyn
  latitude: 64.1034
  longitude: 16.63977

- location: Systembolaget Ombud, Bottna Lanthandel
  city: Bottna
  latitude: 58.39199
  longitude: 16.67241

- location: Systembolaget Ombud, Coop Konsum
  city: Ärla
  latitude: 59.28188
  longitude: 16.67782

- location: Systembolaget Ombud, DinX Bensin
  city: Loftahammar
  latitude: 57.9059
  longitude: 16.69577

- location: Systembolaget Ombud, Tempo
  city: Vrena
  latitude: 58.86126
  longitude: 16.69998

- location: Systembolaget Ombud, Uno-X
  city: Hassela
  latitude: 62.11011
  longitude: 16.7078

- location: Systembolaget Ombud, QSTAR
  city: Jönåker
  latitude: 58.74524
  longitude: 16.72455

- location: Systembolaget Ombud, Färnebo Livs
  city: Österfärnebo
  latitude: 60.31471
  longitude: 16.79913

- location: Systembolaget Ombud, Coop Konsum
  city: Nävekvarn
  latitude: 58.63193
  longitude: 16.80007

- location: Systembolaget Ombud, Tempo
  city: Sparreholm
  latitude: 59.07427
  longitude: 16.81606

- location: Systembolaget Ombud, Trönö Lanthandel
  city: Trönö
  latitude: 61.39529
  longitude: 16.83728

- location: Systembolaget Ombud, ICA Service Center
  city: Stråtjära
  latitude: 61.16616
  longitude: 16.84295

- location: Systembolaget Ombud, Konsum
  city: Junsele
  latitude: 63.69579
  longitude: 16.87955

- location: Systembolaget Ombud, Coop Konsum
  city: Näsåker
  latitude: 63.44264
  longitude: 16.8974

- location: Systembolaget Ombud, Fjärdhundra Allköp
  city: Fjärdhundra
  latitude: 59.77657
  longitude: 16.92551

- location: Systembolaget Ombud, Uno-X
  city: Tärnsjö
  latitude: 60.15415
  longitude: 16.92843

- location: Systembolaget Ombud, Arkö Livs VIKBOLANDET
  city: Arkösund
  latitude: 58.48978
  longitude: 16.93273

- location: Systembolaget Ombud, Jäckviks Livs
  city: Jäckvik
  latitude: 66.38698
  longitude: 16.97086

- location: Systembolaget Ombud, Lunda Handel
  city: Huddungeby
  latitude: 60.05005
  longitude: 16.98333

- location: Systembolaget Ombud, Löttorpshallen
  city: Löttorp
  latitude: 57.16616
  longitude: 16.99226

- location: Systembolaget Ombud, Köpcentrum
  city: Valbo
  latitude: 60.64044
  longitude: 17.00033

- location: Systembolaget Ombud, Coop Konsum Iggesund
  city: Enånger
  latitude: 61.54744
  longitude: 17.00464

- location: Systembolaget Ombud, Stina i backen
  city: Hedesunda
  latitude: 60.39319
  longitude: 17.00781

- location: Systembolaget Ombud, ICA Strandhallen
  city: Stjärnhov
  latitude: 59.08098
  longitude: 17.0085

- location: Systembolaget Ombud, Matfors Spelbutik
  city: Matfors
  latitude: 62.34714
  longitude: 17.02087

- location: Systembolaget Ombud, Lucksta Livs
  city: Lucksta
  latitude: 62.29909
  longitude: 17.04932

- location: Systembolaget Ombud, Köpmangatan 9
  city: Söderhamn
  latitude: 61.3018
  longitude: 17.05232

- location: Systembolaget Ombud, Handlar'n
  city: Resele
  latitude: 63.33493
  longitude: 17.06692

- location: Systembolaget Ombud, Indals Livs
  city: Indal
  latitude: 62.57707
  longitude: 17.09733

- location: Systembolaget Ombud, Coop Konsum
  city: Axmarby
  latitude: 61.004
  longitude: 17.13067

- location: Systembolaget Ombud, Coop Konsum
  city: Norrsundet
  latitude: 60.93053
  longitude: 17.14149

- location: Systembolaget Ombud, ICA i Järlåsa
  city: Järlåsa
  latitude: 59.88548
  longitude: 17.19726

- location: Systembolaget Ombud, ICA-Hallen
  city: Harmånger
  latitude: 61.92782
  longitude: 17.21821

- location: Systembolaget Ombud, Coop Konsum
  city: Tystberga
  latitude: 58.84724
  longitude: 17.23455

- location: Systembolaget Ombud, ICA Stjärnan
  city: Gnarp
  latitude: 62.05395
  longitude: 17.23926

- location: Systembolaget Ombud, ICA Örsundsbro
  city: Örsundsbro
  latitude: 59.73533
  longitude: 17.30937

- location: Systembolaget Ombud, Ljustorps Handel
  city: Ljustorp
  latitude: 62.62222
  longitude: 17.33464

- location: Systembolaget Ombud, Kajutan AB
  city: Stocka
  latitude: 61.89799
  longitude: 17.33516

- location: Systembolaget Ombud, ICA Tjädern
  city: Oxsätra
  latitude: 60.0013
  longitude: 17.36135

- location: Systembolaget Ombud, Söråkershallen
  city: Söråker
  latitude: 62.5058
  longitude: 17.50775

- location: Systembolaget Ombud, Reutmans Lanthandel
  city: Blattnicksele
  latitude: 65.33713
  longitude: 17.59056

- location: Systembolaget Ombud, Skyttens Livs
  city: Skyttorp
  latitude: 60.07907
  longitude: 17.72949

- location: Systembolaget Ombud, Konsum
  city: Vattholma
  latitude: 60.01621
  longitude: 17.73353

- location: Systembolaget Ombud, Handlar'n i Undrom
  city: Undrom
  latitude: 63.11811
  longitude: 17.74229

- location: Systembolaget Ombud, Deremars Livs
  city: Skärplinge
  latitude: 60.47267
  longitude: 17.75992

- location: Systembolaget Ombud, Deremars Livs AB
  city: Skärplinge
  latitude: 60.47267
  longitude: 17.75992

- location: Systembolaget Ombud, ICA Kniven
  city: Knivsta
  latitude: 59.72482
  longitude: 17.78827

- location: Systembolaget Ombud, Coop Konsum
  city: Skorped
  latitude: 63.38458
  longitude: 17.85613

- location: Systembolaget Ombud, ICA Brukskanonen
  city: Österbybruk
  latitude: 60.19629
  longitude: 17.89531

- location: Systembolaget Ombud, LUNGVIK
  city: Lungvik
  latitude: 62.91671
  longitude: 17.91662

- location: Systembolaget Ombud, Jonssons Livs
  city: Gargnäs
  latitude: 65.31271
  longitude: 17.96343

- location: Systembolaget Ombud, Coop Konsum
  city: Almunge
  latitude: 59.87547
  longitude: 18.04515

- location: Systembolaget Ombud, ICA Nära Strömmen
  city: Noraström
  latitude: 62.87207
  longitude: 18.08208

- location: Systembolaget Ombud, Sanfo Sport
  city: Alunda
  latitude: 60.06506
  longitude: 18.08528

- location: Systembolaget Ombud, Slagnäs Lanthandel
  city: Slagnäs
  latitude: 65.58608
  longitude: 18.16697

- location: Systembolaget Ombud, ICA Supermarket
  city: Gimo
  latitude: 60.17227
  longitude: 18.1852

- location: Systembolaget Ombud, Pressbyrån
  city: Klintehamn
  latitude: 57.38578
  longitude: 18.2034

- location: Systembolaget Ombud, ICA Knuten
  city: Knutby
  latitude: 59.9094
  longitude: 18.26569

- location: Systembolaget Ombud, Hoburgshallen
  city: Burgsvik
  latitude: 57.03073
  longitude: 18.27437

- location: Systembolaget Ombud, Bonus Livs
  city: Sidensjö
  latitude: 63.29959
  longitude: 18.28252

- location: Systembolaget Ombud, Utö Livs
  city: Utö
  latitude: 58.95595
  longitude: 18.29155

- location: Systembolaget Ombud, ICA
  city: Nordingrå
  latitude: 62.93023
  longitude: 18.29344

- location: Systembolaget Ombud, Postens Lantbrevbäring
  city: Visby
  latitude: 57.63843
  longitude: 18.30006

- location: Systembolaget Ombud, Docksta Järn
  city: Docksta
  latitude: 63.05455
  longitude: 18.32634

- location: Systembolaget Ombud, Karlavagnen
  city: Östhammar
  latitude: 60.25875
  longitude: 18.36983

- location: Systembolaget Ombud, ICA Fredrika
  city: Fredrika
  latitude: 64.07467
  longitude: 18.39885

- location: Systembolaget Ombud, Tempo
  city: Mjällom
  latitude: 62.98578
  longitude: 18.42782

- location: Systembolaget Ombud, ICA Skeppet
  city: Hargshamn
  latitude: 60.17067
  longitude: 18.46115

- location: Systembolaget Ombud, Pär Johanssons Livs
  city: Edsbro
  latitude: 59.89649
  longitude: 18.49432

- location: Systembolaget Ombud, Hemlings Lanthandel
  city: Hemling
  latitude: 63.65675
  longitude: 18.54036

- location: Systembolaget Ombud, Köpmanholmens Servicebutik
  city: Köpmanholmen
  latitude: 63.16926
  longitude: 18.5596

- location: Systembolaget Ombud, Bäcklunds Järn o Färg
  city: Björna
  latitude: 63.55085
  longitude: 18.59878

- location: Systembolaget Ombud, Gideå Handel
  city: Gideå
  latitude: 63.55005
  longitude: 18.61666

- location: Systembolaget Ombud, ICA Guns Livs
  city: Nämdö
  latitude: 59.18208
  longitude: 18.68925

- location: Systembolaget Ombud, Handlarn
  city: Långviksmon
  latitude: 63.62962
  longitude: 18.69424

- location: Systembolaget Ombud, LJUGARN
  city: Ljugarn
  latitude: 57.33363
  longitude: 18.70197

- location: Systembolaget Ombud, ICA Singö
  city: Singö
  latitude: 60.16666
  longitude: 18.73333

- location: Systembolaget Ombud, Grisslehamns Livs
  city: Grisslehamn
  latitude: 60.1007
  longitude: 18.80703

- location: Systembolaget Ombud, BACKA ICA Barometern
  city: Väddö
  latitude: 59.97057
  longitude: 18.80791

- location: Systembolaget Ombud, ICA Lapporten
  city: Abisko
  latitude: 68.35075
  longitude: 18.8322

- location: Systembolaget Ombud, Konsum
  city: Trehörningsjö
  latitude: 63.69259
  longitude: 18.86443

- location: Systembolaget Ombud, Coop Konsum
  city: Möja
  latitude: 59.4053
  longitude: 18.87465

- location: Systembolaget Ombud, ICA
  city: Rusksele
  latitude: 64.81381
  longitude: 18.90121

- location: Systembolaget Ombud, Vätö Matboa
  city: Vätö
  latitude: 59.8035
  longitude: 18.91813

- location: Systembolaget Ombud, Örträsk Livs
  city: Örträsk
  latitude: 64.14014
  longitude: 18.98051

- location: Systembolaget Ombud, Flärke Lanthandel
  city: Flärke
  latitude: 63.57697
  longitude: 19.0245

- location: Systembolaget Ombud, Gräddö Skärgårdshandel
  city: Gräddö
  latitude: 59.76366
  longitude: 19.03514

- location: Systembolaget Ombud, ICA Bungehallen
  city: Fårösund
  latitude: 57.86306
  longitude: 19.05532

- location: Systembolaget Ombud, Blochman Lantz Livs
  city: Fårö
  latitude: 57.91661
  longitude: 19.13326

- location: Systembolaget Ombud, Bäcklunds Järn
  city: Husum
  latitude: 63.34054
  longitude: 19.16324

- location: Systembolaget Ombud, Åmsele Kiosk o. Bensin
  city: Åmsele
  latitude: 64.53023
  longitude: 19.34709

- location: Systembolaget Ombud, Gränsmyr Bensin & Livs
  city: Gräsmyr
  latitude: 63.76866
  longitude: 19.62177

- location: Systembolaget Ombud, Stenbergs Kiosk
  city: Glommersträsk
  latitude: 65.26136
  longitude: 19.62787

- location: Systembolaget Ombud, Lapponia Livs
  city: Porjus
  latitude: 66.95905
  longitude: 19.81689

- location: Systembolaget Ombud, Coop Konsumhallen
  city: Hörnefors
  latitude: 63.62552
  longitude: 19.90846

- location: Systembolaget Ombud, L Perssons Diversehandel
  city: Kåbdalis
  latitude: 66.14884
  longitude: 19.98664

- location: Systembolaget Ombud, ICA Tornet
  city: Sörmjöle
  latitude: 63.68118
  longitude: 19.99961

- location: Systembolaget Ombud, Jörns Busstation
  city: Jörn
  latitude: 65.05965
  longitude: 20.03777

- location: Systembolaget Ombud, Matboa
  city: Tavelsjö
  latitude: 64.03803
  longitude: 20.05753

- location: Systembolaget Ombud, ICA
  city: Botsmark
  latitude: 64.25435
  longitude: 20.24311

- location: Systembolaget Ombud, ICA Extra
  city: Boliden
  latitude: 64.86746
  longitude: 20.38958

- location: Systembolaget Ombud, Edmans Handel
  city: Bullmark
  latitude: 64.03193
  longitude: 20.48236

- location: Systembolaget Ombud, ICA
  city: Bygdsiljum
  latitude: 64.35085
  longitude: 20.50351

- location: Systembolaget Ombud, Tobias Livs
  city: Vidsel
  latitude: 65.83363
  longitude: 20.53228

- location: Systembolaget Ombud, Sävarkiosken
  city: Sävar
  latitude: 63.9031
  longitude: 20.55033

- location: Systembolaget Ombud, UnoX Bensin
  city: Vuollerim
  latitude: 66.43083
  longitude: 20.60394

- location: Systembolaget Ombud, Burträsks Busstation
  city: Burträsk
  latitude: 64.51821
  longitude: 20.65816

- location: Systembolaget Ombud, ICA Polar
  city: Gällivare
  latitude: 67.13303
  longitude: 20.65833

- location: Systembolaget Ombud, Coop Konsum
  city: Kusmark
  latitude: 64.87657
  longitude: 20.80712

- location: Systembolaget Ombud, Järnaffär'n
  city: Bygdeå
  latitude: 64.06546
  longitude: 20.84974

- location: Systembolaget Ombud, Harads Café
  city: Harads
  latitude: 66.08618
  longitude: 20.95137

- location: Systembolaget Ombud, Dyrlind Snabbköp
  city: Skaulo
  latitude: 67.41481
  longitude: 21.11393

- location: Systembolaget Ombud, ICA Olofssons
  city: Lillpite
  latitude: 65.37387
  longitude: 21.15285

- location: Systembolaget Ombud, Mitt I Konfektyr och Video
  city: Bureå
  latitude: 64.61801
  longitude: 21.19977

- location: Systembolaget Ombud, Holmgrens Livs
  city: Skelleftehamn
  latitude: 64.68908
  longitude: 21.22089

- location: Systembolaget Ombud, Lövångers Blommor
  city: Lövånger
  latitude: 64.36946
  longitude: 21.31419

- location: Systembolaget Ombud, Coop Konsum
  city: Nilivaara
  latitude: 67.22442
  longitude: 21.61232

- location: Systembolaget Ombud, Coop Konsum
  city: Vittangi
  latitude: 67.67757
  longitude: 21.64497

- location: Systembolaget Ombud, Risviks svejde AB
  city: Rosvik
  latitude: 65.43013
  longitude: 21.68904

- location: Systembolaget Ombud, Gunnarsby Livs
  city: Gunnarsbyn
  latitude: 66.08358
  longitude: 21.80467

- location: Systembolaget Ombud, Mäkis Snabbköp
  city: Ullatti
  latitude: 67.01571
  longitude: 21.81362

- location: Systembolaget Ombud, Coop Konsum
  city: Lannavaara
  latitude: 68.04884
  longitude: 21.97264

- location: Systembolaget Ombud, Niemisel Livs Nära Dig
  city: Niemisel
  latitude: 66.01911
  longitude: 21.9907

- location: Systembolaget Ombud, Asurboden
  city: Masugnsbyn
  latitude: 67.46106
  longitude: 22.03529

- location: Systembolaget Ombud, ICA Handelsboden
  city: Råneå
  latitude: 65.85725
  longitude: 22.28942

- location: Systembolaget Ombud, Statoil
  city: Karesuando
  latitude: 68.43893
  longitude: 22.45935

- location: Systembolaget Ombud, ICA Nära Alskog
  city: Junosuando
  latitude: 67.42962
  longitude: 22.50772

- location: Systembolaget Ombud, Silverlinds Bil
  city: Tärendö
  latitude: 67.16886
  longitude: 22.61418

- location: Systembolaget Ombud, ICA Nyckeln
  city: Töre
  latitude: 65.91251
  longitude: 22.64612

- location: Systembolaget Ombud, Coop Konsum
  city: Morjärv
  latitude: 66.06906
  longitude: 22.70111

- location: Systembolaget Ombud, Postens Lantbrevbäring
  city: Pilgrimstad
  latitude: 67.21071
  longitude: 23.36919

- location: Systembolaget Ombud, Kajutan Livs
  city: Båtskärsnäs
  latitude: 65.78548
  longitude: 23.41489

- location: Systembolaget Ombud, Coop Konsum
  city: Sangis
  latitude: 65.85875
  longitude: 23.50983

- location: Systembolaget Ombud, Seskarö Livs
  city: Seskarö
  latitude: 65.73883
  longitude: 23.73803

- location: Systembolaget Ombud, ICA Rautila
  city: Juoksengi
  latitude: 66.56846
  longitude: 23.8504
