meta:
  name: Telenor
  web: https://www.telenor.se/
  wikipedia: https://sv.wikipedia.org/wiki/Telenor_Sverige
  category: Telefonibutikskedjor
  locations: 44

locations:
- location: Telenor Frölunda, Frölunda Torg
  city: Frölunda
  country: Sverige
  latitude: 57.651187
  longitude: 11.911313

- location: Telenor Göteborg, Backaplan
  city: Göteborg
  country: Sverige
  latitude: 57.721937
  longitude: 11.951438

- location: Telenor Göteborg, Kongahälla Center
  city: Göteborg
  country: Sverige
  latitude: 57.873438
  longitude: 11.967813

- location: Telenor Göteborg, Nordstan
  city: Göteborg
  country: Sverige
  latitude: 57.707563
  longitude: 11.969437

- location: Telenor Göteborg, Kungsmässan
  city: Göteborg
  country: Sverige
  latitude: 57.492687
  longitude: 12.074063

- location: Telenor Partille, Allum
  city: Partille
  country: Sverige
  latitude: 57.736687
  longitude: 12.105562

- location: Telenor Trollhättan, Etage Shopping
  city: Trollhättan
  country: Sverige
  latitude: 58.312812
  longitude: 12.308187

- location: Telenor Helsingborg, Väla Centrum
  city: Helsingborg
  country: Sverige
  latitude: 56.091563
  longitude: 12.756937

- location: Telenor Halmstad, City
  city: Halmstad
  country: Sverige
  latitude: 56.674813
  longitude: 12.856188

- location: Telenor Borås, City
  city: Borås
  country: Sverige
  latitude: 57.720188
  longitude: 12.941437

- location: Telenor Malmö, Emporia
  city: Malmö
  country: Sverige
  latitude: 55.565062
  longitude: 12.973437

- location: Telenor Löddeköpinge, Center Syd
  city: Löddeköpinge
  country: Sverige
  latitude: 55.769188
  longitude: 12.987562

- location: Telenor Malmö, Triangeln
  city: Malmö
  country: Sverige
  latitude: 55.596062
  longitude: 13.002313

- location: Telenor Malmö, Mobilia
  city: Malmö
  country: Sverige
  latitude: 55.581437
  longitude: 13.003937

- location: Telenor Arlöv, Burlöv center
  city: Arlöv
  country: Sverige
  latitude: 55.639562
  longitude: 13.084437

- location: Telenor Lund, City
  city: Lund
  country: Sverige
  latitude: 55.701563
  longitude: 13.192813

- location: Telenor Karlstad, Bergvik
  city: Karlstad
  country: Sverige
  latitude: 59.377187
  longitude: 13.426063

- location: Telenor Skövde, Elins Esplanad
  city: Skövde
  country: Sverige
  latitude: 58.405313
  longitude: 13.856312

- location: Telenor Jönköping, Asecs
  city: Jönköping
  country: Sverige
  latitude: 57.773187
  longitude: 14.204562

- location: Telenor Kristianstad, C4 Shopping
  city: Kristianstad
  country: Sverige
  latitude: 56.025562
  longitude: 14.205938

- location: Telenor Växjö, Grand Samarkand
  city: Växjö
  country: Sverige
  latitude: 56.884687
  longitude: 14.766938

- location: Telenor Örebro, Marieberg Galleria
  city: Örebro
  country: Sverige
  latitude: 59.217562
  longitude: 15.137313

- location: Telenor Linköping, i-Huset
  city: Linköping
  country: Sverige
  latitude: 58.434438
  longitude: 15.585562

- location: Telenor Karlskrona, Amiralen
  city: Karlskrona
  country: Sverige
  latitude: 56.196562
  longitude: 15.642812

- location: Telenor Norrköping, Spiralen
  city: Norrköping
  country: Sverige
  latitude: 58.587063
  longitude: 16.190438

- location: Telenor Kalmar, Giraffens Köpcentrum
  city: Kalmar
  country: Sverige
  latitude: 56.670313
  longitude: 16.338938

- location: Telenor Västerås, Erikslund Shopping Center
  city: Västerås
  country: Sverige
  latitude: 59.609188
  longitude: 16.453688

- location: Telenor Eskilstuna, Tuna Park
  city: Eskilstuna
  country: Sverige
  latitude: 59.371813
  longitude: 16.469437

- location: Telenor Gävle, Gallerian Nian
  city: Gävle
  country: Sverige
  latitude: 60.674437
  longitude: 17.140813

- location: Telenor Uppsala, S:t Per Gallerian
  city: Uppsala
  country: Sverige
  latitude: 59.860062
  longitude: 17.637937

- location: Telenor Uppsala, Gränbystaden
  city: Uppsala
  country: Sverige
  latitude: 59.877813
  longitude: 17.673563

- location: Telenor Skärholmen, Skärholmen centrum
  city: Skärholmen
  country: Sverige
  latitude: 59.276063
  longitude: 17.907938

- location: Telenor Kista, Kista Gallerian
  city: Kista
  country: Sverige
  latitude: 59.402438
  longitude: 17.944313

- location: Telenor Sollentuna, Sollentuna Centrum
  city: Sollentuna
  country: Sverige
  latitude: 59.428438
  longitude: 17.950437

- location: Telenor Solna, Mall of Scandinavia
  city: Solna
  country: Sverige
  latitude: 59.371063
  longitude: 18.003312

- location: Telenor Stockholm, Liljeholmstorget Galleria
  city: Stockholm
  country: Sverige
  latitude: 59.309438
  longitude: 18.021937

- location: Telenor Stockholm, Drottninggatan
  city: Stockholm
  country: Sverige
  latitude: 59.334063
  longitude: 18.061312

- location: Telenor Stockholm, Kungsgatan
  city: Stockholm
  country: Sverige
  latitude: 59.335812
  longitude: 18.064062

- location: Telenor Täby, Täby Centrum
  city: Täby
  country: Sverige
  latitude: 59.443938
  longitude: 18.071562

- location: Telenor Stockholm, Götgatan
  city: Stockholm
  country: Sverige
  latitude: 59.311937
  longitude: 18.074688

- location: Telenor Stockholm, Humlegårdsgatan
  city: Stockholm
  country: Sverige
  latitude: 59.336312
  longitude: 18.078187

- location: Telenor Farsta, Farsta Centrum
  city: Farsta
  country: Sverige
  latitude: 59.242937
  longitude: 18.091313

- location: Telenor Haninge, Haninge Centrum
  city: Haninge
  country: Sverige
  latitude: 59.169438
  longitude: 18.139938

- location: Telenor Nacka, Nacka Forum
  city: Nacka
  country: Sverige
  latitude: 59.309313
  longitude: 18.165062
