meta:
  name: The Body Shop
  web: https://www.thebodyshop.com/
  wikipedia: https://sv.wikipedia.org/wiki/The_Body_Shop
  category: Kläder och konfektion
  locations: 53

locations:
- location: The Body Shop Torp Köpcentrum
  urn: urn:thebodyshop:store:id:7388
  city: Herrestad
  latitude: 58.354437
  longitude: 11.811187

- location: The Body Shop Stenugnsund
  urn: urn:thebodyshop:store:id:7129
  city: Stenugnsund
  latitude: 58.068637
  longitude: 11.818016

- location: The Body Shop Frölunda Torg
  urn: urn:thebodyshop:store:id:3842
  city: Västra Frölunda
  latitude: 57.652438
  longitude: 11.912937

- location: The Body Shop Kongahälla Center
  urn: urn:thebodyshop:store:id:3838
  city: Kungälv
  latitude: 57.873438
  longitude: 11.967813

- location: The Body Shop Fredsgatan
  urn: urn:thebodyshop:store:id:3996
  city: Göteborg
  latitude: 57.705988
  longitude: 11.970547

- location: The Body Shop Mölndal Galleria
  urn: urn:thebodyshop:store:id:7651
  city: Mölndal
  latitude: 57.655313
  longitude: 12.014188

- location: The Body Shop Kungsbacka
  urn: urn:thebodyshop:store:id:3841
  city: Kungsbacka
  latitude: 57.492687
  longitude: 12.074063

- location: The Body Shop Allum
  urn: urn:thebodyshop:store:id:4657
  city: Partille
  latitude: 57.737938
  longitude: 12.105422

- location: The Body Shop Trollhättan
  urn: urn:thebodyshop:store:id:4883
  city: Trollhättan
  latitude: 58.312438
  longitude: 12.308063

- location: The Body Shop Kullagatan
  urn: urn:thebodyshop:store:id:3798
  city: Helsingborg
  latitude: 56.047687
  longitude: 12.693938

- location: The Body Shop Väla
  urn: urn:thebodyshop:store:id:3815
  city: Helsingborg
  latitude: 56.091563
  longitude: 12.756937

- location: The Body Shop Halmstad
  urn: urn:thebodyshop:store:id:3797
  city: Halmstad
  latitude: 56.675937
  longitude: 12.857188

- location: The Body Shop Borås
  urn: urn:thebodyshop:store:id:3786
  city: Borås
  latitude: 57.720312
  longitude: 12.940938

- location: The Body Shop Triangeln
  urn: urn:thebodyshop:store:id:7033
  city: Malmö
  latitude: 55.594938
  longitude: 13.001313

- location: The Body Shop Lidköping
  urn: urn:thebodyshop:store:id:3806
  city: Lidköping
  latitude: 58.504188
  longitude: 13.155812

- location: The Body Shop Nova Lund
  urn: urn:thebodyshop:store:id:4679
  city: Lund
  latitude: 55.714562
  longitude: 13.160063

- location: The Body Shop Lund
  urn: urn:thebodyshop:store:id:3809
  city: Lund
  latitude: 55.703187
  longitude: 13.190437

- location: The Body Shop Bergvik
  urn: urn:thebodyshop:store:id:7356
  city: Karlstad
  latitude: 59.377187
  longitude: 13.427188

- location: The Body Shop Kristianstad
  urn: urn:thebodyshop:store:id:3805
  city: Kristianstad
  latitude: 56.029937
  longitude: 14.156437

- location: The Body Shop Växjö Grandsamarkand
  urn: urn:thebodyshop:store:id:9553
  city: Växjö
  latitude: 56.884563
  longitude: 14.766312

- location: The Body Shop Kupolen
  urn: urn:thebodyshop:store:id:3960
  city: Borlänge
  latitude: 60.484437
  longitude: 15.418312

- location: The Body Shop Linköping I-huset
  urn: urn:thebodyshop:store:id:4946
  city: Linköping
  latitude: 58.434687
  longitude: 15.585812

- location: The Body Shop Linköping City
  urn: urn:thebodyshop:store:id:4397
  city: Linköping
  latitude: 58.410187
  longitude: 15.622563

- location: The Body Shop Falun
  urn: urn:thebodyshop:store:id:3790
  city: Falun
  latitude: 60.606813
  longitude: 15.628438

- location: The Body Shop Norrköping
  urn: urn:thebodyshop:store:id:3812
  city: Norrköping
  latitude: 58.587812
  longitude: 16.189062

- location: The Body Shop Erikslund
  urn: urn:thebodyshop:store:id:4680
  city: Västerås
  latitude: 59.609063
  longitude: 16.455062

- location: The Body Shop Tuna Park
  urn: urn:thebodyshop:store:id:4075
  city: Eskilstuna
  latitude: 59.371562
  longitude: 16.468812

- location: The Body Shop Wachmeister Kopcenter
  urn: urn:thebodyshop:store:id:3839
  city: Karlskrona
  latitude: 56.651937
  longitude: 16.469812

- location: The Body Shop City
  urn: urn:thebodyshop:store:id:3789
  city: Eskilstuna
  latitude: 59.371938
  longitude: 16.510438

- location: The Body Shop Gallerian Nian
  urn: urn:thebodyshop:store:id:3793
  city: Gävle
  latitude: 60.674187
  longitude: 17.139938

- location: The Body Shop Sundsvall City
  urn: urn:thebodyshop:store:id:3825
  city: Sundsvall
  latitude: 62.391937
  longitude: 17.304437

- location: The Body Shop Birsta City
  urn: urn:thebodyshop:store:id:3824
  city: Sundsvall
  latitude: 62.447063
  longitude: 17.335938

- location: The Body Shop Forum
  urn: urn:thebodyshop:store:id:3830
  city: Uppsala
  latitude: 59.858062
  longitude: 17.640313

- location: The Body Shop Uppsala Gränby Centrum
  urn: urn:thebodyshop:store:id:3844
  city: Uppsala
  latitude: 59.877296
  longitude: 17.672983

- location: The Body Shop SQO Barkarby Outlet
  urn: urn:thebodyshop:store:id:7188
  city: Järfälla
  latitude: 59.41772
  longitude: 17.856421

- location: The Body Shop Vällingby
  urn: urn:thebodyshop:store:id:4225
  city: Vällingby
  latitude: 59.362562
  longitude: 17.874437

- location: The Body Shop Skärholmen
  urn: urn:thebodyshop:store:id:4594
  city: Skärholmen
  latitude: 59.275562
  longitude: 17.907812

- location: The Body Shop Sollentuna Centrum
  urn: urn:thebodyshop:store:id:4508
  city: Sollentuna
  latitude: 59.429063
  longitude: 17.951687

- location: The Body Shop Bromma Blocks
  urn: urn:thebodyshop:store:id:7097
  city: Bromma
  latitude: 59.355572
  longitude: 17.955459

- location: The Body Shop Westfield Mall of Scandanavia
  urn: urn:thebodyshop:store:id:7324
  city: Solna
  latitude: 59.370465
  longitude: 18.002013

- location: The Body Shop Liljeholmstorget
  urn: urn:thebodyshop:store:id:4460
  city: Stockholm
  latitude: 59.309687
  longitude: 18.022188

- location: The Body Shop Drottninggatan
  urn: urn:thebodyshop:store:id:3788
  city: Stockholm
  latitude: 59.333813
  longitude: 18.061312

- location: The Body Shop Gallerian
  urn: urn:thebodyshop:store:id:3792
  city: Stockholm
  latitude: 59.332313
  longitude: 18.067188

- location: The Body Shop Täby Centrum
  urn: urn:thebodyshop:store:id:3826
  city: Täby
  latitude: 59.444063
  longitude: 18.069812

- location: The Body Shop Götgatan
  urn: urn:thebodyshop:store:id:3796
  city: Stockholm
  latitude: 59.318438
  longitude: 18.071312

- location: The Body Shop Sturegallerian
  urn: urn:thebodyshop:store:id:2947
  city: Stockholm
  latitude: 59.336062
  longitude: 18.073437

- location: The Body Shop Ringen
  urn: urn:thebodyshop:store:id:7061
  city: Stockholm
  latitude: 59.308437
  longitude: 18.075812

- location: The Body Shop Farsta
  urn: urn:thebodyshop:store:id:3791
  city: Farsta
  latitude: 59.242812
  longitude: 18.090938

- location: The Body Shop Fältöversten
  urn: urn:thebodyshop:store:id:4561
  city: Stockholm
  latitude: 59.339687
  longitude: 18.091188

- location: The Body Shop Nacka Forum
  urn: urn:thebodyshop:store:id:4383
  city: Nacka
  latitude: 59.309988
  longitude: 18.164516

- location: The Body Shop Visby
  urn: urn:thebodyshop:store:id:3836
  city: Visby
  latitude: 57.637438
  longitude: 18.301687

- location: The Body Shop Umeå Avion
  urn: urn:thebodyshop:store:id:7375
  city: Umeå
  latitude: 63.807187
  longitude: 20.255187

- location: The Body Shop Umeå Utopia
  urn: urn:thebodyshop:store:id:3829
  city: Umeå
  latitude: 63.826187
  longitude: 20.265188
