meta:
  name: Twilfit By Change
  web: https://shop.change.com/
  wikipedia: https://sv.wikipedia.org/wiki/Twilfit
  category: Kläder och konfektion
  locations: 55

locations:
- location: Twilfit Frölunda, Västra Frölunda
  city: Västra Frölunda
  urn: urn:twilfit:store:id:TWR045
  country: Sverige
  latitude: 57.65198
  longitude: 11.911108

- location: Twilfit Kungsgatan, Göteborg
  city: Göteborg
  urn: urn:twilfit:store:id:TWR048
  country: Sverige
  latitude: 57.704675
  longitude: 11.967469

- location: Twilfit Femman, Göteborg
  city: Göteborg
  urn: urn:twilfit:store:id:TWR046
  country: Sverige
  latitude: 57.708475
  longitude: 11.969465

- location: Twilfit Kungmässan, Kungsbacka
  city: Kungsbacka
  urn: urn:twilfit:store:id:TWR106
  country: Sverige
  latitude: 57.492431
  longitude: 12.064543

- location: Twilfit Allum, Partille
  city: Partille
  urn: urn:twilfit:store:id:TWR120
  country: Sverige
  latitude: 57.739274
  longitude: 12.106112

- location: Twilfit Helsingborg
  city: Helsingborg
  urn: urn:twilfit:store:id:TWR034
  country: Sverige
  latitude: 56.048239
  longitude: 12.693124

- location: Twilfit Väla, Ödåkra
  city: Ödåkra-Väla
  urn: urn:twilfit:store:id:TWR035
  country: Sverige
  latitude: 56.091595
  longitude: 12.755673

- location: Twilfit Halmstad
  city: Halmstad
  urn: urn:twilfit:store:id:TWR033
  country: Sverige
  latitude: 56.675672
  longitude: 12.858142

- location: Twilfit by CHANGE Lingerie Emporia
  city: Malmö
  urn: urn:twilfit:store:id:TWR041
  country: Sverige
  latitude: 55.564955
  longitude: 12.972534

- location: CHANGE Lingerie Emporia
  city: Malmö
  urn: urn:twilfit:store:id:TWR117
  country: Sverige
  latitude: 55.60331
  longitude: 13.00131

- location: Twilfit Triangeln, Malmö
  city: Malmö
  urn: urn:twilfit:store:id:TWR038
  country: Sverige
  latitude: 55.595996
  longitude: 13.002423

- location: Twilfit Mobilia, Malmö
  city: Malmö
  urn: urn:twilfit:store:id:TWR039
  country: Sverige
  latitude: 55.580973
  longitude: 13.003461

- location: Twilfit Stora Nygatan, Malmö
  city: Malmö
  urn: urn:twilfit:store:id:TWR037
  country: Sverige
  latitude: 55.603857
  longitude: 13.00415

- location: Twilfit Nova Lund, Lund
  city: Lund
  urn: urn:twilfit:store:id:TWR032
  country: Sverige
  latitude: 55.713403
  longitude: 13.159866

- location: Twilfit Karlstad
  city: Karlstad
  urn: urn:twilfit:store:id:TWR027
  country: Sverige
  latitude: 59.378566
  longitude: 13.499585

- location: Twilfit Skövde
  city: Skövde
  urn: urn:twilfit:store:id:TWR025
  country: Sverige
  latitude: 58.390087
  longitude: 13.845066

- location: Twilfit Kristianstad
  city: Kristianstad
  urn: urn:twilfit:store:id:TWR042
  country: Sverige
  latitude: 56.030046
  longitude: 14.157235

- location: Twilfit Jönköping A6, Jönköping
  city: Jönköping
  urn: urn:twilfit:store:id:TWR024
  country: Sverige
  latitude: 57.782615
  longitude: 14.161906

- location: Twilfit Jönköping C, Jönköping
  city: Jönköping
  urn: urn:twilfit:store:id:TWR023
  country: Sverige
  latitude: 57.782601
  longitude: 14.170564

- location: Twilfit Växjö Grand Samarkand, Växjö
  city: Växjö
  urn: urn:twilfit:store:id:TWR022
  country: Sverige
  latitude: 56.88415
  longitude: 14.761969

- location: Twilfit Marieberg, Örebro
  city: Örebro
  urn: urn:twilfit:store:id:TWR115
  country: Sverige
  latitude: 59.268408
  longitude: 15.209067

- location: Twilfit Örebro
  city: Örebro
  urn: urn:twilfit:store:id:TWR026
  country: Sverige
  latitude: 59.270585
  longitude: 15.210364

- location: Twilfit Linköping
  city: Linköping
  urn: urn:twilfit:store:id:TWR044
  country: Sverige
  latitude: 58.410104
  longitude: 15.624942

- location: Twilfit Falun
  city: Falun
  urn: urn:twilfit:store:id:TWR029
  country: Sverige
  latitude: 60.607281
  longitude: 15.629588

- location: Twilfit Norrköping
  city: Norrköping
  urn: urn:twilfit:store:id:TWR043
  country: Sverige
  latitude: 58.587559
  longitude: 16.189838

- location: Twilfit Giraffen, Kalmar
  city: Kalma
  urn: urn:twilfit:store:id:TWR104
  country: Sverige
  latitude: 56.670568
  longitude: 16.337211

- location: Twilfit Eskilstuna
  city: Eskilstuna
  urn: urn:twilfit:store:id:TWR031
  country: Sverige
  latitude: 59.371888
  longitude: 16.510487

- location: Twilfit Västerås Igor, Västerås
  city: Västerås
  urn: urn:twilfit:store:id:TWR028
  country: Sverige
  latitude: 59.611448
  longitude: 16.543446

- location: Twilfit Valbo
  city: Valbo
  urn: urn:twilfit:store:id:TWR055
  country: Sverige
  latitude: 60.633207
  longitude: 16.993443

- location: Twilfit Nyköping
  city: Nyköping
  urn: urn:twilfit:store:id:TWR036
  country: Sverige
  latitude: 58.752022
  longitude: 17.005051

- location: Twilfit Gävle
  city: Gävle
  urn: urn:twilfit:store:id:TWR054
  country: Sverige
  latitude: 60.674346
  longitude: 17.140761

- location: Twilfit Birsta City, Sundsvall
  city: Sundsvall
  urn: urn:twilfit:store:id:TWR110
  country: Sverige
  latitude: 62.447158
  longitude: 17.334627

- location: Twilfit St Per, Uppsala
  city: Uppsala
  urn: urn:twilfit:store:id:TWR049
  country: Sverige
  latitude: 59.860221
  longitude: 17.637982

- location: Twilfit Gränbystaden, Uppsala
  city: Uppsala
  urn: urn:twilfit:store:id:TWR050
  country: Sverige
  latitude: 59.876226
  longitude: 17.674702

- location: Twilfit Jakobsberg, Visirstråket
  city: Järfälla
  urn: urn:twilfit:store:id:TWR019
  country: Sverige
  latitude: 59.42318
  longitude: 17.835977

- location: Twilfit Vällingby
  city: Vällingby
  urn: urn:twilfit:store:id:TWR008
  country: Sverige
  latitude: 59.363227
  longitude: 17.873016

- location: Twilfit Skärholmen
  city: Skärholmen
  urn: urn:twilfit:store:id:TWR010
  country: Sverige
  latitude: 59.275568
  longitude: 17.907526

- location: Twilfit Sollentuna
  city: Sollentuna
  urn: urn:twilfit:store:id:TWR021
  country: Sverige
  latitude: 59.429278
  longitude: 17.951839

- location: Twilfit Bromma Blocks, Bromma
  city: Bromma
  urn: urn:twilfit:store:id:TWR009
  country: Sverige
  latitude: 59.35636
  longitude: 17.953134

- location: Twilfit Solna Centrum, Stockholm
  city: Solna
  urn: urn:twilfit:store:id:TWR118
  country: Sverige
  latitude: 59.35547
  longitude: 17.9713

- location: Twilfit Huddinge
  city: Huddinge
  urn: urn:twilfit:store:id:TWR011
  country: Sverige
  latitude: 59.235702
  longitude: 17.981612

- location: Twilfit Mall of Scandinavia, Solna
  city: Solna
  urn: urn:twilfit:store:id:TWR013
  country: Sverige
  latitude: 59.370471
  longitude: 18.003667

- location: Twilfit Liljeholmen, Stockholm
  city: Stockholm
  urn: urn:twilfit:store:id:TWR017
  country: Sverige
  latitude: 59.309843
  longitude: 18.023254

- location: Twilfit Västermalmsgallerian, Stockholm
  city: Stockholm
  urn: urn:twilfit:store:id:TWR004
  country: Sverige
  latitude: 59.336357
  longitude: 18.034015

- location: Twilfit Drottninggatan, Stockholm
  city: Stockholm
  urn: urn:twilfit:store:id:TWR003
  country: Sverige
  latitude: 59.336607
  longitude: 18.058697

- location: Twilfit Gallerian, Stockholm
  city: Stockholm
  urn: urn:twilfit:store:id:TWR005
  country: Sverige
  latitude: 59.332433
  longitude: 18.067278

- location: Twilfit Ringen, Stockholm
  city: Stockholm
  urn: urn:twilfit:store:id:TWR002
  country: Sverige
  latitude: 59.307441
  longitude: 18.069416

- location: Twilfit Täby
  city: Täby
  urn: urn:twilfit:store:id:TWR012
  country: Sverige
  latitude: 59.445062
  longitude: 18.071473

- location: Twilfit Nybrogatan, Stockholm
  city: Stockholm
  urn: urn:twilfit:store:id:TWR001
  country: Sverige
  latitude: 59.334539
  longitude: 18.077127

- location: Twilfit Fältöversten, Stockholm
  city: Stockholm
  urn: urn:twilfit:store:id:TWR007
  country: Sverige
  latitude: 59.338315
  longitude: 18.08996

- location: Twilfit Farsta centrum, Stockholm
  city: Farsta
  urn: urn:twilfit:store:id:TWR119
  country: Sverige
  latitude: 59.24028
  longitude: 18.09722

- location: Twilfit Sickla, Nacka
  city: Nacka
  urn: urn:twilfit:store:id:TWR016
  country: Sverige
  latitude: 59.305864
  longitude: 18.124142

- location: Twilfit Nacka
  city: Nacka
  urn: urn:twilfit:store:id:TWR015
  country: Sverige
  latitude: 59.309948
  longitude: 18.167705

- location: Twilfit Skellefteå
  city: Skellefteå
  urn: urn:twilfit:store:id:TWR052
  country: Sverige
  latitude: 64.750089
  longitude: 20.954396

- location: Twilfit Luleå
  city: Luleå
  urn: urn:twilfit:store:id:TWR053
  country: Sverige
  latitude: 65.583937
  longitude: 22.153096
