meta:
  name: Jensens Bøfhus
  web: https://jensens.com/sv/
  wikipedia: https://sv.wikipedia.org/wiki/Jensen%27s_B%C3%B8fhus
  category: Restaurantkedjor
  locations: 5

locations:
- location: Jensens Bøfhus Emporia
  city: Malmö
  country: Sverige
  urn: urn:jensens:location:id:64
  latitude: 55.563437
  longitude: 12.974563

- location: Jensens Bøfhus Malmø City
  city: Malmö
  country: Sverige
  urn: urn:jensens:location:id:63
  latitude: 55.600812
  longitude: 13.000813

- location: Jensens Bøfhus Jönköping
  city: Jönköping
  country: Sverige
  urn: urn:jensens:location:id:62
  latitude: 57.783437
  longitude: 14.163312

- location: Jensens Bøfhus Vasagatan
  city: Stockholm
  country: Sverige
  urn: urn:jensens:location:id:66
  latitude: 59.331812
  longitude: 18.058687

- location: Jensens Bøfhus Sergelgatan
  city: Stockholm
  country: Sverige
  urn: urn:jensens:location:id:65
  latitude: 59.333062
  longitude: 18.063812
